STATION,NAME,LATITUDE,LONGITUDE,ELEVATION,DATE,CDSD,DSND,DSNW,EMNT,EMSD,EMSN,EMXP,EMXT,HDSD,PRCP,SNOW,TAVG,TMAX,TMIN
USR0000CTHO,THOMES CREEK CALIFORNIA,39.8644,-122.6097,317.0,2010,2004,,,30,,,,109,,,,62.7,72.0,53.5
USC00049099,TWENTYNINE PALMS,34.128,-116.0369,602.0,2010,2997,0,0,27,0,0.0,0.80,108,1764,3.50,0.0,68.6,81.0,56.3
USR0000CRDR,READER RANCH CALIFORNIA,39.3036,-121.1172,599.8,2010,1294,,,25,,,,109,3472,,,59.1,70.6,47.6
USR0000CTHS,THOUSAND OAKS CALIFORNIA,34.21,-118.87,242.3,2010,445,,,34,,,,106,2007,,,60.2,69.4,51.0
USR0000CABS,ARBUCKLE BASIN CALIFORNIA,40.3983,-122.8333,579.1,2010,1359,,,28,,,,100,3820,,,57.6,65.1,50.2
USC00047902,SANTA BARBARA,34.4167,-119.6844,1.5,2010,,,0,,,0.0,,,,,0.0,,,
USC00042214,CULVER CITY,34.005,-118.4139,28.0,2010,,0,0,,0,0.0,,,,,0.0,,,
USC00045721,MITCHELL CAVERNS,34.9436,-115.5469,1325.9,2010,1961,3,2,21,2,2.0,,101,3101,,4.4,61.6,70.1,53.2
USR0000CREA,REDDING AIRPORT CALIFORNIA,40.5158,-122.2906,152.4,2010,,,,,,,,,3039,,,,,
USC00045968,MOUNT LAGUNA NUMBER 3,32.8672,-116.4194,1804.4,2010,,33,,,18,,,,,,,,,
US1CAMT0008,KING CITY 2.0 SSW,36.1872,-121.1461,113.1,2010,,,,,,,1.54,,,16.59,,,,
US1CAMT0007,MONTEREY 1.5 ESE,36.5937,-121.8557,32.9,2010,,,,,,,1.30,,,20.66,,,,
US1CAMT0006,CASTROVILLE 1.6 ENE,36.7764,-121.7284,5.5,2010,,,,,,,1.20,,,22.76,,,,
US1CAMT0005,KING CITY 13.2 S,36.0249,-121.1745,336.5,2010,,,,,,,1.70,,,25.33,,,,
USR0000CGOO,GOOSE VALLEY CALIFORNIA,33.0736,-116.8458,466.3,2010,864,,,27,,,,109,2097,,,61.3,76.1,46.6
US1CAMT0003,LOCKWOOD 3.6 NW,35.9808,-121.1174,360.0,2010,,,,,,,1.65,,,22.82,,,,
USR0000CRCH,RANCHITA CALIFORNIA,33.2222,-116.4975,1345.7,2010,1311,,,24,,,,96,3472,,,58.7,68.2,49.2
USC00044405,JOSHUA TREE,34.1471,-116.2747,781.2,2010,2252,0,0,22,0,0.0,1.79,107,2497,8.19,0.0,64.5,78.3,50.7
USC00047916,SANTA CRUZ,36.9905,-121.9911,39.6,2010,122,0,0,29,0,0.0,2.79,103,2791,39.03,0.0,57.3,67.5,47.0
USC00046826,PETALUMA AIRPORT,38.2577,-122.6077,6.1,2010,,0,0,,0,0.0,1.82,,,34.48,0.0,,,
USC00044881,LEE VINING,37.9567,-119.1194,2071.7,2010,,106,31,,28,10.7,1.89,91,6770,24.13,124.7,,59.5,
USW00093210,OROVILLE MUNICIPAL AIRPORT,39.49,-121.61833,57.9,2010,1450,,,29,,,1.48,106,2717,31.83,,61.9,72.7,51.1
USW00093209,PASO ROBLES MUNICIPAL AIRPORT,35.6697,-120.6283,246.9,2010,874,,,24,,,1.70,109,2957,16.83,,59.7,75.0,44.5
USC00044412,JULIAN CDF,33.0763,-116.5925,1284.7,2010,,4,0,,3,0.0,3.50,,,43.65,0.0,,,
USC00041149,BUCKHORN,40.8669,-121.8463,1158.2,2010,,0,0,,0,0.0,5.01,,,88.03,0.0,,,
USC00042239,CUYAMACA,32.9897,-116.5872,1414.3,2010,457,,4,18,,6.0,2.92,101,4678,50.44,17.9,52.7,65.4,40.1
US1CASH0008,REDDING 2.9 NNE,40.6089,-122.3388,198.7,2010,,,,,,,4.19,,,54.29,,,,
USC00044890,LEMON COVE,36.3817,-119.0264,156.4,2010,1771,0,0,30,0,0.0,1.85,111,2465,24.95,0.0,63.2,77.0,49.5
USW00093205,MARYSVILLE YUBA CO AIRPORT,39.1019,-121.5677,18.9,2010,1253,,,29,,,1.30,107,2793,24.89,,61.4,73.8,49.0
USW00093206,SAN LUIS OBISPO MCCHESNEY FIELD,35.23722,-120.64139,61.0,2010,232,,,30,,,3.63,111,2364,33.07,,58.7,70.0,47.5
USS0020H12S,Dismal Swamp,41.99,-120.18,2243.3,2010,2,236,,-6,82,,3.20,81,9466,62.66,,38.8,47.7,29.9
USC00047933,SANTA MARGARITA BOOST,35.3741,-120.6375,349.9,2010,,0,0,,0,0.0,,,,,0.0,,,
USC00041159,BUCKS CREEK,39.9372,-121.3147,576.4,2010,,0,0,,0,0.0,3.36,,,80.93,0.0,,,
USC00043578,GRATON,38.4305,-122.8647,61.0,2010,230,0,0,26,0,0.0,5.40,108,3175,59.47,0.0,56.9,71.2,42.6
USC00046602,PACOIMA DAM FC33A E,34.3294,-118.4005,472.4,2010,,0,0,,0,0.0,1.95,,,24.81,0.0,,,
US1CASH0010,REDDING 7.9 NNE,40.6721,-122.2913,207.6,2010,,,,,,,3.53,,,61.05,,,,
USC00043573,GRASS VALLEY NUMBER 2,39.2041,-121.068,731.5,2010,655,1,2,22,1,2.0,4.09,101,4451,69.60,3.7,54.8,66.1,43.6
USR0000CRAV,RAVENDALE CALIFORNIA,40.7308,-120.3164,1614.8,2010,333,,,-2,,,,98,6987,,,47.2,60.2,34.2
USC00044422,JUNCAL DAM,34.4908,-119.5069,688.8,2010,,0,0,,0,0.0,,,,,0.0,,,
USR0000CCDG,CEDAR GROVE CALIFORNIA,36.7878,-118.6561,1438.7,2010,364,,,7,,,,100,5339,,,51.3,67.2,35.3
USW00024216,RED BLUFF MUNICIPAL AIRPORT,40.1519,-122.2536,107.6,2010,1726,,,27,,,1.47,111,2860,27.23,,62.1,73.7,50.6
USW00023129,LONG BEACH DAUGHERTY FIELD,33.8116,-118.1463,9.4,2010,744,,,35,,,2.46,111,1314,25.26,,63.2,72.2,54.3
USW00024215,MOUNT SHASTA,41.3325,-122.33278,1077.5,2010,310,,,6,,,2.69,98,5982,52.51,,49.6,61.4,37.8
USW00024213,EUREKA WEATHER FORECAST OFFICE WOODLEY ISLAND,40.8097,-124.1602,6.1,2010,0,0,0,30,0,0.0,2.05,76,4413,53.79,0.0,52.6,58.9,46.4
US1CAYL0001,DAVIS 1.2 SE,38.5425,-121.721,11.0,2010,,,,,,,1.53,,,23.05,,,,
US1CAYL0002,DAVIS 0.8 NE,38.5618,-121.7241,12.5,2010,,,,,,,1.45,,,22.28,,,,
US1CAYL0006,DAVIS 1.4 SSE,38.5381,-121.7225,1.2,2010,,,,,,,1.48,,,24.14,,,,
USR0000CTE2,TEMESCAL LPF CALIFORNIA,34.4806,-118.7556,347.5,2010,1098,,,31,,,,112,1717,,,62.9,76.3,49.4
USC00042494,DOWNEY FIRE STATION FC107C,33.9297,-118.1455,33.5,2010,,0,0,,0,0.0,,,,,0.0,,,
USC00042012,CORCORAN IRRIGATION DIST.,36.0975,-119.5817,61.0,2010,,0,0,,0,0.0,1.34,,,11.68,0.0,,,
USW00023130,VAN NUYS AIRPORT,34.20972,-118.48917,234.7,2010,1282,,,34,,,2.07,109,1494,23.18,,64.3,75.9,52.8
USR0000COZE,OZENA CALIFORNIA,34.6819,-119.3539,1118.6,2010,937,,,19,,,,105,3620,,,57.6,74.7,40.4
USR0000CIND,INDIAN WELL CALIFORNIA,41.7417,-121.5383,1453.9,2010,437,,,7,,,,97,6288,,,49.2,61.2,37.1
USR0000CCAR,CARRIZO CALIFORNIA,35.0964,-119.7728,759.0,2010,1606,,,29,,,,107,2771,,,61.6,72.1,51.0
USR0000CCAT,CATHEYS VALLEY CALIFORNIA,37.4681,-120.1106,365.8,2010,,,,,,,,,2979,,,,,
USW00023136,CAMARILLO AIRPORT,34.21667,-119.08333,23.5,2010,259,,,32,,,2.23,98,2015,17.13,,60.3,70.1,50.4
USC00046624,PALMDALE,34.5883,-118.0938,796.1,2010,,,0,,,0.0,,,2670,,0.0,,,
USC00045532,MERCED,37.2888,-120.5158,46.9,2010,,0,0,28,0,0.0,0.98,,2666,18.28,0.0,,,49.5
US1CAOR0021,ANAHEIM 4.9 ENE,33.8632,-117.7918,90.8,2010,,,,,,,2.28,,,24.74,,,,
USR0000CMTZ,MOUNT ZION CALIFORNIA,38.3894,-120.6511,902.2,2010,1363,,,27,,,,102,3628,,,58.5,66.6,50.4
USR0000CEEL,EEL RIVER CALIFORNIA,39.8333,-123.0833,457.2,2010,,,,,,,,,3824,,,,,
USC00046635,PALM SPRINGS,33.8275,-116.5097,129.5,2010,,0,0,,0,0.0,4.00,,,11.15,0.0,,,
USC00047965,SANTA ROSA,38.438,-122.6977,53.0,2010,,0,0,27,0,0.0,3.22,,,40.95,0.0,,,46.0
USR0000CCAN,CANBY CALIFORNIA,41.4342,-120.8678,1314.3,2010,,,,,,,,,6488,,,,,
USR0000CCAM,CAMERON FIRE STATION CALIFORNI,32.7214,-116.4631,1049.4,2010,726,,,21,,,,104,3654,,,56.7,73.3,40.2
USR0000CCAL,CALLAHAN CALIFORNIA,41.3075,-122.7958,955.9,2010,728,,,14,,,,101,5465,,,52.1,63.8,40.3
USR0000CCAA,CAHUILLA CALIFORNIA,32.9736,-115.1736,84.7,2010,,,,,,,,,661,,,,,
USR0000CEEC,EEL RIVER CAMP CALIFORNIA,40.1383,-123.8236,135.9,2010,361,,,29,,,,108,3567,,,56.4,68.2,44.7
USC00044211,IDYLLWILD FIRE DEPARTMENT,33.7572,-116.7066,1639.8,2010,413,,9,17,,6.0,2.93,94,,35.31,23.9,53.0,67.4,38.7
USW00023110,LEMOORE REEVES NAS,36.33333,-119.95,70.7,2010,,,,,,,0.60,,2832,11.82,,,,
USR0000CTAL,TALEGA CALIFORNIA,33.4781,-117.4858,366.7,2010,939,,,37,,,,110,1398,,,63.3,73.5,53.1
USR0000CMTD,MOUNT DIABLO CALIFORNIA,37.8817,-121.9142,1173.2,2010,,,,,,,,,4817,,,,,
USR0000CGHP,GRASSHOPPER CALIFORNIA,40.7817,-120.7844,1877.0,2010,150,,,-3,,,,92,7949,,,44.0,55.7,32.3
USC00041194,BURBANK VALLEY PUMP,34.1866,-118.348,199.6,2010,,0,0,,0,0.0,2.36,110,,26.22,0.0,,75.2,
USC00045790,MONTEBELLO,34.0191,-118.1052,75.0,2010,,0,0,,0,0.0,,,,,0.0,,,
USR0000CTAN,TANBARK CALIFORNIA,34.2069,-117.7606,792.5,2010,1273,,,29,,,,105,2391,,,61.4,72.4,50.4
USC00047731,SAN CLEMENTE DAM,36.4375,-121.7092,182.9,2010,,0,0,,0,0.0,1.90,,,28.13,0.0,,,
USC00043134,FORESTHILL RANGER STATION,39.01,-120.8455,919.0,2010,,0,0,,0,0.0,8.67,,,77.74,0.0,,,
USC00045795,MONTEREY,36.5902,-121.9102,117.3,2010,62,0,0,34,0,0.0,1.31,96,3477,25.72,0.0,55.2,62.3,48.1
USR0000CTAR,TARGET RANGE CALIFORNIA,33.3722,-117.3589,279.8,2010,,,,39,,,,,1523,,,,,53.5
USR0000CCOH,COHASSET CALIFORNIA,39.8717,-121.7689,528.2,2010,1696,,,31,,,,107,3064,,,61.0,68.8,53.3
USR0000CCOL,COLLINS BALDY CALIFORNIA,41.775,-122.9503,1674.3,2010,360,,,13,,,,92,7238,,,46.0,53.8,38.2
USC00049490,WEAVERVILLE,40.7367,-122.9404,627.3,2010,567,4,4,18,3,6.0,1.74,105,4729,45.98,11.0,54.1,68.0,40.2
US1CAOR0001,ORANGE 3.5 ENE,33.8291,-117.77,247.2,2010,,,,,,,1.70,,,19.49,,,,
USW00023161,DAGGETT AIRPORT,34.8536,-116.7858,584.3,2010,2932,0,0,23,0,0.0,1.06,112,,7.69,0.0,67.0,80.6,53.3
USR0000CPHI,PINE HILLS CALIFORNIA,33.0164,-116.6339,0.0,2010,909,,,26,,,,102,,,,58.1,70.1,46.1
US1CAOR0006,SILVERADO 1.0 ESE,33.7455,-117.6199,424.9,2010,,,,,,,7.08,,,41.20,,,,
USW00024259,MONTAGUE SISKIYOU AIRPORT,41.78139,-122.46806,808.0,2010,590,,,14,,,1.46,103,5591,15.10,,52.0,65.4,38.6
USR0000CCOA,CORONA CALIFORNIA,33.8744,-117.5492,195.1,2010,1502,,,32,,,,115,,,,65.6,78.4,52.9
USW00024257,REDDING MUNICIPAL AIRPORT,40.5175,-122.2986,151.5,2010,1711,,,26,,,2.29,110,3086,39.74,,61.4,73.2,49.7
USR0000CCP9,CAMP 9 CALIFORNIA,34.3617,-118.4217,1219.2,2010,1255,,,26,,,,104,3296,,,58.7,67.1,50.4
USR0000CPIE,PIERCE CALIFORNIA,40.2461,-120.6422,1737.4,2010,273,,,1,,,,91,6616,,,47.5,58.3,36.7
USC00040673,BEN LOMOND NUMBER 4,37.0855,-122.0797,128.0,2010,273,0,0,26,0,0.0,3.79,109,2820,64.85,0.0,57.6,71.4,43.8
USR0000CCOU,CO LINE CALIFORNIA,39.0189,-122.4119,635.5,2010,1526,,,29,,,,107,3342,,,59.9,71.2,48.6
USR0000CPIH,PINEHURST CALIFORNIA,36.6853,-119.0,1237.5,2010,1081,,,21,,,,103,4178,,,56.2,66.9,45.6
USC00040436,BAKER,35.27611,-116.06278,293.2,2010,3561,0,0,24,0,0.0,1.30,117,,8.94,0.0,69.6,84.7,54.5
USR0000CLAB,LOS BANOS CALIFORNIA,37.0547,-121.0531,106.7,2010,1435,,,33,,,,105,2267,,,62.9,72.9,52.9
USR0000CESP,ESPERANZA CALIFORNIA,38.2428,-120.515,780.0,2010,958,,,22,,,,105,4064,,,56.6,68.4,44.7
USR0000CCOR,CORRALITOS CALIFORNIA,36.9911,-121.7978,137.2,2010,202,,,29,,,,107,2751,,,57.3,69.0,45.7
US1CAOR0013,PLACENTIA 2.1 ESE,33.8685,-117.8218,78.0,2010,,,,,,,2.45,,,26.19,,,,
USW00023174,LOS ANGELES INTERNATIONAL AIRPORT,33.938,-118.3888,29.6,2010,326,,,39,,,2.23,105,1387,20.05,,62.0,68.4,55.5
US1CAOR0016,NEWPORT BEACH 3.1 ESE,33.5894,-117.8652,25.6,2010,,,,,,,3.43,,,24.63,,,,
USC00047085,PORTOLA,39.8053,-120.4719,1478.3,2010,,,33,-4,,13.0,1.85,96,,30.53,128.1,45.9,61.0,30.8
USC00040449,BALCH POWER HOUSE,36.9092,-119.0883,528.8,2010,,0,0,,0,0.0,,,,,0.0,,,
USW00023179,NEEDLES AIRPORT,34.7675,-114.6188,271.3,2010,4464,,,31,,,1.66,120,1222,5.98,,74.1,86.0,62.2
US1CAOR0017,MISSION VIEJO 1.6 ENE,33.6239,-117.6275,310.3,2010,,,,,,,4.56,,,32.81,,,,
USC00040444,BAKERSFIELD 5 NW,35.4186,-119.0508,143.3,2010,,0,0,,0,0.0,,,,,0.0,,,
USC00043710,HAIWEE,36.1388,-117.9527,1165.9,2010,2026,,,13,,,2.47,110,2869,12.92,,62.7,78.1,47.4
USC00041534,CARMEL VALLEY,36.4805,-121.7244,146.3,2010,,0,0,27,0,0.0,1.40,,3028,24.00,0.0,,,44.5
USC00043714,HALF MOON BAY,37.4725,-122.44333,8.2,2010,3,0,0,31,0,0.0,1.74,86,3748,30.73,0.0,54.6,62.4,46.8
US1CAFR0005,TOLLHOUSE 6.2 SSE,36.9342,-119.3586,425.8,2010,,,,,,,3.00,,,41.47,,,,
US1CAFR0003,TOLLHOUSE 2.0 SSE,36.9897,-119.3971,509.9,2010,,,,,,,3.17,,,43.85,,,,
USS0019L19S,Ebbetts Pass,38.55,-119.8,2671.6,2010,2,235,,1,105,,4.50,77,8765,73.59,,40.5,48.9,32.1
USC00040212,ANGWIN PAC UNION COL,38.573,-122.4405,522.7,2010,422,0,0,27,0,0.0,3.73,100,3778,52.44,0.0,55.5,66.0,44.9
USC00049026,TRINITY RIVER HATCHERY,40.7263,-122.7947,567.2,2010,635,0,0,21,0,0.5,3.25,104,4552,44.85,0.8,54.7,68.2,41.1
USC00040693,BERKELEY,37.8744,-122.2605,94.5,2010,150,,0,34,,0.0,1.79,104,2777,32.13,0.0,57.4,66.7,48.1
USR0000CCLE,CLEAR CREEK CALIFORNIA,34.2711,-118.1525,914.4,2010,1392,,,30,,,,99,2213,,,60.9,69.0,53.0
USC00049285,VENTURA,34.2825,-119.2919,32.0,2010,,0,0,,0,0.0,2.77,,,23.33,0.0,,,
USW00023152,BURBANK GLENDALE PASADENA AIRPORT,34.20056,-118.3575,225.9,2010,1141,,,34,,,1.88,110,1470,22.29,,64.0,74.6,53.4
USW00023155,BAKERSFIELD AIRPORT,35.4344,-119.0542,149.0,2010,2125,0,0,31,0,0.0,1.53,111,2242,12.52,0.0,65.0,76.7,53.2
USC00049040,TRUCKEE TAHOE AIRPORT DISTRICT,39.318,-120.145,1798.3,2010,,,35,,,13.0,2.87,94,,34.11,164.0,,59.2,
USR0000CCLA,CLAREMONT CALIFORNIA,34.1369,-117.7069,501.4,2010,,,,,,,,,1976,,,,,
USW00023157,BISHOP AIRPORT,37.3711,-118.358,1250.3,2010,1095,,3,12,,1.8,3.32,107,4735,9.16,5.3,55.5,73.3,37.6
USW00023158,BLYTHE AIRPORT,33.6186,-114.7142,120.4,2010,4153,,,26,,,1.46,117,1083,4.54,,73.5,87.1,59.9
USC00041312,CALISTOGA,38.5961,-122.6013,121.9,2010,,,0,,,0.0,,,,,0.0,,,
USC00042402,DE SABLA,39.8716,-121.6108,826.0,2010,,,,,,,6.32,,,86.46,,,,
USC00045915,MOUNT DIABLO JUNCTION,37.8792,-121.9303,661.4,2010,695,0,0,23,0,0.0,2.76,99,3446,34.55,0.0,56.6,65.1,48.1
USC00041316,CALLAHAN,41.3111,-122.8044,970.8,2010,281,0,0,11,0,0.0,3.05,98,5823,27.53,0.0,50.4,64.7,36.0
USR0000CCLK,CLARK CALIFORNIA,33.8767,-117.3089,524.3,2010,1157,,,29,,,,108,1889,,,62.8,75.5,50.2
USC00049035,TRONA,35.7636,-117.3908,516.6,2010,2957,0,0,24,0,0.0,1.00,112,2194,7.07,0.0,67.0,80.8,53.2
USC00049053,TULELAKE,41.96,-121.4744,1229.9,2010,111,,11,-3,,4.0,0.70,94,6929,10.19,19.8,46.8,61.5,32.0
USS0020H13S,Adin Mtn,41.24,-120.79,1886.7,2010,2,197,,-9,43,,1.70,86,8428,35.96,,41.8,53.7,29.8
USR0000CTM2,TEMESCAL CNF CALIFORNIA,33.7625,-117.4828,342.9,2010,,,,,,,,,1413,,,,,
USW00093230,SOUTH LAKE TAHOE AIRPORT,38.8983,-119.9947,1924.5,2010,42,,,-9,,,3.74,90,7638,26.70,,44.5,58.4,30.5
USR0000CAGD,ARROYO GRANDE CALIFORNIA,35.1792,-120.3919,319.4,2010,601,,,30,,,,110,2427,,,59.7,73.5,45.9
USC00042410,DESERT CENTER 2 NNE,33.7377,-115.3925,227.7,2010,,0,0,,0,0.0,,,,,0.0,,,
USR0000CRIC,RICE VALLEY CALIFORNIA,34.0608,-114.7322,249.9,2010,4022,,,23,,,,116,1322,,,72.6,86.9,58.4
USC00043747,HANFORD 1 S,36.3158,-119.637,72.2,2010,1619,0,0,28,0,0.0,1.79,108,2829,15.15,0.0,62.1,74.3,49.9
USR0000CGSP,GREEN SPRING CALIFORNIA,37.8331,-120.5,310.9,2010,1469,,,28,,,,106,3006,,,60.9,71.9,49.8
USW00093225,SACRAMENTO METROPOLITAN AIRPORT,38.69556,-121.58972,7.0,2010,1062,,,29,,,1.39,106,2972,22.44,,60.4,72.5,48.4
USW00093227,NAPA CO AIRPORT,38.2102,-122.2847,4.3,2010,178,,,24,,,1.51,104,3623,29.08,,56.0,67.4,44.5
USW00093228,HAYWARD AIR TERMINAL,37.6542,-122.115,13.1,2010,281,,,33,,,1.34,100,2586,21.15,,58.9,66.9,50.9
USW00003104,DESERT RESORTS REGIONAL AIRPORT,33.62667,-116.15944,-36.0,2010,3507,0,,20,0,,1.15,116,1250,4.47,,71.3,86.9,55.8
US1CAKG0004,HANFORD 3.6 N,36.3769,-119.6527,78.6,2010,,,,,,,1.81,,,14.15,,,,
USW00003102,ONTARIO INTERNATIONAL AIRPORT,34.05611,-117.60028,289.3,2010,1414,,,30,,,2.84,112,1590,21.73,,64.3,76.5,52.1
USC00045933,MOUNT HAMILTON,37.3436,-121.6425,1282.0,2010,696,11,11,20,6,5.5,1.67,92,4835,33.52,30.5,53.2,59.3,47.1
US1CAKG0005,HANFORD 1.7 WNW,36.3349,-119.6743,74.7,2010,,,,,,,1.69,,,14.11,,,,
USW00023188,SAN DIEGO INTERNATIONAL AIRPORT,32.7336,-117.1831,4.6,2010,438,,,42,,,2.01,100,1244,16.29,,62.9,68.6,57.1
USW00023187,SANDBERG,34.7436,-118.7242,1374.6,2010,875,,,22,,,1.49,96,4466,16.01,,54.8,63.2,46.5
USW00023182,PALMDALE AIRPORT,34.62944,-118.08361,769.2,2010,1804,0,,21,0,,1.03,107,3039,10.90,,61.6,75.2,48.0
USC00049073,TURLOCK NUMBER 2,37.5005,-120.855,35.1,2010,1293,0,0,29,0,0.0,1.05,104,2418,16.92,0.0,61.7,72.3,51.0
USW00003131,SAN DIEGO MONTGOMERY FIELD,32.81583,-117.13944,127.1,2010,528,,,35,,,2.17,107,1507,20.16,,62.0,70.5,53.5
USW00004222,REDDING 12 WNW,40.6507,-122.6068,432.2,2010,1248,,,25,,,4.93,107,3616,69.67,,58.4,69.8,47.0
USC00040010,ACAMPO 5 NE,38.2177,-121.2013,26.5,2010,,0,0,,0,0.0,1.38,,,24.10,0.0,,,
USW00093245,BODEGA 6 WSW,38.3208,-123.0747,19.2,2010,0,,,34,,,2.83,77,4557,46.30,,52.6,57.8,47.3
USC00040014,ACTON ESCONDIDO CANYON,34.4938,-118.2713,863.5,2010,,0,0,,0,0.0,1.65,,,19.30,0.0,,,
USC00043761,HAPPY CAMP RANGER STATION,41.8042,-123.3758,341.4,2010,,0,0,,0,0.0,,,,,0.0,,,
USR0000CELC,EL CARISO CALIFORNIA,33.6472,-117.4111,926.0,2010,,,,,,,,,2002,,,,,
USW00023199,EL CENTRO NAF,32.81667,-115.68333,-12.8,2010,,,,,,,1.04,,979,4.18,,,,
USW00024286,CRESCENT CITY MCNAMARA AIRPORT,41.78028,-124.23667,17.1,2010,0,0,,31,0,,2.52,77,4746,75.44,,51.8,57.1,46.4
USW00024283,ARCATA EUREKA AIRPORT,40.97806,-124.10861,61.0,2010,0,,,28,,,2.43,78,4877,64.48,,51.4,58.1,44.8
USW00093241,VACAVILLE NUT TREE AIRPORT,38.3775,-121.9575,33.2,2010,1200,,,28,,,,109,2471,,,61.4,73.4,49.4
USW00093242,MADERA MUNICIPAL AIRPORT,36.98778,-120.11056,77.1,2010,1408,,,27,,,0.83,107,2753,16.17,,61.6,74.4,48.7
USR0000CCHC,CHICO CALIFORNIA,39.7119,-121.7789,70.1,2010,1351,,,26,,,,110,2917,,,61.1,72.9,49.2
USW00093243,MERCED 23 WSW,37.2381,-120.8825,23.8,2010,803,,,22,,,0.77,104,3283,13.70,,58.7,73.8,43.6
USR0000CCHB,CHEESEBORO CALIFORNIA,34.1847,-118.7172,502.9,2010,1392,,,36,,,,109,,,,63.8,74.3,53.3
USR0000CPAN,PANAMINT CALIFORNIA,36.1203,-117.0878,2097.0,2010,816,,,9,,,,96,5127,,,53.4,65.5,41.3
USR0000CACT,ACTON CALIFORNIA,34.4458,-118.2,792.5,2010,,,,,,,,,2791,,,,,
USR0000CTIM,TIMBER MOUNTAIN CALIFORNIA,41.6294,-121.2981,1511.8,2010,,,,,,,,,6688,,,,,
USW00003122,TORRANCE AIRPORT,33.8016,-118.3419,27.4,2010,,0,0,,0,0.0,4.11,,,23.24,0.0,,,
USR0000CVND,VANDENBERG CALIFORNIA,34.7586,-120.4861,320.0,2010,245,,,34,,,,104,2576,,,57.2,66.1,48.3
USC00044863,LEBEC,34.8328,-118.865,1092.7,2010,,1,1,,1,1.0,1.80,,,7.41,1.0,,,
USC00044628,LA CRESCENTA FC251C,34.2222,-118.2377,470.9,2010,,0,0,,0,0.0,,,,,0.0,,,
USR0000CCHI,CHILAO CALIFORNIA,34.3317,-118.0303,1661.2,2010,1001,,,21,,,,93,3696,,,57.0,66.1,47.9
USC00040029,ADIN RANGER STATION,41.1936,-120.9447,1278.6,2010,,30,18,,2,5.0,0.80,,,15.34,52.8,,,
USR0000CPAT,PATTY MOCUS CALIFORNIA,40.295,-122.8667,1066.8,2010,950,,,24,,,,100,4862,,,53.9,63.5,44.4
USR0000CELI,MOUNT ELIZABETH CALIFORNIA,38.0631,-120.2469,1503.6,2010,861,,,18,,,,98,4790,,,53.9,62.6,45.2
USW00023191,AVALON CATALINA AIRPORT,33.405,-118.41583,488.3,2010,,,,,,,2.09,,2389,25.81,,,,
USR0000CPAR,PARKFIELD CALIFORNIA,35.8989,-120.4319,467.9,2010,938,,,23,,,,107,3313,,,58.6,74.7,42.5
USW00023190,SANTA BARBARA MUNICIPAL AIRPORT,34.4258,-119.8425,2.7,2010,104,,,32,,,2.80,100,2360,27.47,,58.3,67.5,49.1
USR0000CELM,EL MIRAGE CALIFORNIA,34.6344,-117.5503,877.8,2010,1731,,,18,,,,108,3189,,,61.2,77.4,45.1
USW00003159,LANCASTER WM J FOX FIELD,34.7411,-118.2116,712.6,2010,1745,,,17,,,1.19,108,3289,13.00,,61.1,75.3,46.8
USR0000CBUL,BULL FLAT CALIFORNIA,40.4808,-120.1139,1339.6,2010,358,,,-2,,,,101,6658,,,48.7,63.4,34.1
USR0000CBUR,BURNS CANYON CALIFORNIA,34.2103,-116.6339,1828.8,2010,1023,,,16,,,,92,4298,,,56.0,64.8,47.2
USS0019L24S,Heavenly Valley,38.92,-119.92,2615.8,2010,0,217,,-2,79,,2.30,75,9213,52.39,,39.3,49.1,29.6
USR0000CBUU,BUTTERCUP CALIFORNIA,32.7397,-114.8839,66.1,2010,4515,,,34,,,,121,636,,,75.7,90.3,61.1
USC00046136,NEVADA CITY,39.2466,-121.0008,847.6,2010,698,11,10,24,7,6.5,4.52,100,4300,82.28,23.7,54.6,64.8,44.4
USC00049660,WHITTIER CITY YARD FC106C,33.9758,-118.0222,135.9,2010,,0,0,,0,0.0,3.43,,,26.41,0.0,,,
USR0000CKET,KETTLEMAN HILLS CALIFORNIA,36.0333,-120.0569,246.9,2010,2226,,,34,,,,110,2154,,,65.3,74.7,55.9
USR0000CSVA,SPRING VALLEY CALIFORNIA,37.5625,-122.4364,327.7,2010,214,,,33,,,,99,,,,54.3,61.4,47.1
USR0000CMIO,MILO CALIFORNIA,36.2314,-118.8689,586.1,2010,1997,,,30,,,,108,,,,63.1,72.2,54.0
USS0020L02S,Rubicon NUMBER 2,39.0,-120.13,2343.6,2010,34,222,,7,85,,4.10,80,7861,55.87,,43.1,50.6,35.7
USW00003144,IMPERIAL CO AIRPORT,32.83417,-115.57861,-17.7,2010,3888,,,31,,,1.10,116,975,5.48,,73.1,87.5,58.8
USC00046144,NEWARK,37.5147,-122.0325,3.0,2010,292,0,0,33,0,0.0,1.12,99,2415,17.17,0.0,59.1,67.5,50.6
USC00046386,OCOTILLO WELLS 2 W,33.1552,-116.1688,118.9,2010,,0,0,,0,0.0,1.75,,,6.54,0.0,,,
USC00046161,NEWHALL 5 NW,34.3933,-118.5938,538.0,2010,1273,0,0,34,0,0.0,4.71,110,1741,31.19,0.0,63.3,75.5,51.1
USC00041948,COLUSA 2 SSW,39.1875,-122.0269,15.2,2010,,,,,,,,,2773,,,,,
USW00003177,CARLSBAD MCCLELLAN PALOMAR AIRPORT,33.12806,-117.27944,100.0,2010,387,,,40,,,2.13,99,1712,20.52,,61.4,67.7,55.3
USW00003179,CHINO AIRPORT,33.97528,-117.63611,198.1,2010,,,,,,,2.16,,,15.81,,,,
USW00003178,SAN DIEGO BROWN FIELD,32.57222,-116.97944,157.0,2010,366,,,34,,,1.61,108,1730,15.69,,60.8,70.3,51.3
USR0000CKEE,KEENWILD CALIFORNIA,33.6667,-116.7667,1499.6,2010,888,,,20,,,,100,3883,,,56.6,69.1,44.1
US1CAPC0001,SODA SPRINGS 1.5 SSW,39.3021,-120.3837,2099.2,2010,,,95,,,32.0,4.69,,,98.80,677.3,,,
USC00041700,CHESTER,40.3033,-121.2422,1380.7,2010,199,,,4,,,1.97,94,6297,42.46,,46.8,59.9,33.7
USW00003171,RIVERSIDE MUNICIPAL AIRPORT,33.95194,-117.43861,245.2,2010,,,,,,,2.49,,1401,16.42,,,,
USC00045064,LOMPOC,34.6538,-120.4513,22.9,2010,,0,0,31,0,0.0,2.00,,,26.99,0.0,,,48.6
USC00046154,NEW CUYAMA FIRE STATION,34.9455,-119.6827,658.4,2010,,0,0,,0,0.0,,,,,0.0,,,
USR0000CBSR,BIG SUR CALIFORNIA,36.2356,-121.785,137.2,2010,247,,,31,,,,108,2647,,,57.9,69.1,46.6
USR0000CMID,MID HILLS CALIFORNIA,35.1231,-115.4114,1649.9,2010,1132,,,17,,,,96,4377,,,56.2,66.2,46.2
USC00046399,OJAI,34.4477,-119.2275,227.1,2010,778,0,0,25,0,0.0,3.16,112,2552,26.63,0.0,60.2,75.9,44.5
US1CAPC0007,ROSEVILLE 4.7 WNW,38.7802,-121.3766,29.3,2010,,,,,,,1.45,,,24.64,,,,
USR0000CBRK,BLACKROCK CALIFORNIA,36.0931,-118.2603,2499.4,2010,25,,,4,,,,86,7173,,,45.1,59.5,30.7
USR0000CBRI,BRIONES CALIFORNIA,37.9442,-122.1178,442.0,2010,531,,,31,,,,103,3366,,,56.9,66.0,47.9
USR0000CDVR,DEVORE CALIFORNIA,34.2211,-117.4044,627.0,2010,1403,,,35,,,,107,1956,,,63.3,73.4,53.2
USR0000CSTA,STAMPEDE CALIFORNIA,39.4833,-120.075,2093.1,2010,64,,,-5,,,,93,7170,,,45.4,59.9,30.9
USC00046174,NEW MELONES DAM HQ,38.0047,-120.4863,292.6,2010,1649,0,0,28,0,0.0,2.72,108,2867,47.58,0.0,61.6,73.7,49.6
USC00048351,SONOMA,38.2994,-122.4622,29.6,2010,,0,0,27,0,0.0,,,,,0.0,,,45.6
USR0000CBRO,BROOKS CALIFORNIA,38.7383,-122.1447,107.9,2010,1528,,,26,,,,111,2753,,,61.8,74.6,49.0
USS0019L45S,Carson Pass,38.69,-119.99,2546.0,2010,0,227,,-2,98,,4.00,78,8991,58.49,,39.8,49.2,30.4
USC00041715,CHICO UNIVERSITY FARM,39.6911,-121.8211,56.4,2010,,0,0,,0,0.0,,,,,0.0,,,
USR0000COKO,OAK OPENING CALIFORNIA,36.1753,-118.7017,987.6,2010,1597,,,24,,,,110,3340,,,60.1,72.9,47.2
USC00042805,ELSINORE,33.6692,-117.3319,391.7,2010,,0,0,,0,0.0,3.18,,,26.83,0.0,,,
USR0000CBRA,BRANCH MOUNTAIN CALIFORNIA,35.1889,-120.0833,1149.1,2010,1219,,,25,,,,102,3738,,,57.9,67.5,48.3
USW00003166,FULLERTON MUNICIPAL AIRPORT,33.87194,-117.97889,29.3,2010,926,,,32,,,2.22,112,1183,24.06,,64.1,74.3,53.9
USR0000COKS,OAKLAND SOUTH CALIFORNIA,37.7861,-122.1447,333.8,2010,294,,,34,,,,102,,,,55.5,63.2,47.8
USR0000CBRF,BEAR FLAT CALIFORNIA,41.295,-120.3133,1889.8,2010,135,,,-3,,,,93,7725,,,44.5,56.0,32.9
USW00003167,HAWTHORNE MUNICIPAL AIRPORT,33.92278,-118.33417,19.2,2010,637,,,39,,,2.20,111,1175,19.98,,63.6,70.9,56.3
USC00048587,STONY GORGE RESERVOIR,39.5861,-122.5341,243.8,2010,1211,0,0,21,0,0.0,2.14,108,3471,29.39,0.0,58.8,72.5,45.1
USC00047253,RANDSBURG,35.3692,-117.6525,1088.1,2010,,0,0,,0,0.0,1.75,,,12.56,0.0,,,
USC00046168,NEWMAN,37.2811,-121.0177,27.4,2010,1451,0,0,29,0,0.0,0.97,107,2226,15.13,0.0,63.4,78.7,48.0
USC00049694,WILLOW CREEK 1 NW,40.9466,-123.6363,141.4,2010,,0,0,,0,0.0,,,,,0.0,,,
US1CAAL0001,PIEDMONT 1.0 SE,37.8123,-122.216,113.4,2010,,,,,,,1.72,,,28.49,,,,
USR0000CDUN,DUNCAN CALIFORNIA,39.1439,-120.5089,2164.1,2010,,,,,,,,,6885,,,,,
USC00041967,CONCORD WASTEWATER PLANT,37.9833,-122.0692,12.2,2010,,0,0,32,0,0.0,1.68,,,23.34,0.0,,,50.2
US1CAHM0014,MIRANDA 4.1 SW,40.2093,-123.8941,164.3,2010,,,,,,,4.32,,,98.79,,,,
US1CAST0004,HOLLISTER 5.4 NNE,36.9306,-121.3704,75.3,2010,,,,,,,1.55,,,15.76,,,,
US1CAST0005,HOLLISTER 2.1 ESE,36.8422,-121.365,118.6,2010,,,,,,,1.45,,,19.19,,,,
USR0000COKG,OAK GROVE CALIFORNIA,33.3933,-116.795,838.8,2010,1163,,,23,,,,107,2536,,,61.1,77.6,44.6
USR0000CDVA,DEL VALLE CALIFORNIA,34.4311,-118.6828,389.5,2010,1311,,,33,,,,112,1770,,,63.6,76.7,50.5
USR0000CBR4,BRIDGEPORT 4 NW CALIFORNIA,38.2719,-119.2892,2026.9,2010,201,,,-6,,,,93,7054,,,46.7,61.1,32.2
US1CAKN0001,INYOKERN 9.4 WSW,35.6345,-117.9782,1316.4,2010,,,4,,,4.1,2.24,,,14.62,11.6,,,
USC00046175,NEWPORT BEACH HARBOR,33.6025,-117.8803,3.0,2010,,,,,,,,,1496,,,,,
USC00048353,SONORA,37.9672,-120.3872,510.5,2010,745,0,0,21,0,0.0,2.84,103,3902,45.30,0.0,56.3,70.4,42.2
USS0019L05S,Blue Lakes,38.61,-119.92,2455.8,2010,0,234,,-3,82,,3.40,79,9352,59.79,,39.0,48.8,29.1
USC00049684,WILLITS 1 NE,39.4194,-123.3425,412.4,2010,127,0,0,22,0,0.0,4.73,103,4963,65.20,0.0,52.1,65.0,39.2
USR0000CMET,METCALF GAP CALIFORNIA,37.4094,-119.7681,937.9,2010,1702,,,26,,,,105,3403,,,60.2,69.6,50.8
US1CAHM0026,BRIDGEVILLE 5.2 ENE,40.4734,-123.7013,815.3,2010,,,,,,,3.21,,,93.25,,,,
USC00046194,NICOLAUS NUMBER 2,38.9261,-121.5447,13.1,2010,,0,0,,0,0.0,1.27,,,22.34,0.0,,,
USC00043914,HENSHAW DAM,33.2372,-116.7614,823.0,2010,474,0,0,15,0,0.0,5.05,105,3901,44.35,0.0,54.8,73.1,36.6
USC00041738,CHIRIACO SUMMIT,33.6617,-115.7206,520.0,2010,,0,0,,0,0.0,1.45,,,8.41,0.0,,,
USS0020K13S,Truckee NUMBER 2,39.3,-120.18,1983.9,2010,62,185,,1,66,,4.00,87,7161,49.07,,45.4,56.0,34.8
USR0000CSQU,SQUAW LAKE CALIFORNIA,32.9083,-114.4944,91.4,2010,,,,,,,,,689,,,,,
USR0000CSQS,SQUAW SPRINGS CALIFORNIA,35.37,-117.5683,1103.4,2010,2083,,,28,,,,105,2788,,,62.8,72.6,53.0
USR0000CSRI,SANTA ROSA ISLAND CALIFORNIA,33.9778,-120.0778,395.6,2010,254,,,39,,,,103,3232,,,55.8,62.7,49.0
USR0000CSRO,SANTA ROSA PLATEAU CALIFORNIA,33.5286,-117.2306,603.5,2010,853,,,34,,,,104,2171,,,60.9,70.7,51.1
US1CATY0003,DOUGLAS CITY 2.4 SW,40.6326,-122.9777,514.8,2010,,,,,,,3.65,,,48.72,,,,
USC00049699,WILLOWS 6 W,39.523,-122.3058,71.0,2010,,0,0,,0,0.0,,,,,0.0,,,
USC00048122,SHAFTER 6 E,35.4867,-119.1458,123.1,2010,1508,0,0,26,0,0.0,1.76,107,,14.93,0.0,62.4,76.4,48.4
USR0000CMEY,MEYERS CALIFORNIA,38.8489,-120.0181,1923.3,2010,42,,,-7,,,,92,7452,,,44.6,59.6,29.6
USR0000COJA,OJAI CALIFORNIA,34.4483,-119.2303,233.2,2010,,,,,,,,,2495,,,,,
USC00048380,SO ENTRANCE YOSEMITE N.P.,37.5122,-119.6331,1538.3,2010,,,35,,,12.0,3.22,,6567,50.08,162.3,,,
USC00049473,WATSONVILLE WATERWORKS,36.9308,-121.7691,29.0,2010,118,0,0,30,0,0.0,1.83,103,2879,30.10,0.0,56.9,66.5,47.2
USR0000CBOG,BOGARD RANGER STATION CALIFORNIA,40.5981,-121.0831,1722.1,2010,20,,,-19,,,,95,8347,,,42.5,58.5,26.5
USC00047293,RED BLUFF TRTMNT PLANT,40.1622,-122.2202,80.8,2010,,0,0,,0,0.0,1.45,,,30.66,0.0,,,
USR0000CMEA,MEANS LAKE CALIFORNIA,34.3906,-116.5169,883.9,2010,2326,,,20,,,,109,2635,,,64.3,78.6,50.0
USC00048135,SHASTA DAM,40.7141,-122.4161,327.7,2010,1661,0,0,30,0,0.0,3.41,107,3187,85.26,0.0,60.8,70.1,51.5
USS0019L03S,Hagan s Meadow,38.85,-119.94,2370.1,2010,0,191,,-7,66,,3.60,81,8853,46.28,,40.5,53.8,27.2
USR0000CBOO,BOONVILLE CALIFORNIA,38.9875,-123.3486,196.3,2010,358,,,27,,,,107,3432,,,56.7,68.1,45.3
USC00046198,NILAND 4 NE,33.27167,-115.47722,22.9,2010,4232,0,0,33,0,0.0,0.95,115,813,5.35,0.0,74.5,87.3,61.8
USC00049001,TRACY PUMPING PLANT,37.7967,-121.5828,18.6,2010,1325,0,0,30,0,0.0,0.96,105,2338,13.33,0.0,62.4,73.3,51.4
USR0000CBNL,BEN LOMOND CALIFORNIA,37.1317,-122.17,801.6,2010,755,,,28,,,,98,3822,,,56.0,63.2,48.7
USC00041758,CHULA VISTA,32.64,-117.0858,17.1,2010,331,0,0,39,0,0.0,1.99,99,1504,16.56,0.0,61.7,68.5,54.9
USC00043939,HETCH HETCHY,37.9613,-119.783,1179.6,2010,511,,23,16,,10.0,3.17,98,4894,56.81,93.0,52.5,63.2,41.8
USR0000CMCG,MCGUIRES CALIFORNIA,39.3528,-123.6011,180.7,2010,150,,,28,,,,102,3865,,,54.9,65.8,43.9
USR0000CSOM,SOMES BAR CALIFORNIA,41.39,-123.4958,280.4,2010,1057,,,28,,,,110,3728,,,58.0,71.1,44.9
USC00047298,REDDING CDF,40.5194,-122.2988,153.0,2010,,0,0,,0,0.0,2.70,,,39.22,0.0,,,
USC00041990,COPCO NUMBER 1 DAM,41.9797,-122.3378,823.9,2010,,10,12,,5,4.0,2.00,,,25.69,25.7,,,
USS0019L40S,Monitor Pass,38.67,-119.61,2532.9,2010,5,201,,1,50,,2.00,80,8349,31.27,,41.8,51.6,32.1
US1CAMD0012,WILLITS 6.0 WSW,39.37,-123.45,570.9,2010,,,,,,,4.75,,,83.72,,,,
USR0000COWE,OWENS CAMP LOC CALIFORNIA,38.7333,-120.245,1597.2,2010,,,,,,,,,5628,,,,,
USR0000CKON,KONOCTI CALIFORNIA,38.9119,-122.7064,659.3,2010,1218,,,27,,,,104,3520,,,58.3,67.7,48.9
USC00048713,SUTTER HILL CDF,38.3772,-120.8008,483.4,2010,1144,0,0,28,0,0.0,2.85,106,,45.19,0.0,59.4,70.2,48.5
USR0000COWV,OWENS VALLEY CALIFORNIA,37.39,-118.5506,1414.3,2010,1500,,,14,,,,106,4092,,,58.0,71.4,44.6
USC00043261,FRIANT GOVERNMENT CAMP,36.9969,-119.7072,125.0,2010,1433,0,0,29,0,0.0,2.04,109,,18.41,0.0,62.1,75.2,48.9
USC00046773,PEARBLOSSOM,34.5025,-117.8969,945.2,2010,,0,0,23,0,0.0,1.75,,,12.16,0.0,,,49.7
USC00043038,FIDDLETOWN DEXTER RANCH,38.5236,-120.7061,658.4,2010,,0,0,,0,0.0,2.77,,,53.32,0.0,,,
USR0000CKNO,KNOXVILLE CREEK CALIFORNIA,38.8619,-122.4172,670.6,2010,980,,,26,,,,108,3706,,,57.3,69.8,44.8
USR0000CMS2,MOUNT SHASTA CALIFORNIA,41.3156,-122.3156,0.0,2010,386,,,12,,,,99,5706,,,50.4,62.8,38.0
USC00048967,TOPANGA PTRL STATION FC6,34.0841,-118.5988,227.1,2010,,0,0,,0,0.0,,,,,0.0,,,
USR0000CMRK,MARKLEEVILLE CALIFORNIA,38.6833,-119.7667,1676.7,2010,280,,,-1,,,,97,6436,,,48.5,62.5,34.6
USR0000CEAG,EAGLE PEAK CALIFORNIA,39.9278,-122.6569,1131.7,2010,1099,,,25,,,,98,4257,,,55.2,62.6,47.8
USC00047404,RICHARDSON GROVE STATE PARK,40.02611,-123.79306,153.3,2010,,0,0,,0,0.0,,,,,0.0,,,
USC00047888,SANTA ANA FIRE STATION,33.7442,-117.8667,41.1,2010,1025,0,0,36,0,0.0,1.92,111,845,26.50,0.0,65.4,76.3,54.5
USC00044374,JESS VALLEY,41.2683,-120.2947,1645.9,2010,,,34,,,7.0,,,,,91.8,,,
USC00047880,SAN RAFAEL CIVIC CEN,37.99833,-122.53722,36.6,2010,302,0,0,32,0,0.0,2.37,102,2986,44.31,0.0,57.5,66.4,48.6
USC00042198,CRYSTAL LAKE FC238C,34.3175,-117.8419,1629.2,2010,,0,0,,0,0.0,6.18,,,50.63,0.0,,,
USC00047643,SAINT HELENA,38.5066,-122.4713,68.6,2010,653,0,0,29,0,0.0,2.20,104,,51.02,0.0,59.7,71.3,48.0
US1CAHM0009,MCKINLEYVILLE 2.3 NE,40.9778,-124.086,82.3,2010,,,,,,,3.14,,,70.98,,,,
US1CAHM0004,MCKINLEYVILLE 2.7 SE,40.9231,-124.084,99.1,2010,,,,,,,3.03,,,64.65,,,,
USR0000CMOU,MOUNTAIN REST CALIFORNIA,37.0544,-119.3711,1249.7,2010,,,,,,,,,4122,,,,,
US1CAHM0003,ORICK 5.9 SSW,41.2084,-124.1027,172.8,2010,,0,0,,0,0.0,2.21,,,76.83,0.0,,,
US1CAHM0002,BAYSIDE 1.8 SE,40.8248,-124.0382,23.5,2010,,,,,,,2.75,,,63.27,,,,
USC00046328,OAK KNOLL,41.8391,-122.8502,603.5,2010,,1,2,,1,3.0,,,,,4.0,,,
USR0000CVAY,VALYERMO CALIFORNIA,34.4456,-117.8511,1152.1,2010,1243,,,17,,,,105,3518,,,58.7,74.7,42.6
USR0000CVAN,VAN BREMMER CALIFORNIA,41.6431,-121.7939,1502.1,2010,406,,,8,,,,95,6752,,,47.6,58.3,36.9
USR0000CVAL,VALLEY CENTER CALIFORNIA,33.2372,-117.0086,452.0,2010,857,,,31,,,,106,2010,,,61.5,73.7,49.4
USC00047414,RICHMOND,37.9191,-122.3772,6.1,2010,,0,0,,0,0.0,,,,,0.0,,,
USC00045233,MADERA,36.9539,-120.0378,82.3,2010,,0,0,,0,0.0,2.37,,,17.64,0.0,,,
USS0019L44S,Horse Meadow,38.84,-119.89,2608.2,2010,2,218,,2,73,,2.10,78,8821,41.29,,40.5,49.5,31.5
USC00048758,TAHOE CITY,39.1678,-120.1428,1898.9,2010,,,,,,,,,7733,,,,,
USC00047668,SALINAS NUMBER 2,36.6594,-121.6663,13.7,2010,83,0,0,29,0,0.0,1.35,101,2690,21.67,0.0,57.1,67.4,46.8
USC00048999,TRACY CARBONA,37.6819,-121.3466,41.1,2010,,0,0,,0,0.0,,,,,0.0,,,
USR0000CBZE,BRAZIE RANCH CALIFORNIA,41.6853,-122.5942,914.4,2010,908,,,17,,,,103,5127,,,53.8,64.6,43.1
USC00044394,JOHNSON VALLEY,34.3591,-116.5378,965.3,2010,2068,0,0,23,0,0.0,1.67,105,2859,8.16,0.0,62.9,75.6,50.2
USC00048752,TAFT,35.1503,-119.43,235.6,2010,,0,0,,0,0.0,0.62,,2582,5.53,0.0,,,
USR0000CMOD,MODOC NWR CALIFORNIA,41.4589,-120.3536,1335.0,2010,216,,,-2,,,,99,6679,,,48.0,62.2,33.8
USC00046572,OXNARD WEATHER FORECAST OFFICE,34.2066,-119.1375,15.8,2010,,,,,,,2.83,,,24.36,,,,
USR0000CMOJ,MOJAVE RIVER SINK CALIFORNIA,35.0531,-116.0794,289.6,2010,,,,,,,,,2003,,,,,
USC00046336,OAKLAND MUSEUM,37.79833,-122.26417,9.1,2010,193,0,0,36,0,0.0,2.03,99,2433,30.49,0.0,58.7,66.3,51.0
USR0000CGAS,GASQUET CALIFORNIA,41.8458,-123.9792,152.4,2010,376,,,30,,,,105,3705,,,55.9,67.0,44.9
USC00047681,SALSIPUEDES GAGING STATION,34.5686,-120.4083,80.5,2010,,0,0,,0,0.0,2.38,,,30.59,0.0,,,
USS0019L43S,Forestdale Creek,38.68,-119.96,2443.6,2010,7,224,,2,106,,4.80,81,8200,70.98,,42.1,51.9,32.2
USS0020L06S,Echo Peak,38.85,-120.08,2337.8,2010,27,213,,6,97,,7.90,80,7823,79.88,,43.2,51.0,35.5
US1CAPC0012,AUBURN 3.1 N,38.9362,-121.0679,465.7,2010,,,,,,,4.06,,,51.72,,,,
USR0000CMNC,MONTECITO CALIFORNIA,34.4614,-119.6481,457.2,2010,1106,,,37,,,,112,1661,,,62.9,71.9,53.8
USS0019L42S,Summit Meadow,38.4,-119.54,2838.6,2010,0,221,,0,71,,1.90,76,,37.86,,39.0,47.4,30.6
USR0000CQUA,QUARTZ HILL CALIFORNIA,41.5992,-122.9336,1287.8,2010,739,,,16,,,,100,5819,,,51.1,60.5,41.6
USR0000CMLR,MALLORY RIDGE CALIFORNIA,37.8172,-121.7789,621.8,2010,1024,,,31,,,,103,3520,,,58.0,65.6,50.3
USC00041907,COLEMAN FISHERIES STATION,40.4,-122.1433,128.0,2010,,0,0,,0,0.0,2.80,,,44.07,0.0,,,
US1CASR0014,JOSHUA TREE 2.0 S,34.0973,-116.3178,1039.1,2010,,,,,,,2.34,,,12.59,,,,
US1CASR0015,LANDERS 3.4 SW,34.2175,-116.407,1050.6,2010,,,,,,,2.02,,,11.62,,,,
USC00044176,HUNTINGTON LAKE,37.2275,-119.22056,2139.7,2010,,,,,,,3.84,,,60.02,,,,
USC00049866,YREKA,41.7036,-122.6408,800.1,2010,591,3,3,15,3,2.6,1.76,103,5627,22.48,7.3,51.8,65.4,38.1
USC00045026,LODGEPOLE,36.6044,-118.7325,2052.8,2010,10,192,51,0,100,26.0,7.52,88,8168,67.04,436.3,41.3,53.9,28.8
USC00046599,PACIFICA 4 SSE,37.59167,-122.47167,144.8,2010,92,0,0,29,0,0.0,1.73,96,,37.75,0.0,54.5,60.5,48.5
USC00046597,PACIFIC HOUSE,38.7583,-120.503,1051.6,2010,,64,21,,15,12.0,5.05,,,76.13,89.9,,,
USC00049621,WHISKEYTOWN RESERVOIR,40.6116,-122.528,394.7,2010,,0,,,0,,4.57,108,,90.03,,,71.1,
USR0000CQUI,QUINCY RD CALIFORNIA,39.9733,-120.9419,1066.8,2010,485,,,10,,,,105,5193,,,52.3,68.2,36.5
USS0019L41S,Burnside Lake,38.72,-119.89,2477.7,2010,0,209,,-18,88,,3.50,77,9914,59.57,,37.7,50.5,24.8
USR0000COPA,OPAL MOUNTAIN CALIFORNIA,35.1542,-117.1756,987.6,2010,2075,,,27,,,,107,2685,,,63.1,74.4,51.9
USC00045280,MAMMOTH LAKES RANGER STATION,37.6478,-118.9617,2378.7,2010,,170,51,,60,40.0,4.48,85,,34.69,356.8,,54.4,
USR0000CBVR,BEAVER CAMP LOC CALIFORNIA,38.4883,-120.325,1524.0,2010,930,,,15,,,,104,4335,,,55.2,66.8,43.6
US1CASR0001,APPLE VALLEY 2.6 SSW,34.4957,-117.2353,878.1,2010,,,,,,,2.39,,,15.76,,,,
USC00046370,OCCIDENTAL,38.3858,-122.9661,263.7,2010,,0,0,,0,0.0,,,,,0.0,,,
USC00041912,COLFAX,39.0911,-120.948,725.4,2010,1255,0,5,24,0,3.0,4.03,108,,52.55,8.9,58.6,69.2,47.9
USC00041916,COLGATE POWERHOUSE,39.3308,-121.1922,181.4,2010,,0,0,,0,0.0,5.73,,,54.91,0.0,,,
USC00045032,LODI,38.1061,-121.2877,12.2,2010,,,0,,,0.0,,,,,0.0,,,
US1CASR0009,APPLE VALLEY 2.6 SE,34.5043,-117.1808,896.4,2010,,,0,,,0.0,2.45,,,14.31,0.0,,,
USR0000CDIA,DIABLO GRANDE CALIFORNIA,37.3292,-121.2939,563.9,2010,1346,,,32,,,,104,3113,,,60.1,68.9,51.3
USR0000CBEA,BEAR PEAK CALIFORNIA,35.8842,-118.0517,2507.9,2010,156,,,7,,,,82,6864,,,46.0,53.7,38.2
USR0000CBDY,BRADLEY CALIFORNIA,35.8644,-120.8031,163.7,2010,959,,,21,,,,111,2826,,,60.0,75.8,44.1
USR0000CJUA,JUANITA LAKE CALIFORNIA,41.7861,-122.0056,1645.9,2010,386,,,10,,,,95,6754,,,47.8,58.9,36.6
USC00041244,BUTTONWILLOW,35.4028,-119.47,68.6,2010,1809,0,0,24,0,0.0,3.65,111,2476,11.28,0.0,63.4,76.7,50.2
USR0000CBEN,BENTON CALIFORNIA,37.8431,-118.4778,1661.2,2010,646,,,2,,,,103,5616,,,51.8,68.5,35.0
USC00044997,LIVERMORE,37.6922,-121.7691,146.3,2010,748,0,0,28,0,0.0,1.36,105,2795,16.69,0.0,59.7,71.8,47.6
USC00043669,GROVELAND 2,37.8444,-120.2258,853.4,2010,648,2,4,19,2,3.0,2.61,105,4584,54.54,11.1,54.5,68.1,40.9
USR0000CWOF,WOFFORD HEIGHTS CALIFORNIA,35.7217,-118.4989,960.1,2010,1328,,,24,,,,105,,,,58.5,70.8,46.3
USR0000CJUN,JUNIPER CREEK CALIFORNIA,41.3322,-120.4725,1332.6,2010,317,,,1,,,,100,6411,,,48.7,62.3,35.1
USR0000CJUL,JULIAN CALIFORNIA,33.0758,-116.5908,1292.4,2010,841,,,25,,,,100,3888,,,56.4,65.7,47.0
USC00042574,DUNSMUIR TRTMNT PLANT,41.1833,-122.2736,661.4,2010,536,36,15,18,14,7.5,3.75,101,4973,90.31,44.2,52.7,66.6,38.9
USR0000CSEC,SECRET TOWN CALIFORNIA,39.1836,-120.8847,861.4,2010,889,,,22,,,,104,4089,,,56.0,67.7,44.4
USW00023213,SANTA ROSA SONOMA CO AIRPORT,38.5038,-122.8102,34.7,2010,323,,,28,,,2.71,107,3324,48.09,,57.2,69.4,45.0
USC00041497,CANYON DAM,40.1705,-121.0886,1389.9,2010,199,,40,4,,14.0,2.52,94,6424,48.87,168.0,47.4,59.4,35.3
USC00042346,DELANO,35.7683,-119.26,92.0,2010,,0,0,,0,0.0,2.55,,,13.46,0.0,,,
USC00045853,MORGAN HILL,37.1363,-121.6025,114.3,2010,,,,,,,,101,2241,,,,71.8,
USC00040161,ALTURAS,41.4901,-120.5437,1334.4,2010,,0,0,,0,0.0,,,,,0.0,,,
USC00046946,PIT RIVER POWER HOUSE 5,40.9869,-121.9772,444.4,2010,,0,4,,0,3.0,4.72,,,99.24,7.5,,,
USC00046940,PIRU 2 ESE,34.4061,-118.7569,217.0,2010,,0,0,,0,0.0,,,,,0.0,,,
USC00041253,CACHUMA LAKE,34.5822,-119.9817,242.3,2010,687,0,0,26,0,0.0,3.55,110,2252,31.88,0.0,60.6,76.4,44.7
US1CALA0014,CANYON COUNTRY 2.6 E,34.4268,-118.4275,492.9,2010,,,,,,,1.95,,,18.89,,,,
US1CALA0011,REDONDO BEACH 2.6 S,33.8192,-118.3771,35.7,2010,,,0,,,0.0,2.94,,,19.54,0.0,,,
USR0000CUHL,UHL HOT SPRINGS,35.8889,-118.6333,1133.9,2010,,,,,,,,,4012,,,,,
US1CALA0010,WHITTIER 2.9 WNW,33.9862,-118.0664,52.1,2010,,,,,,,2.53,,,25.83,,,,
USC00046719,PASADENA,34.1483,-118.1447,263.3,2010,1559,0,0,35,0,0.0,4.85,111,1023,36.12,0.0,66.3,77.5,55.0
USR0000CBBR,BIG BAR CALIFORNIA,40.7333,-123.2333,457.2,2010,1033,,,25,,,,109,4043,,,57.1,70.2,44.0
US1CACC0008,CROCKETT 0.7 WNW,38.0545,-122.2327,64.9,2010,,,0,,,0.0,1.75,,,20.74,0.0,,,
USC00044534,KETTLEMAN CITY,36.0067,-119.96,73.2,2010,1781,0,0,26,0,0.0,,112,2498,,0.0,63.3,76.5,50.1
USC00045866,MORRO BAY FIRE DEPARTMENT,35.367,-120.8447,36.0,2010,,0,0,,0,0.0,,,,,0.0,,,
USC00042598,EAGLE MOUNTAIN,33.8089,-115.4508,296.6,2010,,0,0,,0,0.0,1.50,,,6.70,0.0,,,
USR0000CHOR,HORSE THIEF SPRINGS CALIFORNIA,35.7706,-115.9092,1524.0,2010,1712,,,18,,,,101,3911,,,59.0,68.1,49.9
USC00040174,AMBOY ROAD EAST,34.16139,-115.80444,387.7,2010,3025,0,0,15,0,0.0,1.14,113,2268,6.03,0.0,67.4,83.2,51.5
USR0000CDGR,DEVILS GARDEN CALIFORNIA,41.53,-120.6714,1530.7,2010,371,,,-1,,,,96,6816,,,47.5,58.4,36.7
USR0000CBCN,BELL CANYON CALIFORNIA,33.5417,-117.5917,213.4,2010,834,,,35,,,,111,1402,,,63.0,73.8,52.2
US1CACC0001,MARTINEZ 0.8 SSE,37.9898,-122.1085,76.8,2010,,,,,,,2.12,,,28.87,,,,
US1CASA0015,SACRAMENTO 4.1 NE,38.6086,-121.4122,14.0,2010,,,,,,,1.45,,,24.69,,,,
USR0000CHOO,HOOPA CALIFORNIA,41.0478,-123.6714,114.3,2010,672,,,31,,,,108,3530,,,57.6,68.6,46.6
USC00045860,MORONGO VALLEY NORTH,34.0864,-116.5622,958.6,2010,1968,0,0,26,0,0.0,3.92,103,2606,18.56,0.0,63.2,74.1,52.4
USR0000CHOL,HORSE LAKE CALIFORNIA,40.6306,-120.5028,1554.5,2010,263,,,-6,,,,98,7109,,,46.8,60.8,32.8
USR0000CSCI,SANTA CRUZ ISLAND CALIFORNIA,33.9958,-119.7222,76.2,2010,227,,,35,,,,107,2400,,,58.5,68.7,48.3
USR0000CSCN,SCORPION CALIFORNIA,41.1117,-122.6967,1341.1,2010,,,,,,,,103,,,,,65.6,
US1CACC0011,MARTINEZ 2.2 SW,37.9744,-122.1384,210.9,2010,,,,,,,1.48,,,28.87,,,,
USR0000CBAR,BARNABY CALIFORNIA,38.0281,-122.7022,378.0,2010,305,,,32,,,,105,3389,,,56.2,66.0,46.5
US1CACC0010,LAFAYETTE 1.9 WSW,37.8883,-122.1526,157.9,2010,,,,,,,1.83,,,31.86,,,,
USR0000CFIV,FIVE MILE CALIFORNIA,35.8717,-117.9183,1264.9,2010,2406,,,27,,,,106,2789,,,63.9,73.3,54.4
USR0000CDES,DESCANSO CALIFORNIA,32.8569,-116.6222,1060.7,2010,854,,,24,,,,103,3267,,,58.0,72.0,43.9
USR0000CBAT,BATTERSON CALIFORNIA,37.2319,-119.5083,963.2,2010,1455,,,23,,,,108,3509,,,59.1,70.9,47.2
USR0000CYOL,YOLLA BOLLA CALIFORNIA,40.3375,-123.0656,1378.8,2010,643,,,15,,,,100,5693,,,50.9,62.7,39.1
USC00044303,IRVINE RANCH,33.72,-117.723,164.6,2010,900,0,0,30,0,0.0,4.02,113,,27.26,0.0,63.5,76.9,50.2
US1CACC0018,WALNUT CREEK 1.4 SSE,37.8846,-122.0285,84.4,2010,,,,,,,1.74,,,25.82,,,,
USC00047813,SAN JACINTO R S,33.7869,-116.9583,475.5,2010,,0,0,,0,0.0,,,,,0.0,,,
US1CASA0003,FOLSOM 3.4 ESE,38.6546,-121.0907,181.1,2010,,,,,,,2.45,,,34.23,,,,
US1CASA0005,CARMICHAEL 0.9 NE,38.6429,-121.3059,39.6,2010,,,,,,,1.32,,,25.37,,,,
USC00043452,GLENDORA FC 287B,34.1472,-117.8472,284.4,2010,,0,0,,0,0.0,,,,40.50,0.0,,,
US1CASA0007,FOLSOM 1.2 SSE,38.66,-121.1395,110.3,2010,,,,,,,2.10,,,31.53,,,,
USC00046960,PLACERVILLE,38.6955,-120.8244,563.9,2010,,,0,,,0.0,,,,,0.0,,,
USR0000CSBB,SANTA BARBARA ISLAND CALIFORNI,33.4833,-119.0333,53.6,2010,44,,,43,,,,85,2400,,,57.4,61.4,53.4
USC00044555,KING CITY,36.2069,-121.1377,97.5,2010,,0,0,25,0,0.0,1.48,,,15.11,0.0,,,46.1
USR0000CFIS,FISH CREEK MOUNTAIN CALIFORNIA,32.9903,-116.0669,231.6,2010,4970,,,41,,,,115,498,,,77.3,86.4,68.2
USC00048917,THREE RIVER EDISON PH 1,36.465,-118.8619,347.5,2010,,0,0,,0,0.0,3.80,,,34.25,0.0,,,
USC00040192,ANAHEIM,33.8647,-117.8425,102.1,2010,1306,0,0,34,0,0.0,6.73,109,909,41.24,0.0,65.9,76.8,55.0
USR0000CBAL,BALD MOUNTAIN LOC CALIFORNIA,38.9056,-120.6972,1426.5,2010,,,,,,,,,4547,,,,,
USR0000CFIG,FIGUEROA CALIFORNIA,34.7331,-120.0067,975.4,2010,1301,,,32,,,,103,2592,,,60.7,69.4,52.0
USR0000CBAC,BACKBONE CALIFORNIA,40.8892,-123.1422,1432.6,2010,774,,,18,,,,97,5746,,,51.1,60.3,41.9
USC00043463,GLENNVILLE,35.7269,-118.7006,957.1,2010,,,0,,,0.5,2.00,,,24.63,1.5,,,
USC00045400,MATHER,37.885,-119.8561,1374.6,2010,,110,30,,28,12.2,2.68,,,48.33,154.0,,,
USC00046730,PASO ROBLES,35.6277,-120.6855,222.5,2010,674,0,0,23,0,0.0,1.63,108,2987,22.74,0.0,58.8,74.4,43.2
US1CALA0003,TORRANCE 2.8 SW,33.7902,-118.3369,61.0,2010,,,,,,,5.30,,,21.13,,,,
US1CALA0001,GLENDALE 2.4 WSW,34.1689,-118.2947,155.8,2010,,,0,,,0.0,3.81,,,28.61,0.0,,,
USR0000CWIL,WILEY RIDGE CALIFORNIA,34.3717,-118.8408,501.4,2010,1134,,,34,,,,108,1916,,,62.6,71.7,53.4
USW00023254,CONCORD BUCHANAN FIELD,37.9917,-122.055,5.5,2010,747,,,29,,,1.47,106,2567,20.82,,60.2,71.3,49.2
USR0000CHLD,HOPLAND CALIFORNIA,39.0308,-123.0806,817.5,2010,986,,,28,,,,103,4040,,,56.4,65.3,47.5
USW00023259,MONTEREY PENINSUL AIRPORT,36.58806,-121.84528,50.3,2010,31,,0,33,,0.0,1.35,87,3358,23.59,0.0,55.9,63.4,48.4
US1CALA0009,SHERMAN OAKS 1.7 ENE,34.1543,-118.42,194.5,2010,,,,,,,3.05,,,24.78,,,,
USR0000CSAD,SADDLEBACK BUTTE CALIFORNIA,34.6847,-117.8208,789.4,2010,1678,,,15,,,,111,,,,61.0,77.7,44.3
USW00023258,MODESTO CITY CO AIRPORT,37.6241,-120.9505,22.3,2010,1371,,,28,,,1.25,107,2604,17.75,,61.9,73.7,50.2
USR0000CSAC,SACRAMENTO NWR CALIFORNIA,39.4172,-122.1825,36.6,2010,1312,,,31,,,,108,2626,,,61.6,73.3,49.9
USW00023257,MERCED MUNICIPAL AIRPORT,37.28472,-120.51278,46.3,2010,1264,,,27,,,0.93,106,2994,16.99,,60.8,73.4,48.1
USC00042147,CRESCENT CITY,41.7958,-124.2147,13.1,2010,0,0,0,29,0,0.0,3.02,82,5073,95.87,0.0,51.8,58.5,45.2
USR0000CFHL,FORT HUNTER LIGGET CALIFORNIA,36.0117,-121.2417,335.3,2010,891,,,24,,,,109,2991,,,59.1,75.8,42.5
USR0000CSAW,SAWYERS BAR CALIFORNIA,41.3003,-123.1322,668.1,2010,805,,,20,,,,104,4731,,,54.2,67.4,41.0
USC00046508,ORLEANS,41.3088,-123.5316,122.8,2010,717,0,1,28,0,1.0,4.70,103,3505,66.22,2.0,57.3,68.1,46.5
USC00046506,ORLAND,39.7458,-122.1997,77.4,2010,1395,0,0,26,0,0.0,1.46,107,2675,27.96,0.0,61.5,73.0,49.9
USR0000CHLR,HOLLISTER CALIFORNIA,36.8422,-121.3622,123.1,2010,322,,,27,,,,109,,,,57.9,70.0,45.8
USR0000CLTU,LITTLE TUJUNGA CALIFORNIA,34.2936,-118.3608,423.7,2010,1011,,,33,,,,113,1734,,,62.5,74.5,50.4
USC00045892,MOUNTAIN PASS 1 SE,35.45917,-115.53111,1456.0,2010,1328,11,7,16,5,4.0,1.39,99,4750,14.20,19.0,56.0,67.1,44.9
USR0000CSAU,SAUGUS CALIFORNIA,34.425,-118.525,442.0,2010,1411,,,33,,,,112,1868,,,63.5,75.8,51.3
USR0000CLSF,LAS FLORES CALIFORNIA,33.2889,-117.4389,30.5,2010,,,,,,,,,1373,,,,,
US1CASC0032,CAMPBELL 2.8 N,37.3185,-121.9608,42.4,2010,,,,,,,1.33,,,19.81,,,,
USR0000CWHH,WHITTIER HILLS CALIFORNIA,33.9839,-118.01,289.6,2010,1200,,,39,,,,114,1229,,,64.6,76.0,53.2
USW00023225,BLUE CANYON AIRPORT,39.2774,-120.7102,1608.1,2010,474,,,17,,,6.34,90,5726,76.29,,50.3,56.4,44.1
USR0000CLST,LAS TABLAS CALIFORNIA,35.6564,-120.9242,303.0,2010,587,,,21,,,,109,3340,,,57.6,74.5,40.6
USR0000CJOH,JOHNSONDALE CALIFORNIA,35.9717,-118.545,1432.6,2010,270,,,6,,,,101,5419,,,50.8,68.2,33.5
USR0000CWHT,WHITMORE CALIFORNIA,40.6194,-121.8994,736.7,2010,,,,,,,,,3993,,,,,
USC00043244,FREMONT,37.5422,-122.0158,11.6,2010,293,0,0,32,0,0.0,1.20,99,2484,16.54,0.0,59.1,68.3,49.9
USW00023230,OAKLAND METROPOLITAN INTERNATIONAL AIRPORT,37.72139,-122.22083,1.8,2010,238,,0,32,,0.0,1.40,100,3005,22.71,0.0,58.1,65.9,50.4
USW00023232,SACRAMENTO EXECUTIVE AIRPORT,38.5069,-121.495,4.6,2010,1044,,,27,,,1.34,108,2738,22.87,,60.7,72.7,48.7
USW00023237,STOCKTON METROPOLITAN AIRPORT,37.8891,-121.2258,7.9,2010,1090,,,27,,,1.03,108,2790,18.72,,60.7,73.2,48.2
USW00023234,SAN FRANCISCO INTERNATIONAL AIRPORT,37.6197,-122.3647,2.4,2010,268,,,37,,,1.52,99,2694,24.17,,58.6,65.5,51.7
USW00023233,SALINAS MUNICIPAL AIRPORT,36.6636,-121.6081,22.6,2010,109,,,32,,,1.35,102,2909,19.18,,57.5,66.8,48.1
USC00048702,SUSANVILLE 2 SW,40.4167,-120.6631,1283.8,2010,,,,2,,,,,6056,,,,,36.9
US1CASB0001,GOLETA 3.7 WNW,34.4397,-119.8961,48.2,2010,,,,,,,3.56,,,36.43,,,,
USC00041072,BRIDGEPORT,38.2575,-119.2286,1972.1,2010,53,,20,-17,,7.0,1.15,94,,14.67,56.7,42.2,59.8,24.5
USC00043491,GOLD RUN 2 SW,39.165,-120.8566,1011.9,2010,,,,,,,5.42,,,77.63,,,,
USC00043256,FRESNO 5 NE,36.7672,-119.7092,103.0,2010,,0,0,,0,0.0,1.44,,,14.47,0.0,,,
USC00046521,OROVILLE,39.5177,-121.553,52.1,2010,,0,0,,0,0.0,1.75,106,,36.10,0.0,,73.7,
USC00047851,SAN LUIS OBISPO POLY,35.3056,-120.6619,93.9,2010,266,0,0,31,0,0.0,2.56,109,2488,27.87,0.0,58.4,68.2,48.6
USW00023285,LIVERMORE MUNICIPAL AIRPORT,37.6927,-121.8144,119.8,2010,676,,,28,,,1.13,105,3000,17.17,,59.0,70.9,47.1
USC00047195,QUINCY,39.9366,-120.9475,1042.4,2010,,,17,9,,8.0,2.25,100,5482,51.16,66.0,50.6,64.6,36.7
US1CASC0011,CAMBRIAN PARK 2.2 SE,37.2341,-121.8974,76.8,2010,,,,,,,2.10,,,26.03,,,,
USR0000CSNR,SANTA RITA CALIFORNIA,36.3478,-120.5978,1524.0,2010,809,,,21,,,,93,4702,,,54.0,62.5,45.6
USR0000CMCB,MILL CREEK BDF CALIFORNIA,34.0836,-117.0347,899.2,2010,1523,,,31,,,,108,2007,,,63.0,76.0,50.1
USR0000CSOL,SOLDIER MOUNTAIN CALIFORNIA,40.9258,-121.5856,1130.8,2010,677,,,13,,,,98,5511,,,52.0,61.9,42.0
US1CASC0001,MOUNTAIN VIEW 1.2 S,37.3848,-122.0752,33.2,2010,,,,,,,1.85,,,20.59,,,,
USR0000CWWO,WHITE WOLF CALIFORNIA,37.8511,-119.65,2446.0,2010,,,,,,,,,7864,,,,,
US1CASC0003,SUNNYVALE 1.9 SE,37.3647,-122.0042,25.9,2010,,,,,,,1.43,,,19.89,,,,
USC00040790,BIG SUR STATION,36.2472,-121.7802,61.0,2010,,,0,,,0.0,,,,,0.0,,,
USC00049367,VISALIA,36.3278,-119.2994,106.7,2010,1630,0,0,31,0,0.0,1.55,104,2284,14.56,0.0,63.0,74.0,52.0
US1CASN0016,SEBASTOPOL 4.5 WSW,38.3753,-122.9035,128.9,2010,,,,,,,5.11,,,64.37,,,,
US1CASN0007,SEBASTOPOL 3.7 WSW,38.3852,-122.8928,116.7,2010,,,,,,,4.68,,,59.74,,,,
USR0000CMAN,MANZANITA LAKE CALIFORNIA,40.54,-121.5803,1725.2,2010,,,,,,,,,7391,,,,,
USR0000CBLD,BLUE DOOR CALIFORNIA,41.0547,-120.3375,1711.5,2010,142,,,-5,,,,96,7568,,,45.0,57.6,32.4
USR0000CMAR,MARIPOSA GROVE CALIFORNIA,37.5128,-119.6047,1950.7,2010,,,,,,,,,5583,,,,,
USW00023293,SAN JOSE,37.3591,-121.924,15.5,2010,512,,,32,,,1.29,102,2438,17.18,,60.1,69.9,50.3
USC00042506,DOYLE 4 SSE,39.9717,-120.0828,1338.1,2010,,25,15,-2,6,6.0,1.39,98,,14.48,37.9,49.7,63.4,35.9
USR0000CMAL,MALIBU HILLS CALIFORNIA,34.0583,-118.6333,480.1,2010,1135,,,37,,,,110,1640,,,63.0,72.5,53.6
USS0020H06S,Cedar Pass,41.58,-120.3,2142.7,2010,89,214,,2,52,,1.60,85,8267,37.96,,42.3,49.9,34.8
USC00042500,DOWNIEVILLE,39.5633,-120.8238,888.5,2010,380,,2,19,,2.0,3.83,101,4925,85.39,3.0,52.2,65.6,38.9
US1CASC0018,SAN JOSE 3.0 WSW,37.3086,-121.9272,48.5,2010,,,,,,,1.34,,,19.79,,,,
USR0000CBLT,BEN BOLT CALIFORNIA,38.5908,-120.9336,275.8,2010,1181,,,26,,,,109,3166,,,59.8,72.5,47.1
US1CASC0012,SAN JOSE 3.5 ENE,37.319,-121.7887,61.0,2010,,,,,,,1.34,,,21.36,,,,
US1CASC0015,SARATOGA 0.5 N,37.2748,-122.0227,113.7,2010,,,,,,,3.15,,,31.36,,,,
USC00042504,DOYLE,40.0267,-120.1055,1308.5,2010,,,9,,,6.0,1.86,,,13.89,26.7,,,
USC00048045,SCOTIA,40.48306,-124.10361,41.5,2010,65,0,0,31,0,0.0,3.56,91,3275,64.54,0.0,55.8,63.6,48.1
USW00093138,PALM SPRINGS REGIONAL AIRPORT,33.8222,-116.5043,124.7,2010,3966,,,33,,,2.24,117,819,9.68,,73.8,87.1,60.5
USR0000CBLQ,BLUE RIDGE KNF CALIFORNIA,41.2694,-123.1875,1815.4,2010,356,,,10,,,,89,6811,,,46.5,54.9,38.1
USS0019L08S,Leavitt Meadows,38.3,-119.55,2194.0,2010,6,179,,-10,61,,3.00,85,7954,44.86,,43.3,57.0,29.6
US1CASD0053,SAN DIEGO COUNTRY ESTATES 1.5,33.0158,-116.8068,449.3,2010,,,,,,,3.48,,,28.09,,,,
US1CASN0004,GEYSERVILLE 10.6 WNW,38.7367,-123.0982,404.8,2010,,,,,,,3.68,,,66.15,,,,
USC00049378,VISTA,33.2354,-117.2322,131.1,2010,,0,0,,0,0.0,,,,,0.0,,,
USC00049152,U C L A,34.0697,-118.4427,131.1,2010,596,0,0,40,0,0.0,4.11,108,1196,27.94,0.0,63.1,71.1,55.0
USR0000CBKD,BLACK DIAMOND CALIFORNIA,37.95,-121.8844,487.7,2010,761,,,32,,,,99,3419,,,57.6,64.5,50.6
USR0000CDOG,DOG VALLEY CALIFORNIA,39.5619,-120.0478,1821.5,2010,,,,,,,,,6938,,,,,
USC00049390,VOLTA POWER HOUSE,40.4583,-121.8663,676.7,2010,,0,0,,0,0.0,3.56,,,43.00,0.0,,,
USC00041428,CAMP PARDEE,38.2486,-120.8433,200.6,2010,1312,0,0,30,0,0.0,1.59,108,2778,30.55,0.0,61.1,72.0,50.3
USC00041424,CAMPO,32.6263,-116.4699,801.6,2010,695,0,1,20,0,1.0,3.04,105,3311,28.25,1.0,57.6,74.9,40.2
USR0000CMAD,MAD RIVER CALIFORNIA,40.4633,-123.5239,845.8,2010,423,,,20,,,,102,4981,,,52.4,64.9,39.8
USR0000CSMI,SAN MIGUEL CALIFORNIA,32.685,-116.9736,129.5,2010,631,,,40,,,,107,1254,,,63.0,71.5,54.4
USR0000CDOY,DOYLE CALIFORNIA,40.0222,-120.1056,1292.4,2010,670,,,1,,,,104,5759,,,52.0,65.9,38.1
USS0019L07S,Sonora Pass,38.31,-119.6,2690.5,2010,0,228,,-3,81,,3.30,77,9131,49.86,,39.7,49.6,29.9
US1CASD0040,EL CAJON 2.3 S,32.7698,-116.9593,224.9,2010,,,,,,,3.33,,,24.68,,,,
US1CASD0025,PAUMA VALLEY 1.7 SE,33.2905,-116.9568,345.0,2010,,,,,,,3.56,,,27.75,,,,
USW00023273,SANTA MARIA PUBLIC AIRPORT,34.8994,-120.4486,73.8,2010,89,,,30,,,3.19,105,2922,25.08,,56.7,67.3,46.1
US1CASD0023,CARDIFF BY THE SEA 0.2 E,33.0267,-117.2712,81.1,2010,,,,,,,2.94,,,19.25,,,,
USR0000CFRE,FREMONT CANYON CALIFORNIA,33.8081,-117.7111,542.8,2010,1242,,,37,,,,110,1613,,,63.6,73.6,53.5
USW00023275,UKIAH MUNICIPAL AIRPORT,39.12583,-123.20083,183.2,2010,751,0,,27,0,,3.27,109,3377,51.94,,58.1,71.3,44.9
US1CASD0028,SANTEE 1.8NW,32.8562,-116.9961,143.3,2010,,,,,,,3.96,,,25.27,,,,
USR0000COCR,OAK CREEK CALIFORNIA,36.8425,-118.2594,1479.8,2010,1678,,,20,,,,102,3795,,,59.1,70.0,48.2
USW00023272,SAN FRANCISCO DOWNTOWN,37.7705,-122.4269,45.7,2010,136,,,41,,,1.24,98,2961,29.14,,56.9,62.7,51.0
US1CASD0026,FALLBROOK 6.5 NE,33.4363,-117.1603,419.7,2010,,,,,,,5.19,,,32.76,,,,
USR0000CFRI,FRIEND MOUNTAIN CALIFORNIA,40.505,-123.3417,1219.2,2010,,,,,,,,,5627,,,,,
USW00023271,SACRAMENTO 5 ESE,38.5552,-121.4183,11.6,2010,1228,,0,30,,0.0,1.21,108,2425,22.39,0.0,62.0,73.1,50.8
USW00023277,WATSONVILLE MUNICIPAL AIRPORT,36.93583,-121.78861,48.8,2010,136,,,30,,,1.29,104,3107,19.00,,56.7,66.3,47.1
USC00043855,HAYFIELD PUMP PLANT,33.7044,-115.6289,417.6,2010,,0,0,,0,0.0,3.54,,1562,10.51,0.0,,,
USS0019L06S,Poison Flat,38.51,-119.63,2357.9,2010,0,210,,-7,68,,3.30,80,9042,44.35,,40.1,52.5,27.8
USR0000CDNK,DINKEY CALIFORNIA,37.0664,-119.0394,1727.6,2010,44,,,0,,,,91,,,,45.7,60.5,30.8
US1CASD0032,SAN DIEGO 3.2 WNW,32.8353,-117.1859,114.0,2010,,,,,,,3.36,,,22.72,,,,
USR0000CSLA,SLATER BUTTE CALIFORNIA,41.8586,-123.3525,1423.4,2010,,,,,,,,,6256,,,,,
US1CASD0030,LA JOLLA 2.1 SE,32.8257,-117.2501,149.7,2010,,,,,,,3.35,,,20.57,,,,
USC00040343,ASH MOUNTAIN,36.4914,-118.8253,520.6,2010,1485,0,0,22,0,0.0,,112,3019,,0.0,60.4,75.9,44.8
US1CASD0014,BORREGO SPRINGS 2.4 WSW,33.2225,-116.3904,236.8,2010,,,,,,,2.07,,,9.98,,,,
US1CASD0013,JAMUL 9.9ESE,32.6802,-116.7061,834.2,2010,,,,,,,3.10,,,33.89,,,,
US1CASD0012,POWAY 3.2NE,32.9956,-117.0044,367.6,2010,,,,,,,3.37,,,26.50,,,,
USR0000CDMC,DEMOCRAT CALIFORNIA,35.5317,-118.6303,718.1,2010,,,,,,,,,2632,,,,,
US1CASD0011,ENCINITAS 2.7N,33.0757,-117.292,57.3,2010,,,,,,,3.02,,,14.24,,,,
USW00093110,OXNARD VENTURA CO AIRPORT,34.20083,-119.20694,11.0,2010,,,,,,,2.92,,,25.74,,,,
USW00093111,POINT MUGU NF,34.11667,-119.11667,4.0,2010,,,,,,,,,2443,,,,,
USW00093112,NORTH ISLAND NAS,32.7,-117.2,7.9,2010,559,,,40,,,2.14,99,,17.36,,64.0,70.6,57.4
US1CASD0019,OCEANSIDE 5.6NE,33.2539,-117.3127,18.3,2010,,,,,,,2.62,,,21.39,,,,
USC00044710,LAKESIDE 2 E,32.8536,-116.8947,210.3,2010,,0,0,,0,0.0,3.77,,,27.05,0.0,,,
USR0000CBIR,BIG ROCK CALIFORNIA,38.0394,-122.57,457.2,2010,463,,,36,,,,102,3330,,,56.9,64.6,49.1
USC00044712,LAKE SOLANO,38.492,-122.0039,57.0,2010,1115,0,0,29,0,0.0,2.56,107,2823,33.30,0.0,60.7,74.0,47.3
USR0000CBIP,BIG PINES CALIFORNIA,34.3789,-117.6919,2108.3,2010,529,,,11,,,,91,5203,,,52.0,63.2,40.8
USC00045802,MONTEREY NWSFO,36.5927,-121.8555,37.2,2010,24,0,0,34,0,0.0,1.24,87,3455,22.81,0.0,55.6,62.4,48.8
USC00044957,LINDSAY,36.2032,-119.0545,132.6,2010,1514,0,0,27,0,0.0,2.98,109,,20.83,0.0,62.4,75.9,48.8
USR0000CBIH,BIG HILL CALIFORNIA,41.0975,-123.6358,1088.1,2010,468,,,19,,,,97,5760,,,50.5,58.5,42.4
USW00093104,CHINA LAKE NAF,35.6875,-117.6931,679.7,2010,,,,,,,0.92,,2823,5.79,,,,
USW00093107,SAN DIEGO MIRAMAR NAS,32.86667,-117.13333,145.4,2010,558,,,33,,,2.46,111,1635,20.04,,61.9,71.8,52.0
USC00042771,EL MIRAGE,34.5891,-117.6302,899.2,2010,,,,,,,,,3429,,,,,
US1CASD0003,IMPERIAL BEACH 3.3 E,32.5738,-117.0625,42.1,2010,,,,,,,2.30,,,14.54,,,,
USC00049185,UPPER SAN LEANDRO FILTERS,37.7719,-122.1675,120.1,2010,,0,0,,0,0.0,1.86,,,29.34,0.0,,,
US1CASD0002,OCEANSIDE 2.3 WNW,33.233,-117.3498,79.2,2010,,,,,,,4.09,,,23.54,,,,
USR0000COAM,OAK MOUNTAIN CALIFORNIA,41.0064,-121.9833,518.2,2010,1196,,,21,,,,104,4300,,,56.3,67.1,45.5
USS0020H02S,Crowder Flat,41.89,-120.75,1575.8,2010,88,132,,-7,19,,1.20,92,7437,22.53,,45.1,56.5,33.7
US1CASD0001,SAN MARCOS 2.5 ENE,33.1472,-117.1316,203.0,2010,,,,,,,3.25,,,26.25,,,,
USR0000COAK,OAK KNOLL CALIFORNIA,41.8386,-122.85,591.3,2010,688,,,18,,,,106,4724,,,54.3,69.2,39.4
US1CASD0006,EL CAJON 2.3ENE,32.8112,-116.9254,185.9,2010,,,,,,,3.46,,,23.26,,,,
US1CASD0004,OCEANSIDE 8.4NE,33.27,-117.2663,76.8,2010,,,,,,,4.04,,,24.62,,,,
US1CASD0009,EL CAJON 1.5WSW,32.7907,-116.987,221.6,2010,,,,,,,2.80,,,24.56,,,,
US1CASM0006,FOSTER CITY 1.3 SW,37.5488,-122.2587,2.1,2010,,,,,,,1.53,,,24.37,,,,
USR0000CYUR,YUROK CALIFORNIA,41.2897,-123.8575,150.9,2010,467,,,30,,,,110,3589,,,56.7,68.0,45.4
USR0000CUND,UNDERWOOD CALIFORNIA,40.7219,-123.4953,792.5,2010,688,,,23,,,,104,4858,,,53.7,65.3,42.1
USC00041697,CHERRY VALLEY DAM,37.9747,-119.9161,1452.4,2010,649,,31,13,,16.0,5.28,101,5122,73.59,212.0,52.4,63.6,41.2
USC00041214,BURNEY,40.8802,-121.6547,974.8,2010,,26,18,,4,5.0,0.98,,,32.41,45.2,,,
US1CASD0010,ESCONDIDO 2.5 SSE,33.1055,-117.0482,210.3,2010,,,,,,,3.32,,,25.64,,,,
USR0000CSHQ,SHADEQUARTER CALIFORNIA,36.5672,-118.9556,1240.2,2010,1238,,,22,,,,102,4079,,,56.8,64.4,49.3
USS0020K30S,Squaw Valley G.C.,39.19,-120.26,2447.2,2010,18,234,,6,113,,6.10,78,8484,83.69,,41.4,48.1,34.7
USW00093134,LOS ANGELES DOWNTOWN USC,34.0236,-118.2911,54.6,2010,1219,,,37,,,2.80,113,863,23.10,,65.7,74.4,57.0
USC00042319,DEATH VALLEY,36.4622,-116.8669,-59.1,2010,5547,0,0,28,0,0.0,0.98,125,1219,3.85,0.0,77.1,90.6,63.6
USR0000CSHI,SHIP MOUNTAIN CALIFORNIA,41.7358,-123.7917,1615.4,2010,,,,,,,,,7382,,,,,
USR0000CSHH,SCHOOL HOUSE CALIFORNIA,41.1383,-123.9056,804.7,2010,336,,,27,,,,96,5445,,,50.9,57.7,44.1
USR0000CWPK,WHITAKER PEAK CALIFORNIA,34.5686,-118.7403,1255.8,2010,1222,,,28,,,,102,3386,,,58.4,67.1,49.6
USR0000CFOU,FOUNTAIN SPRINGS CALIFORNIA,35.8922,-118.915,64.0,2010,1537,,,28,,,,110,2769,,,61.7,75.3,48.1
USC00043402,GIBRALTAR DAM NUMBER 2,34.5225,-119.6822,474.9,2010,,0,0,,0,0.0,3.76,,,38.13,0.0,,,
USR0000CFOR,FORESTHILL CALIFORNIA,39.0914,-120.7317,1327.4,2010,817,,,20,,,,102,4554,,,54.4,64.1,44.6
USR0000CBGR,BANGOR CALIFORNIA,39.3975,-121.3861,244.8,2010,1356,,,27,,,,107,2977,,,60.7,72.0,49.5
USC00040379,AUBERRY 2 NW,37.0919,-119.5128,637.0,2010,1593,0,0,25,0,0.0,2.75,106,3342,39.15,0.0,60.2,70.6,49.7
USC00040136,ALPINE,32.8358,-116.7774,516.6,2010,894,0,0,30,0,0.0,2.35,104,2072,23.73,0.0,61.2,71.9,50.5
USR0000CYUC,YUCCA VALLEY CALIFORNIA,34.1233,-116.4078,993.6,2010,1731,,,20,,,,104,2970,,,61.7,74.8,48.6
USC00043882,HEARST CASTLE,35.6841,-121.1683,465.1,2010,,0,0,,0,0.0,,,,,0.0,,,
US1CASN0028,SANTA ROSA 3.1 NW,38.4789,-122.744,42.7,2010,,,,,,,2.97,,,48.21,,,,
USS0020K31S,Css Lab,39.33,-120.37,2089.4,2010,11,213,,1,116,,5.90,83,7848,91.68,,43.1,52.8,33.3
USR0000CWOL,WOLVERTON CALIFORNIA,36.445,-118.7033,1597.2,2010,,,,,,,,,4207,,,,,
USR0000CBEU,BEAUMONT CALIFORNIA,33.9306,-116.95,793.7,2010,1434,,,26,,,,106,2404,,,62.1,73.9,50.3
USC00043896,HEMET,33.7381,-116.8939,552.0,2010,1744,0,0,29,0,0.0,2.54,115,1774,19.14,0.0,64.7,79.7,49.7
USR0000CSHA,SHAVER CALIFORNIA,37.135,-119.2561,1751.4,2010,76,,,2,,,,91,6625,,,46.8,61.3,32.2
USC00044500,KENTFIELD,37.9566,-122.5447,44.2,2010,,0,0,31,0,0.0,4.26,,,60.00,0.0,,,47.8
USC00040383,AUBURN,38.9072,-121.0838,393.8,2010,,0,0,,0,0.0,,,,,0.0,,,
USR0000CFO2,FORT ORD NUMBER 2 CALIFORNIA,36.6269,-121.7864,149.4,2010,71,,,34,,,,96,3685,,,54.9,62.7,47.1
USC00046926,PINNACLES NATIONAL MONUMENT,36.4819,-121.1822,398.4,2010,,0,0,,0,0.0,,,,,0.0,,,
USC00043417,GILROY,37.003,-121.5608,59.1,2010,,0,0,,0,0.0,1.67,,,22.07,0.0,,,
US1CASN0021,WINDSOR 1.5 WNW,38.5551,-122.8227,37.5,2010,,,,,,,3.34,,,53.47,,,,
USW00093115,IMPERIAL BEACH REAM FIELD NAS,32.56667,-117.11667,7.3,2010,,,,,,,,,1999,,,,,
USC00040144,ALTADENA,34.1822,-118.1383,343.5,2010,,0,0,,0,0.0,3.48,,,35.22,0.0,,,
US1CANV0014,LAKE OF THE PINES 1.0 WSW,39.0322,-121.0774,480.4,2010,,,,,,,3.46,,,47.88,,,,
USR0000CLHO,LOST HORSE CALIFORNIA,34.0178,-116.1878,1280.2,2010,1357,,,17,,,,100,3666,,,59.0,72.6,45.4
USS0020K04S,Independence Camp,39.45,-120.29,2134.5,2010,1,201,,-2,59,,3.50,83,8308,38.37,,41.9,52.8,31.0
USR0000CASC,ASH CREEK CALIFORNIA,41.2769,-121.9794,975.4,2010,89,,,-1,,,,98,6633,,,47.0,62.9,31.1
USC00041806,CLEARLAKE 4 SE,38.9238,-122.5672,411.2,2010,,0,0,,0,0.0,,,,,0.0,,,
USR0000CASH,ASH VALLEY CALIFORNIA,41.0519,-120.6861,1554.5,2010,118,,,-11,,,,96,7227,,,45.9,59.7,32.1
USC00047109,POTTER VALLEY POWERHOUSE,39.3619,-123.1286,310.3,2010,773,0,0,21,0,0.0,6.12,107,,68.40,0.0,57.9,72.5,43.3
USR0000CRUS,RUSH CREEK CALIFORNIA,41.2944,-120.8639,1463.0,2010,,,,9,,,,,,,,,,39.6
USC00046252,NORTH FORK RANGER STATION,37.2329,-119.5097,806.2,2010,,0,0,,0,0.0,,,,,0.0,,,
US1CASL0001,SANTA MARGARITA 8.9 ESE,35.3805,-120.4525,611.1,2010,,,,,,,3.05,,,31.46,,,,
USC00046498,ORICK PRAIRIE,41.3619,-124.0191,48.8,2010,,0,0,,0,0.0,,,,,0.0,,,
USC00049781,WOODLAND 1 WNW,38.6829,-121.794,20.4,2010,1325,0,0,31,0,0.0,1.99,109,2447,27.52,0.0,62.3,73.7,50.9
USS0020K05S,Independence Lake,39.43,-120.31,2545.7,2010,34,249,,5,123,,5.30,80,8716,71.59,,40.7,47.9,33.5
USR0000CPOP,POPPY PARK CALIFORNIA,34.7325,-118.3833,841.2,2010,1798,,,23,,,,108,,,,61.1,73.5,48.8
USR0000CPOT,POTRERO CALIFORNIA,32.6058,-116.6089,714.8,2010,758,,,26,,,,104,,,,58.6,72.8,44.3
US1CASN0080,GLEN ELLEN 1.5 N,38.3778,-122.5343,102.7,2010,,,,,,,3.65,,,56.99,,,,
USC00046263,NORTHRIDGE CAL STATE,34.2447,-118.525,275.5,2010,,,,,,,,,1360,,,,,
USC00047111,POWAY VALLEY,33.0175,-117.0292,197.5,2010,,0,0,,0,0.0,2.19,,,23.50,0.0,,,
USC00048200,SHOSHONE,35.97167,-116.27083,471.2,2010,,0,0,,0,0.0,,,1805,,0.0,,,
USR0000CARR,ARROYO SECO MT. DIABLO CALIF,36.23,-121.4917,298.7,2010,771,,,29,,,,112,2667,,,59.8,75.8,43.8
USC00046027,MUIR WOODS,37.8977,-122.5688,67.1,2010,,0,0,,0,0.0,3.30,,,50.81,0.0,,,
US1CASZ0003,DAVENPORT 4.2 NW,37.0651,-122.2178,150.9,2010,,,,,,,2.70,,,44.29,,,,
US1CASZ0009,APTOS 2.6 E,36.9961,-121.8536,116.7,2010,,,,,,,2.14,,,40.07,,,,
USC00047370,REPRESA,38.6944,-121.1611,89.9,2010,,0,0,,0,0.0,1.31,,,24.97,0.0,,,
USC00040738,BIG BAR 4 E,40.7405,-123.2077,381.9,2010,,,,,,,,,4074,,,,,
US1CASN0070,GLEN ELLEN 1.9 WNW,38.3651,-122.5718,291.4,2010,,,,,,,5.28,,,52.95,,,,
USR0000CRSP,ROSE PEAK CALIFORNIA,37.5019,-121.7355,932.7,2010,809,,,25,,,,96,4342,,,54.9,61.4,48.5
US1CASN0079,ROHNERT PARK 0.9 ESE,38.3451,-122.6812,38.1,2010,,,,,,,2.05,,,39.59,,,,
USC00049785,WOODLAND HILLS PIERCE COLLEGE,34.1819,-118.5744,240.8,2010,,0,0,29,0,0.0,2.50,,,22.10,0.0,,,47.9
US1CANV0001,NEVADA CITY 3.4 NNW,39.3067,-121.0399,728.5,2010,,,,,,,2.51,,,59.50,,,,
USR0000CJAR,JARBO GAP CALIFORNIA,39.7358,-121.4889,759.0,2010,1269,,,25,,,,106,3802,,,57.9,66.9,48.9
US1CANV0004,GRASS VALLEY 5.5 ESE,39.19,-120.9631,842.2,2010,,,,,,,7.74,,,72.46,,,,
US1CAED0007,FAIR PLAY 2.8 ESE,38.5925,-120.6094,1033.3,2010,,,,,,,3.21,,,53.96,,,,
US1CASM0022,WOODSIDE 3.4 S,37.3754,-122.2637,485.2,2010,,,,,,,8.75,,,111.76,,,,
USR0000CLEO,LEO CARRILLO CALIFORNIA,34.0456,-118.9358,15.2,2010,224,,,39,,,,100,1467,,,60.9,68.9,52.8
US1CAED0002,PLACERVILLE 2.9 WNW,38.7532,-120.8401,548.6,2010,,,,,,,2.83,,,49.32,,,,
USC00040741,BIG BEAR LAKE,34.243,-116.917,2058.3,2010,135,,12,4,,29.0,5.07,88,,43.59,67.1,47.2,61.2,33.2
USC00040983,BORREGO DESERT PARK,33.2559,-116.4036,246.9,2010,3586,0,0,31,0,0.0,2.10,114,1076,11.27,0.0,71.9,86.3,57.6
USR0000CPNN,PINNACLES CALIFORNIA,36.4708,-121.1472,402.9,2010,1123,,,27,,,,112,1982,,,62.4,78.4,46.4
US1CASN0062,PETALUMA 1.3 SW,38.2262,-122.6391,11.0,2010,,,,,,,2.22,,,36.13,,,,
US1CASN0063,WINDSOR 0.6 NNE,38.5534,-122.7929,47.9,2010,,,,,,,2.75,,,53.98,,,,
US1CASN0065,CLOVERDALE 0.9 S,38.7861,-123.0174,105.8,2010,,,,,,,3.51,,,62.74,,,,
USR0000CAPT,ALDER POINT CALIFORNIA,40.1867,-123.5903,281.3,2010,522,,,26,,,,108,3803,,,56.3,67.2,45.3
USW00093193,FRESNO YOSEMITE INTERNATIONAL,36.78,-119.7194,101.5,2010,1990,0,0,30,0,0.0,1.12,110,2435,16.54,0.0,64.1,75.8,52.4
USR0000CLDR,LADDER BUTTE CALIFORNIA,40.8072,-121.2967,1752.6,2010,389,,,8,,,,91,6673,,,47.7,56.9,38.4
USW00093197,SANTA MONICA MUNICIPAL AIRPORT,34.01583,-118.45139,53.0,2010,280,,,38,,,2.56,103,1449,24.11,,61.3,68.6,54.0
US1CASK0005,YREKA 0.9 WNW,41.7326,-122.6495,820.5,2010,,,,,,,1.81,,,24.28,,,,
USR0000CCSH,CASHMAN CALIFORNIA,40.0017,-120.915,1377.7,2010,743,,,11,,,,103,5287,,,52.6,65.8,39.4
USR0000CTUO,GAYLOR MEADOW CALIFORNIA,37.8683,-119.3183,2825.5,2010,,,,,,,,,10489,,,,,
USC00042934,FAIRFIELD,38.2736,-122.0677,12.2,2010,732,0,0,25,0,0.0,1.78,106,2886,30.53,0.0,59.2,70.7,47.7
USC00049325,VICTORVILLE PUMP PLANT,34.5349,-117.3058,871.1,2010,1381,,,18,,,2.28,103,2994,14.35,,60.3,74.6,46.0
USS0019L17S,Lobdell Lake,38.44,-119.37,2814.2,2010,0,205,,-5,63,,2.20,77,9690,37.28,,38.3,49.2,27.4
USC00049582,WEST POINT,38.3775,-120.5452,845.8,2010,,0,0,,0,0.0,6.23,,,63.52,0.0,,,
USW00093184,SANTA ANA JOHN WAYNE AIRPORT,33.68,-117.86639,16.5,2010,1040,,,36,,,1.92,110,1319,24.62,,64.7,72.5,56.7
USC00046074,NAPA STATE HOSPITAL,38.2777,-122.2647,10.7,2010,452,0,0,28,0,0.0,2.35,106,2628,36.23,0.0,59.2,70.8,47.5
USR0000CCRN,CORNING CALIFORNIA,39.9389,-122.1697,89.6,2010,1601,,,26,,,,111,2868,,,61.7,73.2,50.1
USS0020L10S,Fallen Leaf,38.93,-120.05,1900.7,2010,2,156,,-1,31,,5.10,82,7827,47.17,,43.5,55.5,31.5
USR0000CGZF,GRIZZLY FLAT CALIFORNIA,38.6197,-120.5614,1140.0,2010,,,,,,,,,4632,,,,,
USC00042706,EL CAJON,32.8005,-116.928,150.9,2010,1067,0,0,30,0,0.0,3.80,109,1300,20.45,0.0,64.1,76.3,51.9
USR0000CCRA,CRANE FLAT LOOKOUT CALIFORNIA,37.7617,-119.8247,2025.1,2010,300,,,9,,,,89,,,,49.1,57.2,40.9
USS0020K25S,Ward Creek NUMBER 3,39.14,-120.22,2028.4,2010,1,215,,0,115,,6.50,84,8017,92.78,,42.7,55.4,30.0
USR0000CROU,ROUND MOUNTAIN,41.4272,-121.4639,1602.6,2010,,,,,,,,,6902,,,,,
USR0000CCRE,CRESTVIEW CALIFORNIA,37.745,-118.9833,2316.5,2010,13,,,-15,,,,90,8540,,,42.0,60.0,24.0
USR0000CROS,ROSE VALLEY CALIFORNIA,34.5431,-119.1842,1015.3,2010,279,,,16,,,,101,4496,,,53.2,71.2,35.3
USR0000CCRZ,CRAZY PEAK CALIFORNIA,41.9919,-123.6036,1210.1,2010,412,,,17,,,,98,5635,,,50.4,61.3,39.4
USC00040521,BARSTOW,34.8927,-117.0219,676.7,2010,2422,0,0,23,0,0.0,1.82,110,2643,15.59,0.0,64.6,77.9,51.3
USR0000CANZ,ANZA CALIFORNIA,33.555,-116.673,1194.8,2010,720,,,20,,,,100,4046,,,55.8,69.4,42.2
USC00041614,CEDARVILLE,41.5301,-120.1791,1428.9,2010,563,37,12,0,6,5.0,1.65,102,6422,15.69,17.9,49.6,63.4,35.9
US1CASF0004,SAN FRANCISCO 1.1 SW,37.765,-122.4348,59.1,2010,,,,,,,1.48,,,33.14,,,,
USR0000CCRR,CARPENTER RIDGE CALIFORNIA,40.0686,-121.5825,1466.7,2010,637,,,16,,,,94,5431,,,51.3,59.7,42.9
USC00049351,VINTON,39.8056,-120.1858,1508.8,2010,118,,25,-8,,14.3,1.23,96,6740,17.67,78.9,47.1,61.8,32.5
USC00049111,TWITCHELL DAM,34.988,-120.3211,177.4,2010,,0,0,,0,0.0,,,2503,,0.0,,,
USR0000CNFO,NORTH FORK CALIFORNIA,37.2331,-119.5047,829.1,2010,1416,,,22,,,,111,3626,,,59.0,73.1,44.9
USC00041864,COALINGA,36.1356,-120.3606,204.2,2010,,,0,,,0.0,,,,,0.0,,,
USC00043800,HARRY ENGLEBRIGHT DM,39.2372,-121.2666,243.8,2010,,0,0,,0,0.0,2.50,,,45.82,0.0,,,
USC00042713,EL CENTRO 2 SSW,32.7669,-115.5617,-9.1,2010,4075,0,0,34,0,0.0,1.14,116,853,5.36,0.0,74.0,87.7,60.3
USC00048014,SAUGUS POWER PLANT 1,34.5894,-118.4547,636.7,2010,,0,0,,0,0.0,3.10,,,30.16,0.0,,,
USR0000CAMM,AMMO DUMP CALIFORNIA,33.3814,-117.2856,325.5,2010,776,,,32,,,,112,1475,,,62.7,73.4,52.0
USS0019L39S,Spratt Creek,38.67,-119.82,1863.9,2010,94,143,,0,42,,3.50,90,6750,40.89,,46.8,59.1,34.4
USC00049102,TWENTYNINE PALMS 12 E WONDER VALLEY,34.1206,-115.85,419.4,2010,3550,0,0,22,0,0.0,1.07,115,1793,4.33,0.0,70.0,84.3,55.8
USR0000CROD,RODEO VALLEY,39.6681,-123.3211,740.1,2010,617,,,25,,,,103,4444,,,54.3,65.1,43.5
USR0000CROC,ROCK CREEK,37.5514,-118.6672,2145.8,2010,185,,,2,,,,92,7008,,,46.4,61.4,31.3
USR0000CLAP,LA PANZA CALIFORNIA,35.3811,-120.1875,496.8,2010,716,,,18,,,,106,3700,,,57.0,73.9,40.0
USR0000CALD,ALDER SPRINGS CALIFORNIA,39.6514,-122.7236,1310.6,2010,,,,,,,,,4931,,,,,
USR0000CPIR,PIRU CALIFORNIA,34.4044,-118.81,187.1,2010,754,,,30,,,,108,,,,61.8,73.3,50.3
USR0000CLAU,LAUFMAN CALIFORNIA,40.1417,-120.3533,1767.8,2010,599,,,3,,,,104,6066,,,50.6,63.9,37.3
USC00048273,SKYLINE RIDGE,37.3133,-122.185,691.9,2010,486,,,28,,,,96,,,,54.8,62.9,46.7
USR0000CLAS,LASSEN LODGE CALIFORNIA,40.3442,-121.7136,1267.7,2010,1062,,,17,,,,102,4750,,,54.5,64.8,44.2
USS0019L13S,Virginia Lakes Ridge,38.07,-119.23,2878.8,2010,0,217,,1,69,,2.40,77,9076,40.38,,39.9,49.0,30.9
USW00094299,ALTURAS MUNICIPAL AIRPORT,41.49139,-120.56444,1333.5,2010,169,,,-5,,,0.69,99,6952,12.66,,47.0,62.1,31.9
USR0000CLAR,LAURAL MOUNTAIN CALIFORNIA,35.4783,-117.6989,1338.1,2010,1844,,,24,,,,102,3446,,,60.5,69.7,51.2
USS0020K27S,Tahoe City Cross,39.17,-120.15,2071.7,2010,22,182,,5,52,,4.80,83,7401,55.26,,44.5,54.9,34.1
USR0000CLAH,LA HONDA CALIFORNIA,37.3053,-122.255,265.8,2010,214,,,30,,,,105,3598,,,55.5,66.3,44.8
USR0000CPIL,PILOT HILL CALIFORNIA,38.8325,-121.0086,365.8,2010,1039,,,25,,,,107,3469,,,58.6,70.8,46.3
USR0000CLAG,MOUNT LAGUNA CALIFORNIA,32.8797,-116.4203,1755.6,2010,377,,,14,,,,93,5127,,,51.8,65.2,38.3
USS0020K03S,Independence Creek,39.49,-120.28,1967.8,2010,5,184,,-7,54,,3.50,87,8154,43.49,,42.6,56.2,28.9
USR0000CTRI,TRINITY CAMP CALIFORNIA,40.7864,-122.8045,1008.3,2010,741,,,20,,,,98,5431,,,52.3,61.6,42.9
USR0000CALT,LOS ALTOS CALIFORNIA,37.3581,-122.1472,196.6,2010,,,,,,,,,2353,,,,,
USC00042964,FALL RIVER MILLS,41.008,-121.435,1005.8,2010,,0,0,,0,0.0,,,,,0.0,,,
USR0000CTRM,TRIMMER CALIFORNIA,36.9111,-119.305,469.4,2010,1748,,,27,,,,111,,,,61.6,74.4,48.7
USR0000CLAY,LAYTONVILLE CALIFORNIA,39.7022,-123.485,554.7,2010,632,,,24,,,,109,4201,,,55.3,68.4,42.3
USC00048025,SAWYERS BAR RANGER STATION,41.3011,-123.133,661.1,2010,,,,,,,,,4724,,,,,
USR0000CTRA,LAS TRAMPAS CALIFORNIA,37.8339,-122.0669,536.4,2010,596,,,32,,,,101,3585,,,56.5,64.8,48.2
USS0019L38S,Leavitt Lake,38.28,-119.61,2931.3,2010,0,267,,-2,167,,3.90,72,9541,83.89,,38.5,45.8,31.2
USR0000CALP,ALPINE CALIFORNIA,32.8336,-116.7392,622.1,2010,1274,,,30,,,,110,1909,,,62.9,77.7,48.1
USW00053139,STOVEPIPE WELLS 1 SW,36.602,-117.1449,25.6,2010,5209,,,32,,,0.52,123,1206,3.61,,76.0,87.5,64.4
USC00046657,PALOMAR MOUNTAIN OBSVTRY,33.378,-116.84,1691.6,2010,,,6,,,8.0,7.50,,,51.76,19.7,,,
USC00048839,TEJON RANCHO,35.0233,-118.7497,434.3,2010,,0,0,,0,0.0,,,,,0.0,,,
USC00047749,SAN DIMAS FIRE FC 95,34.1052,-117.8019,292.0,2010,,0,0,,0,0.0,2.79,,,24.52,0.0,,,
USC00042294,DAVIS 2 WSW EXPERIMENTAL FARM,38.5349,-121.7761,18.3,2010,990,0,0,30,0,0.0,1.38,108,2744,22.04,0.0,60.6,73.1,48.1
USC00043384,GEORGETOWN R S,38.933,-120.8008,914.7,2010,,,1,,,4.2,,,,,12.8,,,
USC00044232,INDEPENDENCE,36.798,-118.2036,1204.0,2010,1942,,,15,,,3.93,109,3588,10.52,,60.5,75.7,45.4
USR0000CHIG,HIGH SIERRA CALIFORNIA,37.3147,-119.0383,2256.4,2010,104,,,2,,,,87,7040,,,45.7,59.3,32.1
USC00047741,SAN DIEGO SEAWORLD,32.7672,-117.2258,4.6,2010,,0,0,,0,0.0,,,,,0.0,,,
USR0000CWEE,WEED AIRPORT CALIFORNIA,41.4789,-122.4539,893.1,2010,647,,,15,,,,101,5484,,,52.3,63.6,41.0
USC00048606,STRAWBERRY VALLEY,39.563,-121.1077,1160.7,2010,247,,26,16,,22.0,4.93,97,5423,111.91,162.3,50.4,62.1,38.7
USW00053150,YOSEMITE VILLAGE 12 W,37.7592,-119.8208,2017.8,2010,247,,,9,,,3.62,87,6608,57.58,,47.2,53.0,41.3
USW00053151,FALLBROOK 5 NE,33.4392,-117.1904,347.5,2010,946,,,33,,,3.27,113,1481,26.66,,63.2,74.5,51.9
USW00053152,SANTA BARBARA 11 W,34.4141,-119.8796,5.5,2010,27,,,33,,,2.85,86,2671,28.88,,57.1,65.4,48.7
USC00043392,GETTY CENTER,34.0869,-118.4794,340.5,2010,775,0,0,40,0,0.0,2.11,110,1498,18.96,0.0,62.6,71.3,53.9
USC00044484,KELSEY 1 N,38.8088,-120.8208,609.6,2010,,1,0,,1,0.6,4.47,,,55.02,0.6,,,
USC00043157,FORT BIDWELL,41.8715,-120.1574,1444.4,2010,,,6,,,6.0,,,,,17.8,,,
USR0000CWES,WESTWOOD CALIFORNIA,40.3067,-120.9,1767.8,2010,360,,,6,,,,90,6970,,,46.8,55.5,38.0
USC00042081,COVELO,39.8158,-123.2444,430.7,2010,457,,2,21,,1.0,4.20,102,,52.46,2.0,54.9,68.7,41.1
USC00044259,INDIO FIRE STATION,33.7086,-116.2152,-6.4,2010,,0,0,,0,0.0,2.00,,,5.08,0.0,,,
USC00047767,SAN FRANCISCO OCEANSIDE,37.728,-122.5052,2.4,2010,,,0,,,0.0,,,,,0.0,,,
USR0000CHGL,HIGH GLADE LOOKOUT CALIFORNIA,39.2083,-122.8083,1475.2,2010,666,,,20,,,,95,5298,,,51.6,59.5,43.7
USC00043161,FORT BRAGG 5 N,39.5091,-123.7566,37.5,2010,,0,0,,0,0.0,,,,,0.0,,,
USC00046675,PANOCHE 2 W,36.6066,-120.8841,426.7,2010,,0,0,,0,0.0,1.00,,,15.40,0.0,,,
USC00042090,COVINA CITY YARD FC387B,34.0917,-117.88,185.0,2010,,0,0,,0,0.0,,,,,0.0,,,
USC00045360,MARKLEY COVE,38.4916,-122.1241,146.3,2010,1030,0,0,29,0,0.0,3.33,107,3003,34.45,0.0,59.9,73.8,46.0
USR0000CFAN,FANCHER CREEK CALIFORNIA,36.8839,-119.4658,280.4,2010,2225,,,30,,,,110,2305,,,64.8,75.2,54.5
USR0000CHER,HERNANDEZ CALIFORNIA,36.3825,-120.8558,1137.8,2010,1139,,,24,,,,99,3980,,,56.9,65.0,48.6
USC00045118,LOS BANOS,37.0563,-120.8666,36.6,2010,1624,0,0,30,0,0.0,1.50,108,,14.12,0.0,63.2,74.8,51.6
USC00045119,LOS BANOS ARBURUA RANCH,36.8749,-120.9386,256.9,2010,,0,0,,0,0.0,1.05,,,11.83,0.0,,,
US1CASJ0004,STOCKTON 5.8 NNE,38.0381,-121.2547,10.7,2010,,,,,,,1.02,,,22.47,,,,
US1CASJ0006,STOCKTON 3.3 SE,37.9417,-121.2585,7.0,2010,,,,,,,1.10,,,16.35,,,,
USC00045598,MIDDLETOWN,38.725,-122.5513,340.8,2010,,0,0,,0,0.0,3.12,,,56.87,0.0,,,
USC00046685,PARADISE,39.7538,-121.6241,533.4,2010,1361,0,0,30,0,0.0,3.70,106,3107,75.59,0.0,60.2,69.2,51.1
US1CASJ0001,LINDEN 5.8 ENE,38.0627,-121.0079,44.5,2010,,,,,,,1.31,,,28.28,,,,
USC00044025,HOLLISTER 2,36.8483,-121.4213,83.8,2010,272,0,0,27,0,0.0,1.41,107,2737,18.02,0.0,57.6,69.2,46.1
USC00047306,REDLANDS,34.037,-117.1948,429.8,2010,1422,0,0,29,0,0.0,4.84,109,1749,26.71,0.0,63.8,77.7,50.0
US1CARV0005,HEMET 4.1 ENE,33.7527,-116.9196,517.6,2010,,,,,,,2.54,,,21.72,,,,
USR0000CHEL,HELL HOLE CALIFORNIA,39.0717,-120.4217,1597.2,2010,512,,,12,,,,96,5205,,,51.5,62.4,40.7
US1CARV0008,CORONA 12.8 SE,33.7307,-117.4276,427.9,2010,,,,,,,5.33,,,29.85,,,,
US1CARV0002,IDYLLWILD 1.8 NW,33.7631,-116.735,1927.9,2010,,,,,,,3.40,,,43.12,,,,
USC00046699,PARKER RESERVOIR,34.2903,-114.1708,224.9,2010,4456,0,0,33,0,0.0,1.22,117,1150,6.68,0.0,74.3,86.4,62.3
USR0000CPUL,PULGAS CALIFORNIA,37.475,-122.2981,196.3,2010,462,,,33,,,,109,,,,58.9,69.8,47.9
USC00045123,LOS GATOS,37.2319,-121.9592,111.3,2010,392,0,0,29,0,0.0,2.45,102,,30.08,0.0,58.6,70.2,47.1
USC00040924,BLYTHE,33.6131,-114.5972,81.7,2010,,0,0,,0,0.0,0.76,,,3.02,0.0,,,
USR0000CWAL,WALKER PASS CALIFORNIA,35.6647,-118.0569,1698.3,2010,1267,,,18,,,,102,4112,,,56.9,69.8,44.0
USR0000CWAK,WALKER CALIFORNIA,38.5653,-119.4592,1658.1,2010,927,,,11,,,,100,4591,,,54.1,65.0,43.2
USC00045378,MARTINEZ WATER PLANT,38.0131,-122.1142,12.2,2010,483,0,0,27,0,0.0,1.63,104,2913,23.83,0.0,58.3,71.2,45.3
USR0000CWAR,WARM SPRINGS CALIFORNIA,34.5958,-118.5786,1502.7,2010,1333,,,26,,,,102,3480,,,58.9,68.3,49.5
USW00053119,HANFORD MUNICIPAL AIRPORT,36.31889,-119.62889,75.9,2010,1571,,,24,,,1.08,109,2841,13.91,,61.9,75.5,48.2
USC00040931,BOCA,39.3886,-120.0936,1699.3,2010,22,126,34,-7,24,10.0,2.01,95,8049,30.60,158.2,43.2,60.7,25.7
USR0000CLKL,LOWER KLAMATH CALIFORNIA,41.9992,-121.7003,1249.1,2010,112,,,2,,,,94,6860,,,46.6,59.7,33.4
USW00053120,RAMONA AIRPORT,33.0375,-116.91583,424.6,2010,662,,,22,,,3.40,108,2520,27.79,,59.3,74.1,44.4
USW00053121,OCEANSIDE MUNICIPAL AIRPORT,33.21944,-117.34944,8.5,2010,355,,,28,,,2.97,105,2182,23.85,,60.0,69.9,50.2
USC00044297,IRON MOUNTAIN,34.1472,-115.1219,281.0,2010,4158,0,0,32,0,0.0,1.33,115,,7.44,0.0,74.2,86.2,62.2
US1CARV0020,NORCO 2.3 SE,33.9059,-117.5178,332.5,2010,,,,,,,2.97,,,17.56,,,,
USC00049742,WINTERS,38.5252,-121.9777,41.1,2010,1430,0,0,29,0,0.0,2.47,109,2364,30.87,0.0,62.7,75.3,50.0
USR0000CHAS,HASTINGS CALIFORNIA,36.3886,-121.5517,574.5,2010,589,,,28,,,,103,3337,,,57.1,68.1,46.1
USR0000CHAY,HAYFORK CALIFORNIA,40.55,-123.165,708.1,2010,515,,,19,,,,106,4990,,,53.2,68.6,37.8
USR0000CHAW,HAWKEYE CALIFORNIA,38.7817,-122.9169,609.6,2010,743,,,31,,,,99,3548,,,56.8,63.9,49.6
USR0000CLIN,LINCOLN CALIFORNIA,38.8825,-121.2683,61.0,2010,1345,,,24,,,,108,2898,,,61.2,74.0,48.4
USR0000CRUT,RUTH CALIFORNIA,40.2506,-123.3158,832.7,2010,370,,,17,,,,103,5111,,,52.3,67.1,37.6
USR0000CJER,JERSEYDALE CALIFORNIA,37.5436,-119.8386,1188.7,2010,1185,,,20,,,,105,4119,,,56.7,68.7,44.8
USC00047339,REDWOOD CITY,37.4767,-122.2386,9.4,2010,332,0,0,31,0,0.0,,104,2820,,0.0,58.4,68.4,48.3
US1CARV0017,PERRIS 8.5 WNW,33.8262,-117.365,499.6,2010,,,,,,,3.02,,,18.80,,,,
USC00040943,BODIE CALIFORNIA STATE HISTORIC PARK,38.2119,-119.0142,2551.2,2010,,,13,,,9.0,0.76,,,11.41,43.5,,,
USR0000CPRD,PANOCHE ROAD CALIFORNIA,36.7269,-120.7658,619.4,2010,1655,,,32,,,,99,2924,,,61.4,68.4,54.4
USC00046006,MOUNT WILSON CBS,34.2308,-118.0711,1740.4,2010,,,,20,,,,,,,,,,46.3
