STATION,NAME,LATITUDE,LONGITUDE,ELEVATION,DATE,CDSD,DSND,DSNW,EMNT,EMSD,EMSN,EMXP,EMXT,HDSD,PRCP,SNOW,TAVG,TMAX,TMIN
USR0000CTHO,THOMES CREEK CALIFORNIA,39.8644,-122.6097,317,2012,2445,,,28,,,,110,2415,,,64.9,75.1,54.8
USC00049099,TWENTYNINE PALMS,34.128,-116.0369,602,2012,,,,,,,,,1616,,,,,
USR0000CRDR,READER RANCH CALIFORNIA,39.3036,-121.1172,599.8,2012,1539,,,24,,,,106,3076,,,60.7,72.7,48.8
USR0000CTHS,THOUSAND OAKS CALIFORNIA,34.21,-118.87,242.3,2012,,,,,,,,,1830,,,,,
USR0000CABS,ARBUCKLE BASIN CALIFORNIA,40.3983,-122.8333,579.1,2012,1654,,,27,,,,105,3475,,,59.6,67.9,51.4
USC00047902,SANTA BARBARA,34.4167,-119.6844,1.5,2012,425,,,36,,,1.77,92,,13.46,,61.8,70.4,53.1
USC00042214,CULVER CITY,34.005,-118.4139,28,2012,670,,,30,,,1.1,97,,8.86,,62.9,71.6,54.2
USR0000CGOR,GORDON CALIFORNIA,40.7586,-120.8961,1889.8,2012,161,,,2,,,,93,6930,,,46.4,60,32.9
USR0000CREA,REDDING AIRPORT CALIFORNIA,40.5158,-122.2906,152.4,2012,1917,,,17,,,,114,2780,,,62.6,76.5,48.6
US1CAMT0008,KING CITY 2.0 SSW,36.1872,-121.1461,113.1,2012,,,,,,,1.01,,,11.87,,,,
US1CAMT0006,CASTROVILLE 1.6 ENE,36.7764,-121.7284,5.5,2012,,,,,,,1.65,,,16.96,,,,
US1CAMT0005,KING CITY 13.2 S,36.0249,-121.1745,336.5,2012,,,,,,,1.2,,,14.35,,,,
USR0000CGOO,GOOSE VALLEY CALIFORNIA,33.0736,-116.8458,466.3,2012,1331,,,27,,,,107,1943,,,63.6,80,47.2
US1CAMT0003,LOCKWOOD 3.6 NW,35.9808,-121.1174,360,2012,,,,,,,0.88,,,11.24,,,,
US1CAMT0002,CARMEL VALLEY VILLAGE 0.8 SSW,36.4757,-121.7285,109.4,2012,,,0,,,0,2.34,,,19.81,0,,,
USR0000CRCH,RANCHITA CALIFORNIA,33.2222,-116.4975,1345.7,2012,1526,,,25,,,,99,3108,,,61.2,71,51.4
USC00042467,DONNER MEMORIAL ST PARK,39.3239,-120.2331,1809.6,2012,67,,,0,,,4.05,92,7665,44.07,,44.7,60.1,29.3
USC00044405,JOSHUA TREE,34.1471,-116.2747,781.2,2012,2941,0,0,24,0,0,0.83,112,2177,2.49,0,67.7,82.1,53.2
USC00047916,SANTA CRUZ,36.9905,-121.9911,39.6,2012,99,,,26,,,,101,2863,,,58,69.4,46.5
USC00046826,PETALUMA AIRPORT,38.2577,-122.6077,6.1,2012,226,,,22,,,2.03,100,3056,28.26,,57.6,70.4,44.8
USC00044881,LEE VINING,37.9567,-119.1194,2071.7,2012,424,36,15,7,23,10.5,1.79,94,5750,11.43,66.2,51.1,64.9,37.3
USW00093210,OROVILLE MUNICIPAL AIRPORT,39.49,-121.61833,57.9,2012,,,,,,,,,2692,,,,,
US1CAMT0023,BIG SUR 9.5 NNW,36.398,-121.8685,335.3,2012,,,,,,,5.68,,,41.69,,,,
USW00093209,PASO ROBLES MUNICIPAL AIRPORT,35.6697,-120.6283,246.9,2012,1109,,,17,,,1.47,110,2781,9.09,,60.9,78.1,43.7
US1CAMT0022,CARMEL VALLEY VILLAGE 5.4 WNW,36.5218,-121.81,40.5,2012,,,,,,,1.79,,,19.52,,,,
USC00044412,JULIAN CDF,33.0763,-116.5925,1284.7,2012,1035,,,24,,,1.53,97,3422,18.06,,59,68.8,49.3
USC00042239,CUYAMACA,32.9897,-116.5872,1414.3,2012,607,,,15,,,1.32,98,4447,23.08,,55.3,69,41.7
USC00044890,LEMON COVE,36.3817,-119.0264,156.4,2012,2064,,,28,,,1.11,110,2433,13.78,,64.6,80,49.2
USC00045983,MOUNT SHASTA,41.3218,-122.3173,1102.5,2012,322,,,9,,,3.7,99,5456,51.98,,51.1,65.4,36.8
USW00093205,MARYSVILLE YUBA CO AIRPORT,39.1019,-121.5677,18.9,2012,1570,,,19,,,1.64,107,2650,24.73,,62.5,76.2,48.8
USW00093206,SAN LUIS OBISPO MCCHESNEY FIELD,35.23722,-120.64139,61,2012,259,0,,28,0,,1.8,104,2194,16.14,,59.9,71.8,47.9
USS0020H12S,Dismal Swamp,41.99,-120.18,2243.3,2012,11,211,,2,78,,1.5,83,9287,46.65,,40.4,50.1,30.6
USC00047933,SANTA MARGARITA BOOST,35.3741,-120.6375,349.9,2012,1075,,,20,,,3.75,112,2433,27.61,,61.6,77.9,45.3
USC00043578,GRATON,38.4305,-122.8647,61,2012,234,,,20,,,3.8,106,2984,49.63,,57.5,74,41
US1CASH0010,REDDING 7.9 NNE,40.6721,-122.2913,207.6,2012,,,,,,,5.16,,,55.76,,,,
USC00043573,GRASS VALLEY NUMBER 2,39.2041,-121.068,731.5,2012,821,,,19,,,4.19,99,4020,73.91,,56.5,68.8,44.1
USR0000CRAV,RAVENDALE CALIFORNIA,40.7308,-120.3164,1614.8,2012,349,,,-9,,,,97,6399,,,48.8,63.5,34
USC00044422,JUNCAL DAM,34.4908,-119.5069,688.8,2012,,,,,,,2.06,,,18.61,,,,
USR0000CCDG,CEDAR GROVE CALIFORNIA,36.7878,-118.6561,1438.7,2012,,,,,,,,,4717,,,,,
USW00024216,RED BLUFF MUNICIPAL AIRPORT,40.1519,-122.2536,107.6,2012,1983,,,18,,,1.85,112,2630,25.57,,63.4,76.7,50.2
USW00023129,LONG BEACH DAUGHERTY FIELD,33.8116,-118.1463,9.4,2012,1324,,,36,,,0.98,104,1284,8.22,,65.6,75,56.2
USW00024215,MOUNT SHASTA,41.3325,-122.33278,1077.5,2012,370,,,10,,,3.89,99,5547,44.21,,51,64.6,37.5
USW00024213,EUREKA WEATHER FORECAST OFFICE WOODLEY ISLAND,40.8097,-124.1602,6.1,2012,0,0,0,30,0,0,2.26,74,4909,50.83,0,51.7,57.8,45.5
US1CAYL0001,DAVIS 1.2 SE,38.5425,-121.721,11,2012,,,,,,,1.49,,,23.89,,,,
US1CAYL0002,DAVIS 0.8 NE,38.5618,-121.7241,12.5,2012,,,,,,,1.43,,,21.94,,,,
US1CAYL0007,DAVIS 6.1 WNW,38.578,-121.8453,25.3,2012,,,,,,,1.7,,,20.92,,,,
US1CAYL0009,DAVIS 2.7 W,38.5523,-121.7855,17.4,2012,,,,,,,1.83,,,21.93,,,,
USR0000CTE2,TEMESCAL LPF CALIFORNIA,34.4806,-118.7556,347.5,2012,1583,,,31,,,,106,1797,,,64.5,79.3,49.8
USC00042012,CORCORAN IRRIGATION DIST.,36.0975,-119.5817,61,2012,2101,,,24,,,0.91,108,2543,5.32,,64.5,78.9,50.1
USW00023130,VAN NUYS AIRPORT,34.20972,-118.48917,234.7,2012,1856,,,32,,,1.29,106,1444,9.49,,66.5,78.9,54.1
USR0000COZE,OZENA CALIFORNIA,34.6819,-119.3539,1118.6,2012,,,,,,,,112,,,,,78.2,
USR0000CIND,INDIAN WELL CALIFORNIA,41.7417,-121.5383,1453.9,2012,491,,,9,,,,97,5958,,,49.7,61.9,37.6
USR0000CCAR,CARRIZO CALIFORNIA,35.0964,-119.7728,759,2012,1988,,,31,,,,105,2473,,,63.7,74.7,52.6
USR0000CCAT,CATHEYS VALLEY CALIFORNIA,37.4681,-120.1106,365.8,2012,2118,,,30,,,,107,2546,,,64,74.7,53.2
USW00023136,CAMARILLO AIRPORT,34.21667,-119.08333,23.5,2012,364,0,,35,0,,1.53,98,1780,8.4,,61.2,70.9,51.4
USC00043357,GASQUET RANGER STATION,41.8452,-123.9647,118,2012,,,,,,,6.39,,,124.15,,,,
USC00046624,PALMDALE,34.5883,-118.0938,796.1,2012,2421,0,,22,0,,0.64,108,2536,2.89,,65.2,80.1,50.4
US1CAOR0027,IRVINE 4.1 NNE,33.7183,-117.7721,46.3,2012,,,,,,,0.85,,,7.88,,,,
US1CAOR0021,ANAHEIM 4.9 ENE,33.8632,-117.7918,90.8,2012,,,,,,,0.87,,,7.71,,,,
USR0000CMTZ,MOUNT ZION CALIFORNIA,38.3894,-120.6511,902.2,2012,1751,,,27,,,,102,3179,,,60.8,69.3,52.3
US1CAOR0029,ANAHEIM 4.9 E,33.847,-117.7871,114,2012,,,,,,,1.02,,,8.17,,,,
USR0000CEEL,EEL RIVER CALIFORNIA,39.8333,-123.0833,457.2,2012,1204,,,17,,,,114,3557,,,58.7,75.8,41.7
USR0000CCAN,CANBY CALIFORNIA,41.4342,-120.8678,1314.3,2012,340,,,-5,,,,101,6226,,,49.2,66.3,32.2
USR0000CCAM,CAMERON FIRE STATION CALIFORNI,32.7214,-116.4631,1049.4,2012,911,,,20,,,,103,,,,58.7,76.4,40.9
USR0000CCAL,CALLAHAN CALIFORNIA,41.3075,-122.7958,955.9,2012,931,,,16,,,,106,5069,,,53.9,66.9,40.8
USR0000CCAA,CAHUILLA CALIFORNIA,32.9736,-115.1736,84.7,2012,4963,,,38,,,,118,644,,,77.1,90.8,63.3
USR0000CEEC,EEL RIVER CAMP CALIFORNIA,40.1383,-123.8236,135.9,2012,407,,,26,,,,109,3567,,,56.8,69.7,44
USC00044211,IDYLLWILD FIRE DEPARTMENT,33.7572,-116.7066,1639.8,2012,525,,10,14,,10,1.62,94,,18.93,37.1,55.3,69.5,41.2
USW00023110,LEMOORE REEVES NAS,36.33333,-119.95,70.7,2012,,,,,,,0.87,,,5.02,,,,
USR0000CMTD,MOUNT DIABLO CALIFORNIA,37.8817,-121.9142,1173.2,2012,881,,,25,,,,91,,,,54.8,60.2,49.4
USC00046646,PALO ALTO,37.4436,-122.1402,7.6,2012,223,,,27,,,1.8,98,2701,16.34,,57.7,69.2,46.2
USR0000CGHP,GRASSHOPPER CALIFORNIA,40.7817,-120.7844,1877,2012,174,,,2,,,,92,7255,,,46.1,58.9,33.2
USC00041194,BURBANK VALLEY PUMP,34.1866,-118.348,199.6,2012,1383,,,32,,,1.77,105,,9.62,,64.7,77.4,51.9
USC00044223,IMPERIAL,32.8488,-115.5666,-19.5,2012,3453,,,25,,,1.22,116,1461,2.29,,70.9,90.3,51.5
USC00045795,MONTEREY,36.5902,-121.9102,117.3,2012,77,,,33,,,,100,3439,,,55.5,62.9,48.1
USR0000CCOL,COLLINS BALDY CALIFORNIA,41.775,-122.9503,1674.3,2012,439,,,14,,,,93,6523,,,48.1,56.6,39.7
US1CASU0005,SUTTER 0.3 W,39.1596,-121.7511,22.3,2012,,,,,,,1.76,,,23.57,,,,
USC00049490,WEAVERVILLE,40.7367,-122.9404,627.3,2012,644,,,13,,,2.51,106,4695,47.63,,54.3,69.7,39
US1CAOR0001,ORANGE 3.5 ENE,33.8291,-117.77,247.2,2012,,,,,,,1.11,,,8.62,,,,
USW00023161,DAGGETT AIRPORT,34.8536,-116.7858,584.3,2012,3439,,,23,,,0.24,114,2098,1.3,,69.3,83.8,54.8
USR0000CPHI,PINE HILLS CALIFORNIA,33.0164,-116.6339,0,2012,1122,,,26,,,,99,,,,60.3,72.6,47.9
US1CAOR0006,SILVERADO 1.0 ESE,33.7455,-117.6199,424.9,2012,,,,,,,2.76,,,15.04,,,,
USW00024259,MONTAGUE SISKIYOU AIRPORT,41.78139,-122.46806,808,2012,602,,,7,,,0.97,104,5524,12.27,,52.3,67.3,37.3
USW00024257,REDDING MUNICIPAL AIRPORT,40.5175,-122.2986,151.5,2012,1913,,,16,,,2.43,112,2872,36.45,,62.4,75.8,49.1
USR0000CCP9,CAMP 9 CALIFORNIA,34.3617,-118.4217,1219.2,2012,1615,,,27,,,,100,2773,,,61.6,70.5,52.8
USR0000CPIE,PIERCE CALIFORNIA,40.2461,-120.6422,1737.4,2012,303,,,6,,,,92,6036,,,49.4,60.7,38.2
USC00040673,BEN LOMOND NUMBER 4,37.0855,-122.0797,128,2012,683,,,23,,,,112,2131,,,61.2,78.5,44
USR0000CCOU,CO LINE CALIFORNIA,39.0189,-122.4119,635.5,2012,,,,,,,,,2961,,,,,
USR0000CPIH,PINEHURST CALIFORNIA,36.6853,-119,1237.5,2012,,,,,,,,,3458,,,,,
USC00040436,BAKER,35.27611,-116.06278,293.2,2012,4072,0,0,23,0,0,1.2,119,1943,4.44,0,71.7,87.4,56
USR0000CLAB,LOS BANOS CALIFORNIA,37.0547,-121.0531,106.7,2012,1888,,,31,,,,104,2088,,,64.8,75.5,54.2
USR0000CCOO,COOSKIE MOUNTAIN CALIFORNIA,40.2569,-124.2661,899.2,2012,525,,,25,,,,100,5000,,,52.2,60.4,44.1
USR0000CESP,ESPERANZA CALIFORNIA,38.2428,-120.515,780,2012,1225,,,21,,,,105,3578,,,58.5,71.3,45.8
USR0000CCOR,CORRALITOS CALIFORNIA,36.9911,-121.7978,137.2,2012,159,,,27,,,,104,3035,,,57.6,70.2,44.9
USW00023174,LOS ANGELES INTERNATIONAL AIRPORT,33.938,-118.3888,29.6,2012,702,,,41,,,1.42,98,1465,8.91,,63.4,70,56.8
USR0000CTOM,MOUNT TOM CALIFORNIA,37.3761,-119.1783,2748.7,2012,23,,,1,,,,79,,,,44.6,52.9,36.2
USW00023179,NEEDLES AIRPORT,34.7675,-114.6188,271.3,2012,5121,,,34,,,0.91,120,1029,4.23,,76.5,89.1,64
US1CAOR0017,MISSION VIEJO 1.6 ENE,33.6239,-117.6275,310.3,2012,,,0,,,0,1.35,,,11.72,0,,,
US1CAOR0019,MISSION VIEJO 1.3 SSE,33.5954,-117.6442,214.6,2012,,,,,,,1.31,,,10.99,,,,
USC00042863,ESCONDIDO NUMBER 2,33.121,-117.09,182.9,2012,1395,,,33,,,1.73,103,1410,11.01,,65.3,76.5,54
USC00043710,HAIWEE,36.1388,-117.9527,1165.9,2012,2387,,,19,,,0.64,113,2893,2.18,,64.6,80.9,48.3
USC00041534,CARMEL VALLEY,36.4805,-121.7244,146.3,2012,193,,,25,,,,104,2993,,,57.5,71,44
USC00043714,HALF MOON BAY,37.4725,-122.44333,8.2,2012,2,,,28,,,1.69,82,3983,25.93,,54.4,62.3,46.5
US1CAFR0005,TOLLHOUSE 6.2 SSE,36.9342,-119.3586,425.8,2012,,,,,,,3.14,,,26.01,,,,
US1CAFR0003,TOLLHOUSE 2.0 SSE,36.9897,-119.3971,509.9,2012,,,,,,,3.47,,,25.37,,,,
USS0019L19S,Ebbetts Pass,38.55,-119.8,2671.6,2012,,190,,,70,,3.4,,,57.37,,,,
USC00040212,ANGWIN PAC UNION COL,38.573,-122.4405,522.7,2012,571,,,24,,,,98,3448,,,57.2,68.7,45.6
USC00049026,TRINITY RIVER HATCHERY,40.7263,-122.7947,567.2,2012,784,15,11,16,10,6,2.08,108,4552,37.44,27.6,55.2,70.2,40.2
USC00040693,BERKELEY,37.8744,-122.2605,94.5,2012,,,,,,,,,2717,,,,,
USR0000CCMO,CASE MOUNTAIN CALIFORNIA,36.4108,-118.8092,1966,2012,,,,15,,,,,,,,,,44.1
USR0000CCLE,CLEAR CREEK CALIFORNIA,34.2711,-118.1525,914.4,2012,1695,,,30,,,,98,2382,,,63.1,71.5,54.8
USW00023152,BURBANK GLENDALE PASADENA AIRPORT,34.20056,-118.3575,225.9,2012,1626,0,,35,0,,1.38,105,1526,8.29,,65.6,76.9,54.4
USW00023155,BAKERSFIELD AIRPORT,35.4344,-119.0542,149,2012,2537,0,0,28,0,0,0.86,110,2077,4.42,0,67,79.9,54.1
USC00049040,TRUCKEE TAHOE AIRPORT DISTRICT,39.318,-120.145,1798.3,2012,34,78,32,-6,30,18,2.35,95,8080,29.64,134.8,43.6,62.4,24.8
USR0000CCLA,CLAREMONT CALIFORNIA,34.1369,-117.7069,501.4,2012,,,,,,,,,1781,,,,,
USW00023157,BISHOP AIRPORT,37.3711,-118.358,1250.3,2012,1126,8,3,5,3,4.6,0.83,106,4255,3.48,7.7,56.7,75.9,37.6
USW00023158,BLYTHE AIRPORT,33.6186,-114.7142,120.4,2012,4531,,,33,,,0.75,117,1095,4.48,,74.9,89.1,60.7
USC00041312,CALISTOGA,38.5961,-122.6013,121.9,2012,657,,,17,,,,105,2844,,,58.9,75.5,42.3
USC00042402,DE SABLA,39.8716,-121.6108,826,2012,,,,,,,5.5,,,78.93,,,,
USC00045915,MOUNT DIABLO JUNCTION,37.8792,-121.9303,661.4,2012,966,,,27,,,2.88,99,3317,33.71,,58.3,67.3,49.4
USC00041316,CALLAHAN,41.3111,-122.8044,970.8,2012,,,,,,,,,5612,,,,,
USR0000CCLV,CALAVERAS ROAD CALIFORNIA,37.5531,-121.8439,374.9,2012,600,,,32,,,,100,,,,58.7,67.7,49.7
USR0000CCLK,CLARK CALIFORNIA,33.8767,-117.3089,524.3,2012,1746,,,32,,,,107,1726,,,65.3,78.6,52.1
USC00049035,TRONA,35.7636,-117.3908,516.6,2012,3350,0,0,23,0,0,0.25,114,2227,1.35,0,68.7,83.6,53.8
USC00049053,TULELAKE,41.96,-121.4744,1229.9,2012,126,,,-2,,,0.82,96,6662,9.41,,47.6,63.2,31.9
USS0020H13S,Adin Mtn,41.24,-120.79,1886.7,2012,15,182,,-9,29,,1.7,87,8391,31.26,,42.4,55.1,29.6
USW00093230,SOUTH LAKE TAHOE AIRPORT,38.8983,-119.9947,1924.5,2012,26,,,-8,,,2.2,89,7121,21.5,,45.4,60.6,30.3
USR0000CAGD,ARROYO GRANDE CALIFORNIA,35.1792,-120.3919,319.4,2012,841,,,28,,,,107,2224,,,61.3,76.7,45.9
USR0000CRIC,RICE VALLEY CALIFORNIA,34.0608,-114.7322,249.9,2012,4539,,,30,,,,120,1244,,,74.5,90,59
USC00043747,HANFORD 1 S,36.3158,-119.637,72.2,2012,1995,,,25,,,,106,2623,,,64,77.7,50.4
USR0000CGSP,GREEN SPRING CALIFORNIA,37.8331,-120.5,310.9,2012,1819,,,28,,,,107,2720,,,62.8,74.5,51
USW00093225,SACRAMENTO METROPOLITAN AIRPORT,38.69556,-121.58972,7,2012,1438,,,21,,,1.23,107,2607,20.48,,62.2,75.8,48.6
USW00093227,NAPA CO AIRPORT,38.2102,-122.2847,4.3,2012,188,,,19,,,1.92,98,3245,22.15,,57,69.9,44.2
USW00093228,HAYWARD AIR TERMINAL,37.6542,-122.115,13.1,2012,175,,,30,,,1.18,97,2660,15.11,,58.4,67,49.8
USW00003104,DESERT RESORTS REGIONAL AIRPORT,33.62667,-116.15944,-36,2012,4221,0,0,22,0,0,1.42,117,1263,2.54,0,73.6,90.5,56.7
US1CAKG0003,LEMOORE 0.3 SW,36.295,-119.7914,68,2012,,,0,,,0,0.63,,,5.88,0,,,
US1CAKG0004,HANFORD 3.6 N,36.3769,-119.6527,78.6,2012,,,,,,,0.87,,,6.16,,,,
US1CAKG0001,LEMOORE 0.9 ESE,36.2932,-119.7718,68,2012,,,,,,,0.71,,,6.31,,,,
USW00003102,ONTARIO INTERNATIONAL AIRPORT,34.05611,-117.60028,289.3,2012,2121,0,,33,0,,1.03,107,1567,8.28,,67,79.8,54
USC00045933,MOUNT HAMILTON,37.3436,-121.6425,1282,2012,898,,,21,,,2.85,92,,28.41,,55.4,62,48.7
US1CAKG0005,HANFORD 1.7 WNW,36.3349,-119.6743,74.7,2012,,,,,,,0.89,,,7.45,,,,
USW00023188,SAN DIEGO INTERNATIONAL AIRPORT,32.7336,-117.1831,4.6,2012,862,,,41,,,1.56,101,1290,6.64,,64.2,70,58.4
USW00023187,SANDBERG,34.7436,-118.7242,1374.6,2012,1324,,,22,,,1.16,99,3807,5.7,,58.7,68.1,49.4
USW00023182,PALMDALE AIRPORT,34.62944,-118.08361,769.2,2012,2279,0,,18,0,,0.54,109,2848,2.08,,64,79,49
USW00003131,SAN DIEGO MONTGOMERY FIELD,32.81583,-117.13944,127.1,2012,991,0,,36,0,,1.47,107,1487,8.38,,64.1,73.1,55
US1CAVT0002,FRAZIER PARK 10.7 WSW,34.746,-119.1103,1607.5,2012,,,,,,,1.16,,,7.99,,,,
US1CAVT0001,THOUSAND OAKS 2.1 WSW,34.1772,-118.8984,210.9,2012,,,,,,,1.73,,,10.09,,,,
USW00004222,REDDING 12 WNW,40.6507,-122.6068,432.2,2012,1606,,,22,,,7.48,110,3397,56.83,,60.1,72.8,47.3
US1CAVT0008,SIMI VALLEY 1.0 NW,34.2724,-118.7638,258.5,2012,,,,,,,1.75,,,9.2,,,,
USW00093245,BODEGA 6 WSW,38.3208,-123.0747,19.2,2012,2,,,33,,,2.38,79,4569,34.67,,52.5,58.2,46.8
USR0000CELC,EL CARISO CALIFORNIA,33.6472,-117.4111,926,2012,2173,,,32,,,,106,1854,,,65.9,77,54.9
USW00023199,EL CENTRO NAF,32.81667,-115.68333,-12.8,2012,4232,,,31,,,0.73,116,,1.3,,74.2,89.6,58.7
USW00024286,CRESCENT CITY MCNAMARA AIRPORT,41.78028,-124.23667,17.1,2012,0,0,,30,0,,4.14,72,4912,76.62,,51.2,56.8,45.7
USW00024283,ARCATA EUREKA AIRPORT,40.97806,-124.10861,61,2012,0,0,,28,0,,2.68,75,5251,55.57,,50.7,57.6,43.8
USW00093241,VACAVILLE NUT TREE AIRPORT,38.3775,-121.9575,33.2,2012,1302,,,18,,,2.15,107,2713,29.96,,61.5,75.5,47.4
USW00093242,MADERA MUNICIPAL AIRPORT,36.98778,-120.11056,77.1,2012,1694,0,0,22,0,0,1.9,106,2656,10.94,0,62.9,77.4,48.4
USR0000CCHC,CHICO CALIFORNIA,39.7119,-121.7789,70.1,2012,1607,,,20,,,,106,2741,,,62.2,75.4,49
USW00093243,MERCED 23 WSW,37.2381,-120.8825,23.8,2012,1046,,,16,,,0.68,105,3066,7.35,,60.1,76.8,43.4
USR0000CCHB,CHEESEBORO CALIFORNIA,34.1847,-118.7172,502.9,2012,2101,,,35,,,,107,1448,,,66.8,78.4,55.1
USR0000CPAN,PANAMINT CALIFORNIA,36.1203,-117.0878,2097,2012,851,,,13,,,,98,4368,,,55.6,67.4,43.8
USR0000CTIM,TIMBER MOUNTAIN CALIFORNIA,41.6294,-121.2981,1511.8,2012,546,,,11,,,,96,,,,49.3,59.8,38.9
USR0000CVND,VANDENBERG CALIFORNIA,34.7586,-120.4861,320,2012,217,,,33,,,,96,2809,,,58.4,67.6,49.1
USC00044863,LEBEC,34.8328,-118.865,1092.7,2012,769,,,21,,,1.02,98,,8.24,,56.9,68.4,45.5
US1CAMR0009,PETALUMA 10.1 W,38.2475,-122.8119,36.3,2012,,,,,,,3.38,,,33,,,,
USR0000CCHI,CHILAO CALIFORNIA,34.3317,-118.0303,1661.2,2012,1227,,,22,,,,98,3326,,,59.5,68.7,50.4
USC00040029,ADIN RANGER STATION,41.1936,-120.9447,1278.6,2012,,27,21,,6,5,1,,,14.62,58.4,,,
USR0000CPAT,PATTY MOCUS CALIFORNIA,40.295,-122.8667,1066.8,2012,1234,,,23,,,,101,4171,,,56.4,67,45.8
USR0000CELI,MOUNT ELIZABETH CALIFORNIA,38.0631,-120.2469,1503.6,2012,1216,,,19,,,,98,4105,,,56.9,65.8,47.9
USW00023191,AVALON CATALINA AIRPORT,33.405,-118.41583,488.3,2012,1074,,,41,,,0.96,98,2036,10.51,,62.3,69.2,55.3
USR0000CPAR,PARKFIELD CALIFORNIA,35.8989,-120.4319,467.9,2012,1278,,,17,,,,111,3122,,,60.3,77.9,42.8
USW00023190,SANTA BARBARA MUNICIPAL AIRPORT,34.4258,-119.8425,2.7,2012,204,,,31,,,1.4,94,2710,12.76,,59,69,49
USR0000CELM,EL MIRAGE CALIFORNIA,34.6344,-117.5503,877.8,2012,2158,,,17,,,,112,2881,,,63.5,81,46
USW00003159,LANCASTER WM J FOX FIELD,34.7411,-118.2116,712.6,2012,2235,,,10,,,0.79,111,3107,1.87,,63.3,79.3,47.4
USR0000CBUL,BULL FLAT CALIFORNIA,40.4808,-120.1139,1339.6,2012,375,,,-7,,,,99,6219,,,49.7,66.2,33.1
USR0000CBUR,BURNS CANYON CALIFORNIA,34.2103,-116.6339,1828.8,2012,1228,,,19,,,,95,3582,,,59.3,69,49.6
USS0019L24S,Heavenly Valley,38.92,-119.92,2615.8,2012,0,195,,-3,57,,2,75,8723,35.67,,41.5,51.5,31.5
USC00049888,YUCCA VALLEY,34.1294,-116.3879,990.3,2012,2214,0,0,21,0,0,0.41,106,2648,2.54,0,64.5,78.1,50.8
USR0000CBUU,BUTTERCUP CALIFORNIA,32.7397,-114.8839,66.1,2012,4858,,,37,,,,118,725,,,76.7,91.5,61.9
USC00049884,YUCCA MESA,34.2182,-116.4073,1050,2012,2544,0,0,25,0,0,0.33,107,2314,1.89,0,66.3,78.5,54.1
USC00046136,NEVADA CITY,39.2466,-121.0008,847.6,2012,,,,,,,,,3990,,,,,
USR0000CKET,KETTLEMAN HILLS CALIFORNIA,36.0333,-120.0569,246.9,2012,2618,,,34,,,,107,1912,,,67.3,77.2,57.5
USR0000CSVA,SPRING VALLEY CALIFORNIA,37.5625,-122.4364,327.7,2012,,,,,,,,,3937,,,,,
USR0000CMIO,MILO CALIFORNIA,36.2314,-118.8689,586.1,2012,2413,,,32,,,,105,2363,,,65.4,74.6,56.1
USS0020L02S,Rubicon NUMBER 2,39,-120.13,2343.6,2012,55,204,,10,58,,2.2,81,7298,45.94,,45.6,53.4,37.8
USW00003144,IMPERIAL CO AIRPORT,32.83417,-115.57861,-17.7,2012,4397,0,0,32,0,0,0.91,116,1073,1.69,0,74.6,89.7,59.6
USC00046144,NEWARK,37.5147,-122.0325,3,2012,237,,,30,,,,94,2360,,,58.8,68,49.6
USC00046386,OCOTILLO WELLS 2 W,33.1552,-116.1688,118.9,2012,5831,,,33,,,1.94,121,591,4.45,,79.4,91.3,67.5
USC00046161,NEWHALL 5 NW,34.3933,-118.5938,538,2012,2215,,,33,,,2.03,109,1693,8.2,,66.6,79.8,53.3
USC00041948,COLUSA 2 SSW,39.1875,-122.0269,15.2,2012,,,,,,,,,2558,,,,,
USW00003177,CARLSBAD MCCLELLAN PALOMAR AIRPORT,33.12806,-117.27944,100,2012,712,0,,39,0,,0.95,94,1631,8.07,,62.9,69.4,56.5
USW00003179,CHINO AIRPORT,33.97528,-117.63611,198.1,2012,1728,0,,28,0,,0.48,108,1742,3.52,,65.3,81.1,49.5
USW00003178,SAN DIEGO BROWN FIELD,32.57222,-116.97944,157,2012,742,,,35,,,1.74,106,1800,8.28,,62.6,72.5,52.6
USR0000CKEE,KEENWILD CALIFORNIA,33.6667,-116.7667,1499.6,2012,1167,,,19,,,,101,3258,,,59.7,73.5,45.9
USR0000CMIL,MILL CREEK ANF CALIFORNIA,34.3903,-118.0825,1530.4,2012,1112,,,23,,,,93,3525,,,58.6,66.7,50.5
US1CAPC0001,SODA SPRINGS 1.5 SSW,39.3021,-120.3837,2099.2,2012,,238,74,,99,26,6.31,,,97.19,519.2,,,
USC00041700,CHESTER,40.3033,-121.2422,1380.7,2012,144,,,2,,,3.8,96,6470,41.69,,47.8,62.5,33.1
USW00003171,RIVERSIDE MUNICIPAL AIRPORT,33.95194,-117.43861,245.2,2012,2181,,,34,,,0.52,107,1291,4.77,,67.7,80.9,54.4
USC00045064,LOMPOC,34.6538,-120.4513,22.9,2012,72,,,27,,,1.03,92,2677,11.64,,58.3,67.9,48.8
USC00046154,NEW CUYAMA FIRE STATION,34.9455,-119.6827,658.4,2012,1319,,,17,,,1.15,110,2936,2.71,,60.7,77.1,44.4
USR0000CBSR,BIG SUR CALIFORNIA,36.2356,-121.785,137.2,2012,192,,,33,,,,99,2609,,,58.3,70.4,46.2
USR0000CMID,MID HILLS CALIFORNIA,35.1231,-115.4114,1649.9,2012,1258,,,20,,,,99,3763,,,58.7,69.2,48.1
USC00047248,RANCHO BERNARDO,33.0216,-117.0813,210.3,2012,980,,,35,,,1.54,103,1580,10.55,,63.9,74.6,53.2
USC00046399,OJAI,34.4477,-119.2275,227.1,2012,1227,,,26,,,1.89,110,,12.62,,62.2,79.3,45.1
US1CAPC0007,ROSEVILLE 4.7 WNW,38.7802,-121.3766,29.3,2012,,,,,,,1.7,,,23.25,,,,
USR0000CBRI,BRIONES CALIFORNIA,37.9442,-122.1178,442,2012,732,,,31,,,,101,3125,,,58.5,68.3,48.7
USR0000CDVR,DEVORE CALIFORNIA,34.2211,-117.4044,627,2012,1996,,,33,,,,105,1788,,,65.7,76.4,55
USC00046174,NEW MELONES DAM HQ,38.0047,-120.4863,292.6,2012,1982,,,29,,,2.52,109,2505,30.7,,63.6,76.5,50.6
USR0000CBRO,BROOKS CALIFORNIA,38.7383,-122.1447,107.9,2012,1853,,,22,,,,110,2425,,,63.6,77.5,49.7
USS0019L45S,Carson Pass,38.69,-119.99,2546,2012,2,209,,-1,81,,2.9,78,8539,44.78,,42.2,51.9,32.5
USR0000COKO,OAK OPENING CALIFORNIA,36.1753,-118.7017,987.6,2012,1855,,,25,,,,108,2941,,,62.1,75.4,48.7
USC00042805,ELSINORE,33.6692,-117.3319,391.7,2012,2389,,,32,,,0.55,112,1567,6.94,,67.7,83.2,52.2
USW00003164,CAMPO ASOS,32.6261,-116.4681,805,2012,913,0,,23,0,,0.85,103,3380,10.52,,58.9,75.9,42
USR0000CBRA,BRANCH MOUNTAIN CALIFORNIA,35.1889,-120.0833,1149.1,2012,1596,,,26,,,,103,3157,,,60.5,70.9,50.1
USW00003166,FULLERTON MUNICIPAL AIRPORT,33.87194,-117.97889,29.3,2012,1981,0,,37,0,,0.84,108,888,7.3,,68.4,78.9,58
USR0000CBRF,BEAR FLAT CALIFORNIA,41.295,-120.3133,1889.8,2012,187,,,2,,,,92,,,,46.1,59,33.3
USW00003167,HAWTHORNE MUNICIPAL AIRPORT,33.92278,-118.33417,19.2,2012,941,0,,40,0,,1.11,100,1123,8.09,,64.7,72.3,57.1
USR0000CSTO,STONYFORD CALIFORNIA,39.3669,-122.575,365.8,2012,1527,,,14,,,,109,3181,,,60.5,75.2,45.9
USC00048587,STONY GORGE RESERVOIR,39.5861,-122.5341,243.8,2012,1351,,,16,,,1.87,110,3227,21.15,,59.9,75.6,44.3
USC00046168,NEWMAN,37.2811,-121.0177,27.4,2012,,,,,,,,,1986,,,,,
USC00049452,WASCO,35.5892,-119.352,88.7,2012,,,,,,,0.79,109,,4.35,,,80.7,
US1CAAL0001,PIEDMONT 1.0 SE,37.8123,-122.216,113.4,2012,,,,,,,2.78,,,32.94,,,,
USC00041967,CONCORD WASTEWATER PLANT,37.9833,-122.0692,12.2,2012,,,,31,,,2.1,,2170,21.42,,,,50
USR0000CSRS,SANTA ROSA CALIFORNIA,38.4786,-122.7119,175.6,2012,367,,,32,,,,102,2721,,,58.4,69.2,47.6
US1CAHM0014,MIRANDA 4.1 SW,40.2093,-123.8941,164.3,2012,,,,,,,5.92,,,92.59,,,,
US1CAST0004,HOLLISTER 5.4 NNE,36.9306,-121.3704,75.3,2012,,,,,,,1.36,,,14.57,,,,
US1CAST0005,HOLLISTER 2.1 ESE,36.8422,-121.365,118.6,2012,,,,,,,1.55,,,14.76,,,,
USR0000COKG,OAK GROVE CALIFORNIA,33.3933,-116.795,838.8,2012,1362,,,24,,,,103,2435,,,62.1,77.1,47.1
US1CAKN0009,PINE MOUNTAIN CLUB 0.9 SSW,34.8353,-119.1631,1834,2012,,,13,,,10.5,1.54,,,12.91,48.9,,,
USR0000CDVA,DEL VALLE CALIFORNIA,34.4311,-118.6828,389.5,2012,1972,,,32,,,,109,1531,,,66.3,80.7,52
USR0000CBR4,BRIDGEPORT 4 NW CALIFORNIA,38.2719,-119.2892,2026.9,2012,266,,,-5,,,,93,6002,,,49.6,65.1,34
US1CAKN0001,INYOKERN 9.4 WSW,35.6345,-117.9782,1316.4,2012,,1,1,,1,1.2,0.6,,,3.64,1.6,,,
USC00046175,NEWPORT BEACH HARBOR,33.6025,-117.8803,3,2012,460,,,39,,,,86,1637,,,62,66.8,57.3
USC00048353,SONORA,37.9672,-120.3872,510.5,2012,987,,,18,,,,105,3734,,,57.9,72.9,42.8
USS0019L05S,Blue Lakes,38.61,-119.92,2455.8,2012,1,209,,-4,58,,2.2,79,,39.07,,41.7,51.8,31.5
USR0000CMET,METCALF GAP CALIFORNIA,37.4094,-119.7681,937.9,2012,2164,,,26,,,,107,2818,,,63.1,72.9,53.2
USR0000CBPI,BIG PINE FLAT CALIFORNIA,34.3194,-117.0131,2091.2,2012,277,,,8,,,,95,5181,,,52.4,68.1,36.6
US1CAHM0026,BRIDGEVILLE 5.2 ENE,40.4734,-123.7013,815.3,2012,,,,,,,6.11,,,116.52,,,,
US1CAAL0012,PLEASANTON 0.4 ESE,37.6702,-121.8814,104.9,2012,,,,,,,1.82,,,22.79,,,,
USC00041738,CHIRIACO SUMMIT,33.6617,-115.7206,520,2012,3516,,,28,,,1.57,112,1561,5.13,,70.8,85,56.5
USS0020K13S,Truckee NUMBER 2,39.3,-120.18,1983.9,2012,96,182,,6,43,,2.9,88,6661,41.34,,47.6,58.7,36.4
USR0000CSQU,SQUAW LAKE CALIFORNIA,32.9083,-114.4944,91.4,2012,5127,,,39,,,,119,683,,,77.5,90.9,64.1
USR0000CSQS,SQUAW SPRINGS CALIFORNIA,35.37,-117.5683,1103.4,2012,2593,,,28,,,,107,,,,65.9,76.3,55.5
USR0000CSRI,SANTA ROSA ISLAND CALIFORNIA,33.9778,-120.0778,395.6,2012,304,,,37,,,,96,3542,,,56.4,63.5,49.3
USR0000CSRO,SANTA ROSA PLATEAU CALIFORNIA,33.5286,-117.2306,603.5,2012,1428,,,34,,,,103,1912,,,63.9,74.5,53.2
US1CATY0003,DOUGLAS CITY 2.4 SW,40.6326,-122.9777,514.8,2012,,,,,,,2.78,,,42.79,,,,
USC00049699,WILLOWS 6 W,39.523,-122.3058,71,2012,1438,0,0,22,0,0,,107,,19.47,0,62.7,77.4,47.9
USC00048122,SHAFTER 6 E,35.4867,-119.1458,123.1,2012,1924,,,20,,,0.94,108,2646,5.32,,63.8,79.5,48.1
USR0000CMEY,MEYERS CALIFORNIA,38.8489,-120.0181,1923.3,2012,54,,,-4,,,,92,7137,,,46.4,62.1,30.6
US1CAKN0013,ONYX 2.8 ENE,35.7022,-118.1739,926.3,2012,,,,,,,0.72,,,5.14,,,,
US1CAAL0008,BERKELEY 3.8 ESE,37.8557,-122.2301,268.8,2012,,,,,,,2.15,,,31.46,,,,
USR0000COJA,OJAI CALIFORNIA,34.4483,-119.2303,233.2,2012,,,,,,,,,2299,,,,,
USC00047050,POMONA FAIRPLEX,34.0816,-117.7658,304.5,2012,,,,,,,1.36,,1564,9.17,,,,
USC00048380,SO ENTRANCE YOSEMITE N.P.,37.5122,-119.6331,1538.3,2012,213,,,14,,,2.95,92,6057,31.49,,49.1,61.6,36.6
USC00049473,WATSONVILLE WATERWORKS,36.9308,-121.7691,29,2012,97,,,28,,,1.96,102,2973,22.28,,57.4,67.9,46.9
USR0000CBOG,BOGARD RANGER STATION CALIFORNIA,40.5981,-121.0831,1722.1,2012,25,,,-15,,,,96,7793,,,43.8,61.8,25.9
US1CAHM0038,KNEELAND 0.4 NNW,40.7659,-123.9985,612,2012,,,,,,,3.71,,,72.73,,,,
US1CAHM0035,EUREKA 2.2 S,40.7642,-124.1476,59.1,2012,,,,,,,3.31,,,58.66,,,,
US1CAHM0030,GARBERVILLE 2.2 SW,40.0775,-123.8239,126.5,2012,,,,,,,4.43,,,63.56,,,,
USR0000CMEA,MEANS LAKE CALIFORNIA,34.3906,-116.5169,883.9,2012,2809,,,20,,,,112,2385,,,66.8,81.9,51.6
USC00048135,SHASTA DAM,40.7141,-122.4161,327.7,2012,2046,,,28,,,5,110,2713,73.06,,62.7,73.5,51.9
USS0019L03S,Hagan s Meadow,38.85,-119.94,2370.1,2012,0,159,,-5,47,,2.4,83,8410,33.97,,42.5,56.4,28.7
USR0000CBOO,BOONVILLE CALIFORNIA,38.9875,-123.3486,196.3,2012,374,,,26,,,,105,3333,,,57,69.6,44.4
USC00049001,TRACY PUMPING PLANT,37.7967,-121.5828,18.6,2012,1596,,,28,,,1.52,105,2229,13.24,,63.7,76,51.4
USR0000CBNL,BEN LOMOND CALIFORNIA,37.1317,-122.17,801.6,2012,993,,,30,,,,96,3583,,,57.8,65.7,49.8
USC00041758,CHULA VISTA,32.64,-117.0858,17.1,2012,733,,,34,,,1.61,100,1426,8.07,,63.6,71.3,55.8
USC00043937,HESPERIA 2 E,34.4206,-117.2661,931.2,2012,2007,0,1,22,0,1,0.53,106,2626,3.29,1.3,63.9,77.9,49.8
USC00043939,HETCH HETCHY,37.9613,-119.783,1179.6,2012,,,,,,,,,4432,,,,,
USR0000CMCG,MCGUIRES CALIFORNIA,39.3528,-123.6011,180.7,2012,116,,,25,,,,101,3824,,,54.9,66.6,43.1
USR0000CSOM,SOMES BAR CALIFORNIA,41.39,-123.4958,280.4,2012,1306,,,26,,,,115,3488,,,59.1,73.9,44.4
US1CACV0002,WALLACE 0.3 NE,38.1967,-120.9728,90.8,2012,,,,,,,1.42,,,23.76,,,,
USC00041990,COPCO NUMBER 1 DAM,41.9797,-122.3378,823.9,2012,838,,,12,,,1.79,105,5327,23.63,,53.7,68.5,38.8
USS0019L40S,Monitor Pass,38.67,-119.61,2532.9,2012,17,154,,1,46,,1.8,82,7797,21.76,,44.4,54.7,34
USR0000CMSA,MARIPOSA CALIFORNIA,37.5042,-119.9869,680,2012,1443,,,23,,,,103,3238,,,60.2,73,47.4
US1CAMD0010,HOPLAND 2.4 WNW,38.9844,-123.158,175,2012,,,,,,,4,,,47.51,,,,
USR0000COWE,OWENS CAMP LOC CALIFORNIA,38.7333,-120.245,1597.2,2012,350,,,10,,,,96,4639,,,52.6,67.1,38
USC00045449,MC CLOUD,41.2514,-122.1383,999.7,2012,,,,,,,,,,61,,,,
USR0000CKON,KONOCTI CALIFORNIA,38.9119,-122.7064,659.3,2012,1599,,,29,,,,105,3104,,,60.5,71,50.1
USR0000COWV,OWENS VALLEY CALIFORNIA,37.39,-118.5506,1414.3,2012,1843,,,15,,,,104,3479,,,60.8,75,46.7
USC00043261,FRIANT GOVERNMENT CAMP,36.9969,-119.7072,125,2012,,,,25,,,,,,,,,,49.5
USC00046773,PEARBLOSSOM,34.5025,-117.8969,945.2,2012,,,,25,,,,105,,,,65.3,76.8,53.8
US1CAMD0001,UKIAH 8.4 NW,39.2206,-123.3312,759.6,2012,,,,,,,4.11,,,56.63,,,,
US1CASR0020,LANDERS 1.6 NE,34.2828,-116.3751,900.4,2012,,,,,,,0.41,,,2.01,,,,
US1CAMD0007,UKIAH 1.2 NW,39.1583,-123.2248,227.4,2012,,,,,,,4.37,,,44.93,,,,
USR0000CKNO,KNOXVILLE CREEK CALIFORNIA,38.8619,-122.4172,670.6,2012,1301,,,18,,,,109,3224,,,59.5,73.8,45.2
USR0000CMS2,MOUNT SHASTA CALIFORNIA,41.3156,-122.3156,0,2012,469,,,10,,,,103,5401,,,51.8,65.8,37.8
US1CASR0029,RIALTO 2.1 N,34.1442,-117.381,451.7,2012,,,,,,,1.62,,,13.18,,,,
USR0000CMRK,MARKLEEVILLE CALIFORNIA,38.6833,-119.7667,1676.7,2012,385,,,3,,,,96,5739,,,50.8,65.9,35.7
USR0000CEAG,EAGLE PEAK CALIFORNIA,39.9278,-122.6569,1131.7,2012,1393,,,27,,,,98,3844,,,57.8,65.5,50.2
USC00047888,SANTA ANA FIRE STATION,33.7442,-117.8667,41.1,2012,1459,,,39,,,1.6,101,870,9.28,,66.7,76.9,56.6
USC00044374,JESS VALLEY,41.2683,-120.2947,1645.9,2012,,,,,,,0.7,,6757,14.54,,,,
USC00047643,SAINT HELENA,38.5066,-122.4713,68.6,2012,,,,,,,,,2398,,,,,
US1CAHM0009,MCKINLEYVILLE 2.3 NE,40.9778,-124.086,82.3,2012,,,,,,,3.62,,,67.15,,,,
US1CAHM0004,MCKINLEYVILLE 2.7 SE,40.9231,-124.084,99.1,2012,,,,,,,3.1,,,59.28,,,,
USR0000CMOU,MOUNTAIN REST CALIFORNIA,37.0544,-119.3711,1249.7,2012,1506,,,22,,,,100,,,,59.5,68.8,50.2
US1CAHM0003,ORICK 5.9 SSW,41.2084,-124.1027,172.8,2012,,0,0,,0,0,5.17,,,78.72,0,,,
USR0000CVAY,VALYERMO CALIFORNIA,34.4456,-117.8511,1152.1,2012,1503,,,18,,,,104,3168,,,60.8,76.8,44.7
USR0000CVAN,VAN BREMMER CALIFORNIA,41.6431,-121.7939,1502.1,2012,482,,,10,,,,96,6157,,,49.5,61.5,37.4
USR0000CVAL,VALLEY CENTER CALIFORNIA,33.2372,-117.0086,452,2012,1367,,,30,,,,103,1838,,,64,77.1,50.9
USS0019L44S,Horse Meadow,38.84,-119.89,2608.2,2012,11,174,,1,57,,1.5,79,8160,25.35,,43,52.4,33.6
USC00048758,TAHOE CITY,39.1678,-120.1428,1898.9,2012,56,,,5,,,3.11,88,,37.14,,45.3,58.4,32.1
USC00047668,SALINAS NUMBER 2,36.6594,-121.6663,13.7,2012,,,,,,,,,2882,,,,,
USR0000CBZE,BRAZIE RANCH CALIFORNIA,41.6853,-122.5942,914.4,2012,1066,,,16,,,,103,4881,,,54.8,66.1,43.4
USC00044394,JOHNSON VALLEY,34.3591,-116.5378,965.3,2012,2208,0,0,24,0,0,0.4,106,2686,1.61,0,64.2,77.1,51.2
USR0000CMOD,MODOC NWR CALIFORNIA,41.4589,-120.3536,1335,2012,225,,,-3,,,,100,6374,,,48.5,64.8,32.2
USC00046572,OXNARD WEATHER FORECAST OFFICE,34.2066,-119.1375,15.8,2012,381,,,36,,,1.62,93,1869,9.34,,61.2,70.2,52.2
USC00046336,OAKLAND MUSEUM,37.79833,-122.26417,9.1,2012,130,,,34,,,2.46,95,2327,27.06,,59,67.4,50.6
US1CASA0030,LA RIVIERA 1.0 NE,38.5753,-121.34,19.5,2012,,,,,,,1.53,,,25.9,,,,
USR0000CGAS,GASQUET CALIFORNIA,41.8458,-123.9792,152.4,2012,383,,,27,,,,106,3903,,,55.4,66.9,43.9
USS0019L43S,Forestdale Creek,38.68,-119.96,2443.6,2012,23,209,,1,86,,3.7,81,7658,55.58,,44.5,54.8,34.3
USC00043083,FIVE POINTS 5 SSW,36.3642,-120.1561,86.9,2012,2210,,,24,,,1.14,112,2415,4.57,,65.2,80.5,49.9
USS0020L06S,Echo Peak,38.85,-120.08,2337.8,2012,43,200,,8,82,,3.7,80,7272,66.16,,45.5,53.5,37.6
US1CAPC0013,NEWCASTLE 1.6 SSE,38.851,-121.123,243.8,2012,,,,,,,2.25,,,36.62,,,,
US1CAPC0014,LINCOLN 4.3 SSE,38.8423,-121.2837,52.4,2012,,,,,,,1.92,,,27.94,,,,
USC00047672,SALINAS DAM,35.3372,-120.5038,424.3,2012,1369,,,19,,,2.23,111,2636,15.43,,62.1,78.9,45.3
USC00049855,YOSEMITE PARK HEADQUARTERS,37.75,-119.5897,1224.7,2012,960,,,18,,,2.95,100,,35.6,,55.6,68.5,42.7
USR0000CMNC,MONTECITO CALIFORNIA,34.4614,-119.6481,457.2,2012,1425,,,37,,,,101,1673,,,64.4,72.2,56.5
USC00048760,TAHOMA,39.06,-120.1292,1924.8,2012,18,128,38,4,46,24.5,2.95,86,8231,39.44,220.5,43.1,55,31.2
USS0019L42S,Summit Meadow,38.4,-119.54,2838.6,2012,1,179,,-1,51,,1.9,77,8656,26.84,,41.7,50.5,32.8
USR0000CQUA,QUARTZ HILL CALIFORNIA,41.5992,-122.9336,1287.8,2012,964,,,19,,,,101,5396,,,53,63.4,42.6
USR0000CMLR,MALLORY RIDGE CALIFORNIA,37.8172,-121.7789,621.8,2012,1411,,,32,,,,102,3270,,,59.9,68,51.9
US1CASR0014,JOSHUA TREE 2.0 S,34.0973,-116.3178,1039.1,2012,,,,,,,0.66,,,3.72,,,,
USC00049866,YREKA,41.7036,-122.6408,800.1,2012,646,,,11,,,2.15,103,5514,21.31,,52.2,67.2,37.3
USC00046597,PACIFIC HOUSE,38.7583,-120.503,1051.6,2012,626,41,16,17,12,7.2,4.8,100,5031,63.43,54.9,52.9,66.5,39.3
USR0000CQUI,QUINCY RD CALIFORNIA,39.9733,-120.9419,1066.8,2012,610,,,7,,,,107,4760,,,53.9,71.6,36.2
USS0019L41S,Burnside Lake,38.72,-119.89,2477.7,2012,0,195,,-17,70,,3.3,78,9465,44.57,,39.7,53.3,26.1
USR0000COPA,OPAL MOUNTAIN CALIFORNIA,35.1542,-117.1756,987.6,2012,2639,,,28,,,,110,2335,,,66.3,78.5,54.1
USR0000CBVR,BEAVER CAMP LOC CALIFORNIA,38.4883,-120.325,1524,2012,,,,,,,,,3757,,,,,
USC00041912,COLFAX,39.0911,-120.948,725.4,2012,1556,,,24,,,5.01,108,3085,60.25,,60.4,72.8,48
US1CASR0009,APPLE VALLEY 2.6 SE,34.5043,-117.1808,896.4,2012,,,,,,,0.68,,,3.62,,,,
US1CALA0036,PASADENA 2.0 SE,34.1392,-118.1161,225.2,2012,,,,,,,1.17,,,11.18,,,,
USR0000CDIA,DIABLO GRANDE CALIFORNIA,37.3292,-121.2939,563.9,2012,1723,,,31,,,,102,2719,,,62.2,71.4,53.1
US1CABT0002,OROVILLE 2.7 ENE,39.514,-121.518,163.1,2012,,,,,,,2.52,,,36.98,,,,
US1CABT0005,OROVILLE 4.8 E,39.4932,-121.477,203.6,2012,,,,,,,3.12,,,40.64,,,,
US1CALA0031,LANCASTER 6.5 ENE,34.7184,-118.0659,721.2,2012,,,,,,,0.61,,,1.93,,,,
US1CASA0002,SACRAMENTO 8.0 NE,38.635,-121.3611,29,2012,,,,,,,1.6,,,28.42,,,,
USR0000CBEA,BEAR PEAK CALIFORNIA,35.8842,-118.0517,2507.9,2012,117,,,7,,,,82,6284,,,47.8,55.7,39.9
US1CABT0007,CHICO 1.2 NNW,39.7697,-121.8138,76.5,2012,,,,,,,2.32,,,31.13,,,,
USR0000CBDY,BRADLEY CALIFORNIA,35.8644,-120.8031,163.7,2012,1193,,,15,,,,112,2686,,,61.4,79,43.7
USR0000CJUA,JUANITA LAKE CALIFORNIA,41.7861,-122.0056,1645.9,2012,545,,,13,,,,99,6143,,,49.9,62.2,37.7
USC00041244,BUTTONWILLOW,35.4028,-119.47,68.6,2012,,,,,,,,,2205,,,,,
USR0000CBEN,BENTON CALIFORNIA,37.8431,-118.4778,1661.2,2012,782,,,2,,,,104,4852,,,54.1,72.8,35.4
USC00044997,LIVERMORE,37.6922,-121.7691,146.3,2012,947,,,25,,,1.68,105,2592,14.67,,60.8,74.4,47.3
USC00043669,GROVELAND 2,37.8444,-120.2258,853.4,2012,907,,,18,,,2.55,103,4226,38.17,,56.3,70.5,42
USR0000CWOF,WOFFORD HEIGHTS CALIFORNIA,35.7217,-118.4989,960.1,2012,1698,,,22,,,,105,3172,,,61.2,74.3,48.2
USR0000CJUN,JUNIPER CREEK CALIFORNIA,41.3322,-120.4725,1332.6,2012,366,,,0,,,,99,6205,,,49.5,64.3,34.7
USR0000CLYO,LYONS VALLEY CALIFORNIA,39.1258,-123.0736,975.4,2012,1261,,,24,,,,102,4129,,,56.8,65,48.6
USR0000CJUL,JULIAN CALIFORNIA,33.0758,-116.5908,1292.4,2012,1010,,,24,,,,97,3518,,,58.7,68.7,48.7
USR0000CLYT,LYTLE CREEK CALIFORNIA,34.2339,-117.4803,851,2012,1627,,,29,,,,109,2162,,,63.6,77.7,49.4
USC00042574,DUNSMUIR TRTMNT PLANT,41.1833,-122.2736,661.4,2012,642,36,16,15,19,19,4.89,105,4797,77.2,62.9,53.7,68.1,39.3
USR0000CSEC,SECRET TOWN CALIFORNIA,39.1836,-120.8847,861.4,2012,1213,,,21,,,,104,3611,,,58.3,71.1,45.6
USW00023213,SANTA ROSA SONOMA CO AIRPORT,38.5038,-122.8102,34.7,2012,316,,,21,,,2.77,103,2994,41.12,,57.9,72,43.8
USC00041497,CANYON DAM,40.1705,-121.0886,1389.9,2012,,,,,,,,,5940,,,,,
USC00042346,DELANO,35.7683,-119.26,92,2012,2036,,,27,,,0.78,109,2282,6.01,,65,78.5,51.6
USC00045853,MORGAN HILL,37.1363,-121.6025,114.3,2012,,,,,,,,99,,,,,73.3,
USC00041253,CACHUMA LAKE,34.5822,-119.9817,242.3,2012,816,,,23,,,1.55,109,,13.48,,61.5,79.7,43.3
USC00268186,TOPAZ LAKE,38.6944,-119.5454,1557.8,2012,1001,,2,8,,4,1.3,100,,7.28,9.6,54.9,69.2,40.6
US1CALA0014,CANYON COUNTRY 2.6 E,34.4268,-118.4275,492.9,2012,,,,,,,1.59,,,7.08,,,,
US1CALA0011,REDONDO BEACH 2.6 S,33.8192,-118.3771,35.7,2012,,,0,,,0,1.96,,,8.53,0,,,
USR0000CUHL,UHL HOT SPRINGS,35.8889,-118.6333,1133.9,2012,1348,,,22,,,,104,3447,,,59.5,72.9,46.1
US1CALA0010,WHITTIER 2.9 WNW,33.9862,-118.0664,52.1,2012,,,,,,,0.94,,,9.81,,,,
USC00046719,PASADENA,34.1483,-118.1447,263.3,2012,2110,,,39,,,1.19,106,992,12.96,,68.2,79.8,56.6
USR0000CSDC,SODA CREEK CALIFORNIA,39.425,-122.9772,540.4,2012,717,,,11,,,,110,4285,,,55.6,73.3,38
USR0000CBBR,BIG BAR CALIFORNIA,40.7333,-123.2333,457.2,2012,1271,,,20,,,,114,3853,,,58.1,72.9,43.3
USC00044534,KETTLEMAN CITY,36.0067,-119.96,73.2,2012,2257,,,22,,,0.72,109,2641,4.73,,64.7,78.8,50.6
USC00042598,EAGLE MOUNTAIN,33.8089,-115.4508,296.6,2012,4181,,,36,,,1.93,114,1155,4.59,,74,84.5,63.6
USR0000CHOR,HORSE THIEF SPRINGS CALIFORNIA,35.7706,-115.9092,1524,2012,2015,,,21,,,,104,3181,,,62.2,72.4,52.1
US1CACC0004,WALNUT CREEK 1.7 SSE,37.8783,-122.0338,74.1,2012,,,,,,,2.17,,,27.82,,,,
USR0000CDGR,DEVILS GARDEN CALIFORNIA,41.53,-120.6714,1530.7,2012,452,,,-7,,,,95,6375,,,49,61.1,37
USR0000CBCN,BELL CANYON CALIFORNIA,33.5417,-117.5917,213.4,2012,1257,,,36,,,,106,1366,,,64.7,75.1,54.4
US1CACC0001,MARTINEZ 0.8 SSE,37.9898,-122.1085,76.8,2012,,,,,,,2,,,25.87,,,,
US1CASA0015,SACRAMENTO 4.1 NE,38.6086,-121.4122,14,2012,,,,,,,1.6,,,25.19,,,,
USR0000CHOO,HOOPA CALIFORNIA,41.0478,-123.6714,114.3,2012,702,,,25,,,,107,3595,,,57.6,69.3,46
USC00045860,MORONGO VALLEY NORTH,34.0864,-116.5622,958.6,2012,2373,0,0,28,0,0,0.7,104,2220,4.31,0,66,77.3,54.7
USR0000CHOL,HORSE LAKE CALIFORNIA,40.6306,-120.5028,1554.5,2012,283,,,-7,,,,98,6616,,,48.2,64.1,32.2
USR0000CSCN,SCORPION CALIFORNIA,41.1117,-122.6967,1341.1,2012,1238,,,18,,,,107,4504,,,56,68.8,43.1
US1CASA0012,SACRAMENTO 2.0 SE,38.5499,-121.4374,10.4,2012,,,,,,,1.48,,,26.36,,,,
US1CACC0011,MARTINEZ 2.2 SW,37.9744,-122.1384,210.9,2012,,,,,,,1.99,,,29.09,,,,
USR0000CBAR,BARNABY CALIFORNIA,38.0281,-122.7022,378,2012,,,,,,,,,3238,,,,,
US1CACC0010,LAFAYETTE 1.9 WSW,37.8883,-122.1526,157.9,2012,,,,,,,2.68,,,34.37,,,,
USR0000CFIV,FIVE MILE CALIFORNIA,35.8717,-117.9183,1264.9,2012,2885,,,28,,,,106,2280,,,66.9,77,56.8
USR0000CDES,DESCANSO CALIFORNIA,32.8569,-116.6222,1060.7,2012,1189,,,23,,,,102,3005,,,60.6,76.3,44.9
USR0000CBAT,BATTERSON CALIFORNIA,37.2319,-119.5083,963.2,2012,1863,,,24,,,,105,3101,,,61.7,73.8,49.7
USR0000CYOL,YOLLA BOLLA CALIFORNIA,40.3375,-123.0656,1378.8,2012,795,,,16,,,,101,4983,,,53.2,66.4,40
USC00044303,IRVINE RANCH,33.72,-117.723,164.6,2012,1305,,,31,,,0.89,108,1361,7.05,,65.2,79.4,51.1
US1CACC0018,WALNUT CREEK 1.4 SSE,37.8846,-122.0285,84.4,2012,,,,,,,1.96,,,26.25,,,,
USC00047813,SAN JACINTO R S,33.7869,-116.9583,475.5,2012,2207,,,28,,,,110,1706,,,66.9,82.4,51.4
US1CASA0003,FOLSOM 3.4 ESE,38.6546,-121.0907,181.1,2012,,,,,,,2.23,,,35.17,,,,
US1CASA0005,CARMICHAEL 0.9 NE,38.6429,-121.3059,39.6,2012,,,,,,,1.52,,,25.97,,,,
US1CASA0007,FOLSOM 1.2 SSE,38.66,-121.1395,110.3,2012,,,,,,,2.25,,,31.96,,,,
US1CASB0004,SANTA BARBARA 1.9 NE,34.45,-119.7,247.2,2012,,,,,,,1.27,,,13.81,,,,
USW00023244,MOFFETT FEDERAL AIRFIELD,37.40583,-122.04806,11.9,2012,295,0,0,29,0,0,1.52,95,2112,13.11,0,59.8,69,50.6
USR0000CFIS,FISH CREEK MOUNTAIN CALIFORNIA,32.9903,-116.0669,231.6,2012,,,,,,,,,476,,,,,
USC00040192,ANAHEIM,33.8647,-117.8425,102.1,2012,1737,,,36,,,2,105,944,16.44,,67.4,78.5,56.4
USR0000CFIG,FIGUEROA CALIFORNIA,34.7331,-120.0067,975.4,2012,1775,,,31,,,,102,2306,,,63.4,72.8,53.9
USR0000CBAC,BACKBONE CALIFORNIA,40.8892,-123.1422,1432.6,2012,977,,,19,,,,101,4998,,,53.7,64.1,43.2
USC00043463,GLENNVILLE,35.7269,-118.7006,957.1,2012,610,,,14,,,,100,,,,55,71.3,38.8
USC00046730,PASO ROBLES,35.6277,-120.6855,222.5,2012,978,,,18,,,1.28,111,2947,12.82,,60.1,77.5,42.7
US1CALA0001,GLENDALE 2.4 WSW,34.1689,-118.2947,155.8,2012,,,0,,,0,1.36,,,9.17,0,,,
USR0000CWIL,WILEY RIDGE CALIFORNIA,34.3717,-118.8408,501.4,2012,1511,,,36,,,,100,1796,,,64.3,72.7,55.8
USW00023254,CONCORD BUCHANAN FIELD,37.9917,-122.055,5.5,2012,762,,,27,,,1.76,103,2593,19.27,,60.2,72.7,47.8
USR0000CHLD,HOPLAND CALIFORNIA,39.0308,-123.0806,817.5,2012,,,,,,,,,3520,,,,,
USW00023259,MONTEREY PENINSUL AIRPORT,36.58806,-121.84528,50.3,2012,33,0,0,29,0,0,1.95,90,3306,15.92,0,56,63.8,48.1
USR0000CSAD,SADDLEBACK BUTTE CALIFORNIA,34.6847,-117.8208,789.4,2012,,,,,,,,,2973,,,,,
USW00023258,MODESTO CITY CO AIRPORT,37.6241,-120.9505,22.3,2012,1672,,,23,,,0.9,105,2562,12.74,,63.1,76.3,49.9
USR0000CSAC,SACRAMENTO NWR CALIFORNIA,39.4172,-122.1825,36.6,2012,1588,,,25,,,,106,2430,,,62.9,75.8,50
USW00023257,MERCED MUNICIPAL AIRPORT,37.28472,-120.51278,46.3,2012,1927,0,0,21,0,0,0.9,108,2565,10.36,0,63.9,78,49.8
USC00042147,CRESCENT CITY,41.7958,-124.2147,13.1,2012,0,,,28,,,4.91,72,5003,94.47,,50.9,57.3,44.6
USC00046508,ORLEANS,41.3088,-123.5316,122.8,2012,,,,,,,,,3634,,,,,
USC00046506,ORLAND,39.7458,-122.1997,77.4,2012,1636,,,22,,,,108,2371,,,62.8,76.4,49.2
USR0000CHLR,HOLLISTER CALIFORNIA,36.8422,-121.3622,123.1,2012,372,,,24,,,,106,2801,,,58.7,71.7,45.8
USR0000CLTU,LITTLE TUJUNGA CALIFORNIA,34.2936,-118.3608,423.7,2012,1488,,,33,,,,103,1640,,,64.6,76.6,52.5
USC00045892,MOUNTAIN PASS 1 SE,35.45917,-115.53111,1456,2012,1319,6,4,18,2,2,1.62,100,4254,10.54,8,57.6,69.5,45.8
USR0000CSAU,SAUGUS CALIFORNIA,34.425,-118.525,442,2012,2076,,,32,,,,109,1593,,,66.4,79.9,52.9
USR0000CWHC,WHITE CLOUD CALIFORNIA,39.3167,-120.8375,1316.7,2012,1285,,,23,,,,101,3920,,,57.4,66.9,47.9
US1CASC0032,CAMPBELL 2.8 N,37.3185,-121.9608,42.4,2012,,,,,,,1.57,,,15.74,,,,
USW00023225,BLUE CANYON AIRPORT,39.2774,-120.7102,1608.1,2012,650,,,18,,,5.45,89,,73.85,,52.8,59.3,46.2
USR0000CLST,LAS TABLAS CALIFORNIA,35.6564,-120.9242,303,2012,853,,,16,,,,111,3262,,,58.9,77.3,40.5
USR0000CJOH,JOHNSONDALE CALIFORNIA,35.9717,-118.545,1432.6,2012,394,,,8,,,,102,5032,,,52.7,71.5,33.9
USC00043244,FREMONT,37.5422,-122.0158,11.6,2012,233,,,29,,,1.55,94,2497,14.24,,59,69,49.1
USW00023230,OAKLAND METROPOLITAN INTERNATIONAL AIRPORT,37.72139,-122.22083,1.8,2012,55,0,0,28,0,0,1.88,95,,22.94,0,57,65.6,48.4
USW00023232,SACRAMENTO EXECUTIVE AIRPORT,38.5069,-121.495,4.6,2012,1276,,,24,,,1.68,106,2641,21.16,,61.7,74.9,48.4
US1CASC0042,SUNNYVALE 3.6 S,37.3344,-122.018,51.8,2012,,,,,,,1.84,,,16.82,,,,
USW00023237,STOCKTON METROPOLITAN AIRPORT,37.8891,-121.2258,7.9,2012,1328,,,22,,,1.39,105,2744,13.57,,61.7,75.7,47.8
USW00023234,SAN FRANCISCO INTERNATIONAL AIRPORT,37.6197,-122.3647,2.4,2012,79,,,34,,,1.96,93,2899,21.46,,57.6,64.9,50.2
USW00023233,SALINAS MUNICIPAL AIRPORT,36.6636,-121.6081,22.6,2012,99,,,27,,,2.22,101,2643,13.73,,58.5,68.3,48.7
US1CASC0040,LOS GATOS 5.4 SSW,37.156,-121.9875,506.6,2012,,,,,,,3.77,,,52.58,,,,
US1CASB0001,GOLETA 3.7 WNW,34.4397,-119.8961,48.2,2012,,,,,,,1.64,,,15.2,,,,
US1CASD0071,FALLBROOK 2.3SE,33.3516,-117.2248,188.4,2012,,,,,,,1.55,,,11.24,,,,
US1CAYB0001,CHALLENGE BROWNSVILLE 1.3 WSW,39.4518,-121.2801,624.5,2012,,,,,,,6.19,,,78.12,,,,
USC00043256,FRESNO 5 NE,36.7672,-119.7092,103,2012,,,,,,,,,2009,,,,,
US1CAYB0003,MARYSVILLE 5.0 N,39.2241,-121.594,22.3,2012,,,,,,,1.83,,,23.27,,,,
USC00046521,OROVILLE,39.5177,-121.553,52.1,2012,,,,27,,,,,,,,,,49.3
USC00047851,SAN LUIS OBISPO POLY,35.3056,-120.6619,93.9,2012,402,,,23,,,2,107,2070,21.52,,60.7,73,48.5
USW00023285,LIVERMORE MUNICIPAL AIRPORT,37.6927,-121.8144,119.8,2012,920,,,23,,,1.85,106,2660,15.36,,60.6,73.7,47.5
US1CASD0057,VISTA 1.2SE,33.1862,-117.2311,153.9,2012,,,,,,,1.12,,,9.27,,,,
US1CASD0056,CARLSBAD 8.7SE,33.0946,-117.2214,184.4,2012,,,,,,,0.9,,,8.87,,,,
USC00047195,QUINCY,39.9366,-120.9475,1042.4,2012,,,,,,,,100,5716,,,,66.3,
US1CASC0011,CAMBRIAN PARK 2.2 SE,37.2341,-121.8974,76.8,2012,,,,,,,1.82,,,17.96,,,,
USR0000CSNL,SAN LUIS NWR CALIFORNIA,37.1822,-120.7939,19.8,2012,1398,,,20,,,,105,2602,,,62.1,77.4,46.8
USR0000CSNR,SANTA RITA CALIFORNIA,36.3478,-120.5978,1524,2012,1021,,,20,,,,97,4090,,,56.5,65.2,47.7
USR0000CMCB,MILL CREEK BDF CALIFORNIA,34.0836,-117.0347,899.2,2012,2065,,,30,,,,107,1916,,,65.7,79.4,52
USR0000CSOL,SOLDIER MOUNTAIN CALIFORNIA,40.9258,-121.5856,1130.8,2012,853,,,12,,,,102,5014,,,53.5,64.7,42.3
USR0000CWWO,WHITE WOLF CALIFORNIA,37.8511,-119.65,2446,2012,35,,,2,,,,84,7137,,,45.5,58,33.1
US1CASC0003,SUNNYVALE 1.9 SE,37.3647,-122.0042,25.9,2012,,,,,,,1.34,,,13.89,,,,
USC00043824,HAT CREEK,40.9316,-121.5433,919,2012,,,,,,,,,5159,,,,,
US1CASD0061,EL CAJON 2.8SE,32.7724,-116.9197,209.1,2012,,,,,,,1.17,,,8.81,,,,
US1CASD0060,SAN DIEGO 9.5 NNW,32.8428,-117.2208,86.6,2012,,,,,,,1.72,,,8.64,,,,
US1CASD0063,ESCONDIDO 7.2 SE,33.0563,-116.9925,483.1,2012,,,,,,,1.5,,,11.87,,,,
US1CASD0062,CARLSBAD 3.8SE,33.1187,-117.3044,51.2,2012,,,,,,,1.15,,,7.94,,,,
US1CASN0016,SEBASTOPOL 4.5 WSW,38.3753,-122.9035,128.9,2012,,,,,,,3.87,,,54.27,,,,
US1CASD0047,CHULA VISTA 3.1SE,32.6044,-117.0508,61,2012,,,,,,,0.76,,,6.64,,,,
US1CASN0007,SEBASTOPOL 3.7 WSW,38.3852,-122.8928,116.7,2012,,,0,,,0,3.84,,,51.59,0,,,
USR0000CMAN,MANZANITA LAKE CALIFORNIA,40.54,-121.5803,1725.2,2012,46,,,5,,,,91,7065,,,45.6,59.1,32.2
USR0000CBLD,BLUE DOOR CALIFORNIA,41.0547,-120.3375,1711.5,2012,208,,,1,,,,94,6935,,,46.9,59.5,34.3
US1CASD0049,SAN DIEGO 9 NE,32.8168,-117.0586,89,2012,,,,,,,1.6,,,9.67,,,,
USW00023293,SAN JOSE,37.3591,-121.924,15.5,2012,,,,,,,1.17,,2300,12.77,,,,
USS0020H06S,Cedar Pass,41.58,-120.3,2142.7,2012,128,195,,7,47,,1.7,85,7807,29.16,,44.4,52.6,36.2
USC00042500,DOWNIEVILLE,39.5633,-120.8238,888.5,2012,,,,,,,,,4647,,,,,
US1CASC0018,SAN JOSE 3.0 WSW,37.3086,-121.9272,48.5,2012,,,,,,,1.39,,,15.36,,,,
USR0000CBLT,BEN BOLT CALIFORNIA,38.5908,-120.9336,275.8,2012,1514,,,24,,,,108,2962,,,61.3,74.9,47.7
US1CASC0012,SAN JOSE 3.5 ENE,37.319,-121.7887,61,2012,,,,,,,1.03,,,15.12,,,,
US1CASC0015,SARATOGA 0.5 N,37.2748,-122.0227,113.7,2012,,,,,,,2.16,,,24.97,,,,
US1CASN0001,ROHNERT PARK 1.6 WNW,38.3522,-122.7274,28.3,2012,,,,,,,2.86,,,33.11,,,,
USC00048045,SCOTIA,40.48306,-124.10361,41.5,2012,23,,,30,,,3.7,92,3313,56.04,,55.5,63.6,47.4
USW00093138,PALM SPRINGS REGIONAL AIRPORT,33.8222,-116.5043,124.7,2012,4669,0,0,33,0,0,0.6,119,789,2,0,75.9,89.5,62.3
US1CASD0054,DESCANSO 0.3 WNW,32.8538,-116.6212,1049.1,2012,,,,,,,2.28,,,18.39,,,,
USS0019L08S,Leavitt Meadows,38.3,-119.55,2194,2012,16,123,,-11,35,,3.7,86,7374,35.16,,45.7,60,31.3
US1CASD0053,SAN DIEGO COUNTRY ESTATES 1.5,33.0158,-116.8068,449.3,2012,,,,,,,1.41,,,12.78,,,,
US1CASD0052,POWAY 4.7NNW,33.0261,-117.0466,225.2,2012,,,,,,,1.12,,,9.1,,,,
USC00049152,U C L A,34.0697,-118.4427,131.1,2012,906,0,0,39,0,0,1.02,98,1171,10.44,0,64.2,72,56.4
USR0000CBKD,BLACK DIAMOND CALIFORNIA,37.95,-121.8844,487.7,2012,1102,,,33,,,,103,3145,,,59.5,67.3,51.7
USR0000CDOG,DOG VALLEY CALIFORNIA,39.5619,-120.0478,1821.5,2012,240,,,-4,,,,100,6729,,,48,65,31.1
US1CASD0035,RANCHO BERNARDO 0.8SE,33.0179,-117.0625,147.2,2012,,,,,,,1.16,,,10.72,,,,
US1CASD0034,CARLSBAD 2.2SE,33.1427,-117.3206,6.7,2012,,,,,,,1.36,,,8.09,,,,
US1CASD0039,VISTA 1.5NNW,33.2192,-117.2536,127.1,2012,,,,,,,0.9,,,9.41,,,,
USC00041428,CAMP PARDEE,38.2486,-120.8433,200.6,2012,,,,,,,,,2585,,,,,
USC00041424,CAMPO,32.6263,-116.4699,801.6,2012,972,,,22,,,1.83,106,3040,13.85,,59.8,78.4,41.2
USR0000CMAD,MAD RIVER CALIFORNIA,40.4633,-123.5239,845.8,2012,438,,,19,,,,104,4690,,,53,66.5,39.6
USR0000CSMI,SAN MIGUEL CALIFORNIA,32.685,-116.9736,129.5,2012,1067,,,40,,,,106,1276,,,64.6,73.8,55.5
USR0000CDOY,DOYLE CALIFORNIA,40.0222,-120.1056,1292.4,2012,893,,,4,,,,103,5100,,,54.1,69.5,38.7
USS0019L07S,Sonora Pass,38.31,-119.6,2690.5,2012,1,199,,-3,67,,2,80,8546,35.16,,42.2,52.4,31.9
USC00040332,ARVIN,35.2111,-118.8336,137.2,2012,,,,26,,,0.7,112,,5.01,,66.5,80.3,52.7
US1CASD0025,PAUMA VALLEY 1.7 SE,33.2905,-116.9568,345,2012,,,,,,,1.27,,,13.38,,,,
US1CASD0024,CHULA VISTA 2.5SE,32.6168,-117.0519,81.1,2012,,,,,,,0.88,,,8.65,,,,
USW00023273,SANTA MARIA PUBLIC AIRPORT,34.8994,-120.4486,73.8,2012,111,,,27,,,1.18,100,2735,10.93,,58.2,69.7,46.7
US1CASD0023,CARDIFF BY THE SEA 0.2 E,33.0267,-117.2712,81.1,2012,,,,,,,1.1,,,7.7,,,,
USR0000CFRE,FREMONT CANYON CALIFORNIA,33.8081,-117.7111,542.8,2012,1565,,,38,,,,102,1516,,,65,73.6,56.3
USW00023275,UKIAH MUNICIPAL AIRPORT,39.12583,-123.20083,183.2,2012,948,0,,20,0,,2.81,107,3214,41.2,,59.1,74,44.3
US1CASD0029,SAN DIEGO 7.9NE,32.8057,-117.0732,73.8,2012,,,,,,,1.05,,,8.66,,,,
US1CASD0028,SANTEE 1.8NW,32.8562,-116.9961,143.3,2012,,,,,,,1.33,,,10.66,,,,
USR0000COCR,OAK CREEK CALIFORNIA,36.8425,-118.2594,1479.8,2012,1984,,,20,,,,102,3248,,,61.9,73.1,50.7
USW00023272,SAN FRANCISCO DOWNTOWN,37.7705,-122.4269,45.7,2012,59,,,40,,,1.47,94,2975,25.49,,56.8,62.9,50.7
US1CASD0026,FALLBROOK 6.5 NE,33.4363,-117.1603,419.7,2012,,,,,,,1.48,,,12.42,,,,
USR0000CFRI,FRIEND MOUNTAIN CALIFORNIA,40.505,-123.3417,1219.2,2012,710,,,16,,,,102,5214,,,52.3,63.8,40.8
USW00023271,SACRAMENTO 5 ESE,38.5552,-121.4183,11.6,2012,1621,,0,28,,0,1.79,107,2299,22.67,0,63.5,76.3,50.7
USW00023277,WATSONVILLE MUNICIPAL AIRPORT,36.93583,-121.78861,48.8,2012,,0,0,,0,0,2.07,,,22.63,0,,,
USC00043855,HAYFIELD PUMP PLANT,33.7044,-115.6289,417.6,2012,3587,,,25,,,1.4,113,1571,4.75,,71.3,87.5,55.1
US1CAMA0001,OAKHURST 7.5 N,37.4415,-119.6316,1302.7,2012,,,23,,,14.7,5.9,,,53.15,91.4,,,
US1CAMA0002,RAYMOND 6.8 NE,37.2717,-119.802,549.2,2012,,,,,,,2.8,,,24.95,,,,
USS0019L06S,Poison Flat,38.51,-119.63,2357.9,2012,0,180,,-6,47,,2.5,81,8542,31.36,,42.5,55.5,29.4
USR0000CDNK,DINKEY CALIFORNIA,37.0664,-119.0394,1727.6,2012,95,,,3,,,,91,6481,,,47.9,63.7,32.1
USR0000CSLA,SLATER BUTTE CALIFORNIA,41.8586,-123.3525,1423.4,2012,788,,,17,,,,101,5911,,,50.7,60.6,40.9
US1CASD0030,LA JOLLA 2.1 SE,32.8257,-117.2501,149.7,2012,,,,,,,1.34,,,10.11,,,,
US1CASD0014,BORREGO SPRINGS 2.4 WSW,33.2225,-116.3904,236.8,2012,,,0,,,0,0.66,,,3.87,0,,,
US1CASD0013,JAMUL 9.9ESE,32.6802,-116.7061,834.2,2012,,,,,,,2.14,,,18.2,,,,
US1CASD0012,POWAY 3.2NE,32.9956,-117.0044,367.6,2012,,,,,,,1.18,,,11.46,,,,
USR0000CDMC,DEMOCRAT CALIFORNIA,35.5317,-118.6303,718.1,2012,,,,,,,,,2331,,,,,
US1CASD0011,ENCINITAS 2.7N,33.0757,-117.292,57.3,2012,,,0,,,0,0.69,,,5.24,0,,,
USW00093110,OXNARD VENTURA CO AIRPORT,34.20083,-119.20694,11,2012,,,,,,,1.56,,1886,9.5,,,,
US1CASD0015,LA JOLLA 2.5SE,32.8254,-117.2397,154.8,2012,,,,,,,1.6,,,9.92,,,,
USW00093112,NORTH ISLAND NAS,32.7,-117.2,7.9,2012,1085,,,40,,,1.3,93,780,7.53,,65.9,72.8,59.1
US1CASD0019,OCEANSIDE 5.6NE,33.2539,-117.3127,18.3,2012,,,,,,,1.13,,,10.89,,,,
US1CASM0014,BELMONT 0.7 WSW,37.5104,-122.3057,146.9,2012,,0,0,,0,0,2.11,,,25.34,0,,,
USR0000CBIR,BIG ROCK CALIFORNIA,38.0394,-122.57,457.2,2012,523,,,37,,,,100,3077,,,57.9,66.6,49.2
USC00044712,LAKE SOLANO,38.492,-122.0039,57,2012,1461,,,23,,,2.12,106,2577,29.98,,62.3,76.7,47.9
USR0000CBIP,BIG PINES CALIFORNIA,34.3789,-117.6919,2108.3,2012,550,,,11,,,,92,4528,,,54.4,65.3,43.5
USC00045802,MONTEREY NWSFO,36.5927,-121.8555,37.2,2012,20,,,30,,,1.88,88,3713,16.25,,55.1,62.1,48.1
USC00044957,LINDSAY,36.2032,-119.0545,132.6,2012,,,,,,,,,2783,,,,,
USW00093104,CHINA LAKE NAF,35.6875,-117.6931,679.7,2012,,,,,,,0.19,,,1,,,,
USW00093107,SAN DIEGO MIRAMAR NAS,32.86667,-117.13333,145.4,2012,990,,,35,,,0.66,109,1550,7.73,,63.8,74.7,53
USR0000CHUR,HURLEY CALIFORNIA,37.0153,-119.5678,366.1,2012,1457,,,18,,,,108,3454,,,60.1,75.9,44.3
US1CASD0003,IMPERIAL BEACH 3.3 E,32.5738,-117.0625,42.1,2012,,,,,,,1.16,,,6.34,,,,
USC00049185,UPPER SAN LEANDRO FILTERS,37.7719,-122.1675,120.1,2012,,,,,,,2.43,,,27.43,,,,
USS0020H02S,Crowder Flat,41.89,-120.75,1575.8,2012,,76,,,18,,1.3,,7153,18.75,,,,
US1CASD0001,SAN MARCOS 2.5 ENE,33.1472,-117.1316,203,2012,,,,,,,1.2,,,11.13,,,,
USR0000CSIV,SIMI VALLEY CALIFORNIA,34.2911,-118.8144,278.6,2012,,,,,,,,,1609,,,,,
US1CASD0006,EL CAJON 2.3ENE,32.8112,-116.9254,185.9,2012,,,,,,,1.16,,,8.78,,,,
US1CASD0004,OCEANSIDE 8.4NE,33.27,-117.2663,76.8,2012,,,,,,,1.37,,,10.7,,,,
US1CASM0001,PACIFICA 0.3 W,37.6121,-122.4825,69.2,2012,,,0,,,0,2.12,,,31.31,0,,,
US1CASD0009,EL CAJON 1.5WSW,32.7907,-116.987,221.6,2012,,,,,,,1.17,,,8.9,,,,
US1CASD0008,ESCONDIDO 5.2NNW,33.1852,-117.1282,449.3,2012,,,,,,,1.15,,,11.22,,,,
US1CASM0006,FOSTER CITY 1.3 SW,37.5488,-122.2587,2.1,2012,,,,,,,1.38,,,20.52,,,,
USR0000CYUR,YUROK CALIFORNIA,41.2897,-123.8575,150.9,2012,556,,,28,,,,107,3582,,,56.9,69.1,44.8
USR0000CUND,UNDERWOOD CALIFORNIA,40.7219,-123.4953,792.5,2012,775,,,22,,,,106,4451,,,54.7,67.5,42
US1CASM0007,HALF MOON BAY 0.5 SSW,37.463,-122.4408,16.5,2012,,0,0,,0,0,1.92,,,29.33,0,,,
USC00041697,CHERRY VALLEY DAM,37.9747,-119.9161,1452.4,2012,,,,,,,,,4498,,,,,
US1CASD0010,ESCONDIDO 2.5 SSE,33.1055,-117.0482,210.3,2012,,,,,,,1.18,,,11.04,,,,
US1CASN0049,SEBASTOPOL 1.1 SSE,38.3842,-122.8191,51.2,2012,,,,,,,3.16,,,33.26,,,,
USR0000CSHQ,SHADEQUARTER CALIFORNIA,36.5672,-118.9556,1240.2,2012,1518,,,23,,,,98,3457,,,59.4,67.4,51.5
USS0020K30S,Squaw Valley G.C.,39.19,-120.26,2447.2,2012,16,213,,6,98,,4.2,76,8037,70.37,,43.5,50.3,36.7
USW00093134,LOS ANGELES DOWNTOWN USC,34.0236,-118.2911,54.6,2012,1269,,,39,,,0.91,103,1254,8.17,,65.5,74.8,56.2
USC00042319,DEATH VALLEY,36.4622,-116.8669,-59.1,2012,6243,0,0,29,0,0,0.49,128,1054,1.67,0,79.6,94,65.3
USR0000CWPK,WHITAKER PEAK CALIFORNIA,34.5686,-118.7403,1255.8,2012,1672,,,27,,,,101,2985,,,61.6,70.9,52.2
USR0000CFOU,FOUNTAIN SPRINGS CALIFORNIA,35.8922,-118.915,64,2012,1949,,,24,,,,109,2647,,,63.7,78.1,49.2
USR0000CFOR,FORESTHILL CALIFORNIA,39.0914,-120.7317,1327.4,2012,1067,,,22,,,,98,3923,,,56.9,67.6,46.1
USR0000CBGR,BANGOR CALIFORNIA,39.3975,-121.3861,244.8,2012,1684,,,24,,,,108,2673,,,62.4,74.4,50.3
USC00040379,AUBERRY 2 NW,37.0919,-119.5128,637,2012,1969,,,26,,,3.45,105,3024,26.13,,62.5,73.6,51.3
USC00040136,ALPINE,32.8358,-116.7774,516.6,2012,1277,,,31,,,1.56,100,2047,13.78,,63.1,75.6,50.6
USR0000CYUC,YUCCA VALLEY CALIFORNIA,34.1233,-116.4078,993.6,2012,2116,,,19,,,,106,2723,,,63.9,77.9,50
USC00043882,HEARST CASTLE,35.6841,-121.1683,465.1,2012,836,,,34,,,2.65,98,,28.07,,60.1,68.7,51.5
US1CASN0028,SANTA ROSA 3.1 NW,38.4789,-122.744,42.7,2012,,,,,,,3.31,,,42.07,,,,
US1CASN0029,CLOVERDALE 3.2 ESE,38.781,-122.963,242.9,2012,,,,,,,3.98,,,46.49,,,,
USS0020K31S,Css Lab,39.33,-120.37,2089.4,2012,23,201,,6,83,,4.4,82,7395,73.98,,45.3,55.7,34.9
USR0000CBEV,BEVERLY HILLS CALIFORNIA,34.125,-118.4122,384,2012,2219,,,36,,,,112,894,,,68.6,82.6,54.5
USR0000CWOL,WOLVERTON CALIFORNIA,36.445,-118.7033,1597.2,2012,1316,,,19,,,,100,,,,58.7,70.5,46.8
USR0000CBEU,BEAUMONT CALIFORNIA,33.9306,-116.95,793.7,2012,1950,,,29,,,,105,2158,,,64.8,77.6,52.1
USR0000CWOO,WOODACRE CALIFORNIA,37.9906,-122.6447,426.7,2012,679,,,31,,,,102,,,,58,68.3,47.6
USR0000CSHA,SHAVER CALIFORNIA,37.135,-119.2561,1751.4,2012,152,,,6,,,,92,6218,,,48.9,64.1,33.7
USC00044500,KENTFIELD,37.9566,-122.5447,44.2,2012,,,,29,,,4.17,,,57.5,,,,47
USC00043417,GILROY,37.003,-121.5608,59.1,2012,742,,,20,,,3.3,104,2163,23.06,,60.9,74.8,47
US1CASN0023,WINDSOR 1.4 SE,38.5317,-122.78,42.7,2012,,,,,,,3.79,,,42.79,,,,
US1CANV0014,LAKE OF THE PINES 1.0 WSW,39.0322,-121.0774,480.4,2012,,,,,,,2.56,,,46.63,,,,
USR0000CLHO,LOST HORSE CALIFORNIA,34.0178,-116.1878,1280.2,2012,1509,,,17,,,,102,3294,,,60.7,74.6,46.7
USS0020K04S,Independence Camp,39.45,-120.29,2134.5,2012,8,147,,0,44,,2.8,84,7893,32.15,,44.1,55.7,32.6
USR0000CASC,ASH CREEK CALIFORNIA,41.2769,-121.9794,975.4,2012,106,,,1,,,,102,6432,,,48,66.1,29.9
USR0000CASH,ASH VALLEY CALIFORNIA,41.0519,-120.6861,1554.5,2012,106,,,-11,,,,97,6871,,,46.5,62.7,30.4
US1CASN0090,FORESTVILLE 0.7 SW,38.4733,-122.8974,61.3,2012,,,,,,,4.55,,,57.61,,,,
USR0000CRUS,RUSH CREEK CALIFORNIA,41.2944,-120.8639,1463,2012,630,,,14,,,,94,6088,,,50.2,59.5,40.8
US1CASL0001,SANTA MARGARITA 8.9 ESE,35.3805,-120.4525,611.1,2012,,,,,,,1.81,,,13.85,,,,
USC00049781,WOODLAND 1 WNW,38.6829,-121.794,20.4,2012,1604,,,24,,,2.38,106,2351,24.41,,63.4,76.4,50.3
USS0020K05S,Independence Lake,39.43,-120.31,2545.7,2012,42,240,,6,103,,3.1,80,8222,54.06,,43.2,50.7,35.6
USR0000CPOP,POPPY PARK CALIFORNIA,34.7325,-118.3833,841.2,2012,,,,,,,,,2723,,,,,
USR0000CPOT,POTRERO CALIFORNIA,32.6058,-116.6089,714.8,2012,1087,,,27,,,,102,2824,,,60.7,76.1,45.4
US1CASN0080,GLEN ELLEN 1.5 N,38.3778,-122.5343,102.7,2012,,,,,,,5.2,,,53.06,,,,
US1CASN0088,OCCIDENTAL 2.8 SW,38.3653,-122.9738,187.1,2012,,,,,,,3.28,,,50.99,,,,
USC00046263,NORTHRIDGE CAL STATE,34.2447,-118.525,275.5,2012,,,,,,,1.91,,,10.31,,,,
USC00047111,POWAY VALLEY,33.0175,-117.0292,197.5,2012,1284,,,26,,,1.64,102,1594,10.44,,64.6,76.9,52.3
US1CASZ0006,BOULDER CREEK 3.6 NE,37.1811,-122.0911,525.5,2012,,,,,,,2.85,,,36.66,,,,
US1CASZ0009,APTOS 2.6 E,36.9961,-121.8536,116.7,2012,,,,,,,2.53,,,32.39,,,,
US1CAED0010,PLACERVILLE 0.8 NE,38.7387,-120.7846,612.6,2012,,,1,,,2.5,2.41,,,43.07,3,,,
US1CASN0071,ROHNERT PARK 0.9 SW,38.3392,-122.7113,29.3,2012,,,,,,,2.84,,,36.22,,,,
USR0000CRSP,ROSE PEAK CALIFORNIA,37.5019,-121.7355,932.7,2012,1021,,,26,,,,95,3938,,,56.8,63.7,49.8
USC00049785,WOODLAND HILLS PIERCE COLLEGE,34.1819,-118.5744,240.8,2012,2001,,,29,,,1.5,109,,9.82,,66.7,82.4,51.1
USR0000CLGA,LOS GATOS CALIFORNIA,37.2028,-121.9428,609.6,2012,942,,,30,,,,99,2837,,,59.6,69.4,49.8
USR0000CJAR,JARBO GAP CALIFORNIA,39.7358,-121.4889,759,2012,1618,,,23,,,,104,3410,,,59.8,69.2,50.3
US1CASM0022,WOODSIDE 3.4 S,37.3754,-122.2637,485.2,2012,,,,,,,5.7,,,69.32,,,,
USC00041838,CLOVERDALE,38.8,-123.0175,100.6,2012,1035,,,25,,,,109,,,,61.5,76.4,46.6
USR0000CLEO,LEO CARRILLO CALIFORNIA,34.0456,-118.9358,15.2,2012,444,,,40,,,,91,1677,,,62,70.1,54
USC00040741,BIG BEAR LAKE,34.243,-116.917,2058.3,2012,68,34,11,8,16,16,,89,5966,11.68,58.5,49.4,64.4,34.3
USC00040983,BORREGO DESERT PARK,33.2559,-116.4036,246.9,2012,4476,,,33,,,0.75,116,,3.63,,75.2,89.6,60.9
USR0000CPNN,PINNACLES CALIFORNIA,36.4708,-121.1472,402.9,2012,1395,,,22,,,,114,2414,,,62.4,79.9,44.8
US1CASN0063,WINDSOR 0.6 NNE,38.5534,-122.7929,47.9,2012,,,,,,,4.22,,,48.07,,,,
USR0000CAPT,ALDER POINT CALIFORNIA,40.1867,-123.5903,281.3,2012,573,,,22,,,,107,3766,,,56.4,68.2,44.7
USW00093193,FRESNO YOSEMITE INTERNATIONAL,36.78,-119.7194,101.5,2012,2599,0,0,28,0,0,1.51,111,2245,9.99,0,66.7,79.4,54.1
US1CASZ0024,FELTON 4.5 NNE,37.1051,-122.0468,255.4,2012,,,,,,,4.98,,,58.85,,,,
USR0000CLDR,LADDER BUTTE CALIFORNIA,40.8072,-121.2967,1752.6,2012,498,,,12,,,,90,5983,,,49.7,59.3,40.1
USW00093197,SANTA MONICA MUNICIPAL AIRPORT,34.01583,-118.45139,53,2012,634,0,,40,0,,0.99,96,1564,8.39,,62.9,70.6,55.3
US1CASZ0021,BOULDER CREEK 3.0 NW,37.1693,-122.1641,266.7,2012,,,,,,,4.58,,,60.36,,,,
USR0000CCSH,CASHMAN CALIFORNIA,40.0017,-120.915,1377.7,2012,1003,,,14,,,,105,4668,,,55,69.6,40.3
US1CASK0002,YREKA 4.5 S,41.6651,-122.6208,895.2,2012,,,,,,,2.34,,,21.8,,,,
US1CASK0009,FORKS OF SALMON 1.0 NW,41.2688,-123.3336,507.2,2012,,,,,,,3.18,,,56.79,,,,
USC00042934,FAIRFIELD,38.2736,-122.0677,12.2,2012,,,,,,,,107,2518,,,,74,
USC00049325,VICTORVILLE PUMP PLANT,34.5349,-117.3058,871.1,2012,2193,,,19,,,0.99,112,2896,4.44,,64,79.8,48.2
USS0019L17S,Lobdell Lake,38.44,-119.37,2814.2,2012,2,134,,-8,50,,2.3,80,8961,23.66,,41,52.3,29.6
USW00093184,SANTA ANA JOHN WAYNE AIRPORT,33.68,-117.86639,16.5,2012,1289,0,,38,0,,0.79,102,1139,6.91,,65.8,74.1,57.5
USC00046074,NAPA STATE HOSPITAL,38.2777,-122.2647,10.7,2012,553,,,23,,,2.23,101,2512,32.15,,59.9,72.9,46.9
USR0000CCRN,CORNING CALIFORNIA,39.9389,-122.1697,89.6,2012,1848,,,16,,,,112,2693,,,63,76.1,49.8
USS0020L10S,Fallen Leaf,38.93,-120.05,1900.7,2012,,127,,,30,,4,,7497,41.35,,,,
USC00042706,EL CAJON,32.8005,-116.928,150.9,2012,1388,,,31,,,1.31,103,1460,9.37,,65.2,77.5,53
USR0000CCRA,CRANE FLAT LOOKOUT CALIFORNIA,37.7617,-119.8247,2025.1,2012,427,,,14,,,,88,5239,,,51.5,59.8,43.1
USS0020K25S,Ward Creek NUMBER 3,39.14,-120.22,2028.4,2012,3,202,,2,77,,5.7,84,7701,81.18,,44.6,57.8,31.4
USR0000CROU,ROUND MOUNTAIN,41.4272,-121.4639,1602.6,2012,610,,,11,,,,95,6325,,,49.3,59.4,39.2
USR0000CPKR,PARK RIDGE CALIFORNIA,36.7242,-118.9425,2298.2,2012,253,,,12,,,,85,5366,,,50.4,59.1,41.8
USR0000CCRE,CRESTVIEW CALIFORNIA,37.745,-118.9833,2316.5,2012,17,,,-14,,,,90,7718,,,44.7,63.3,26.2
USR0000CROS,ROSE VALLEY CALIFORNIA,34.5431,-119.1842,1015.3,2012,476,,,11,,,,102,4112,,,55.4,75.8,35.1
USR0000CCRZ,CRAZY PEAK CALIFORNIA,41.9919,-123.6036,1210.1,2012,372,,,18,,,,94,5614,,,50.4,60.5,40.4
USC00040521,BARSTOW,34.8927,-117.0219,676.7,2012,2833,0,0,22,0,0,0.47,111,2538,2.41,0,66.5,80.9,52.2
USC00042941,FAIRMONT,34.705,-118.4297,932.7,2012,2073,,,24,,,1.37,105,,8.27,,63.7,75.8,51.6
USR0000CANZ,ANZA CALIFORNIA,33.555,-116.673,1194.8,2012,932,,,20,,,,100,3572,,,58.2,72.7,43.8
USC00041614,CEDARVILLE,41.5301,-120.1791,1428.9,2012,730,,,-1,,,,102,6041,,,50.8,66.3,35.4
US1CASF0004,SAN FRANCISCO 1.1 SW,37.765,-122.4348,59.1,2012,,,,,,,1.93,,,30,,,,
USR0000CCRR,CARPENTER RIDGE CALIFORNIA,40.0686,-121.5825,1466.7,2012,876,,,19,,,,96,,,,53.6,62.2,45
USR0000CCRT,CRANSTON CALIFORNIA,33.7403,-116.8414,594.4,2012,2386,,,32,,,,111,1595,,,67.5,83.7,51.2
USC00049111,TWITCHELL DAM,34.988,-120.3211,177.4,2012,549,,,27,,,,104,1750,,,61.8,74.6,49
USR0000CNFO,NORTH FORK CALIFORNIA,37.2331,-119.5047,829.1,2012,,,,,,,,,3137,,,,,
USC00042713,EL CENTRO 2 SSW,32.7669,-115.5617,-9.1,2012,,,,,,,0.38,118,854,1.23,,,90,
US1CAMP0004,CATHEYS VALLEY 1.2 S,37.4152,-120.0998,357.2,2012,,,,,,,1.8,,,23.09,,,,
USS0019L39S,Spratt Creek,38.67,-119.82,1863.9,2012,152,89,,4,23,,3.5,91,6298,31.96,,48.9,62,35.7
US1CAMP0002,MARIPOSA 12.5 E,37.4613,-119.7417,899.8,2012,,,,,,,2.99,,,33.89,,,,
USC00049102,TWENTYNINE PALMS 12 E WONDER VALLEY,34.1206,-115.85,419.4,2012,3937,0,0,22,0,0,1.02,116,1741,3.98,0,71.7,86.5,56.9
USR0000CROD,RODEO VALLEY,39.6681,-123.3211,740.1,2012,452,,,21,,,,100,4179,,,53.7,65.6,41.8
USR0000CROC,ROCK CREEK,37.5514,-118.6672,2145.8,2012,253,,,-6,,,,94,5828,,,49.9,65.9,34
USR0000CLAP,LA PANZA CALIFORNIA,35.3811,-120.1875,496.8,2012,1078,,,10,,,,109,3560,,,58.8,77.2,40.4
USR0000CALD,ALDER SPRINGS CALIFORNIA,39.6514,-122.7236,1310.6,2012,1065,,,22,,,,97,4355,,,55.7,64.8,46.5
USR0000CLAU,LAUFMAN CALIFORNIA,40.1417,-120.3533,1767.8,2012,759,,,7,,,,101,5504,,,52.5,66.9,38.1
USC00048273,SKYLINE RIDGE,37.3133,-122.185,691.9,2012,718,,,27,,,4.43,95,3739,51.74,,56,65,47.1
USR0000CLAS,LASSEN LODGE CALIFORNIA,40.3442,-121.7136,1267.7,2012,1386,,,18,,,,105,4134,,,57.2,68.3,46
USS0019L13S,Virginia Lakes Ridge,38.07,-119.23,2878.8,2012,10,162,,-2,54,,2,78,8299,25.06,,42.8,52.3,33.2
USW00094299,ALTURAS MUNICIPAL AIRPORT,41.49139,-120.56444,1333.5,2012,210,,,-6,,,1.18,99,6728,10.28,,47.5,64.7,30.3
USR0000CLAR,LAURAL MOUNTAIN CALIFORNIA,35.4783,-117.6989,1338.1,2012,2307,,,26,,,,104,2888,,,63.9,73.6,54.1
USS0020K27S,Tahoe City Cross,39.17,-120.15,2071.7,2012,43,131,,9,44,,3.2,84,6934,44.78,,46.6,57.4,35.9
USR0000CLAH,LA HONDA CALIFORNIA,37.3053,-122.255,265.8,2012,139,,,28,,,,101,3450,,,55.9,67.5,44.2
USR0000CPIL,PILOT HILL CALIFORNIA,38.8325,-121.0086,365.8,2012,1282,,,21,,,,105,3159,,,60,73.1,46.8
USR0000CPIK,PIKE CO LOOKOUT CALIFORNIA,39.475,-121.2025,1132,2012,1221,,,25,,,,96,3732,,,57.6,66.3,49
USS0020K03S,Independence Creek,39.49,-120.28,1967.8,2012,8,161,,-4,29,,3.2,87,7838,34.76,,44.1,58.8,29.5
USR0000CTRI,TRINITY CAMP CALIFORNIA,40.7864,-122.8045,1008.3,2012,895,,,18,,,,100,5018,,,53.6,63.9,43.4
USR0000CALT,LOS ALTOS CALIFORNIA,37.3581,-122.1472,196.6,2012,451,,,32,,,,103,2554,,,59.4,71.5,47.3
USR0000CTRM,TRIMMER CALIFORNIA,36.9111,-119.305,469.4,2012,2185,,,26,,,,110,2683,,,63.9,77.1,50.7
USR0000CLAY,LAYTONVILLE CALIFORNIA,39.7022,-123.485,554.7,2012,739,,,19,,,,108,3938,,,56.2,70.9,41.5
USR0000CTRA,LAS TRAMPAS CALIFORNIA,37.8339,-122.0669,536.4,2012,924,,,31,,,,103,3417,,,58.3,67.2,49.4
USS0019L38S,Leavitt Lake,38.28,-119.61,2931.3,2012,0,222,,-1,135,,4,72,8942,56.57,,41,48.4,33.6
USR0000CALP,ALPINE CALIFORNIA,32.8336,-116.7392,622.1,2012,1645,,,30,,,,105,1729,,,64.9,80.4,49.5
USW00053139,STOVEPIPE WELLS 1 SW,36.602,-117.1449,25.6,2012,5783,,,32,,,0.29,124,1167,1.03,,78.1,90.3,65.8
USC00046657,PALOMAR MOUNTAIN OBSVTRY,33.378,-116.84,1691.6,2012,952,16,11,20,10,10,2,92,3380,22.22,37.5,58.1,67.1,49.1
USR0000CFEN,FENCE MEADOW CALIFORNIA,36.9614,-119.175,1538.6,2012,1437,,,19,,,,101,,,,58.3,67.7,49
USC00042294,DAVIS 2 WSW EXPERIMENTAL FARM,38.5349,-121.7761,18.3,2012,1186,,,21,,,1.75,105,2582,21.59,,61.5,75.4,47.6
USC00046896,PINE FLAT DAM,36.821,-119.3374,187.5,2012,,,,,,,,,2519,,,,,
USC00044232,INDEPENDENCE,36.798,-118.2036,1204,2012,2500,,,15,,,1.32,111,2967,3.52,,64.1,80.6,47.6
USR0000CHIG,HIGH SIERRA CALIFORNIA,37.3147,-119.0383,2256.4,2012,154,,,4,,,,90,6270,,,48.5,62.4,34.5
USR0000CWEE,WEED AIRPORT CALIFORNIA,41.4789,-122.4539,893.1,2012,772,,,13,,,,102,5233,,,53.3,65.9,40.7
USC00048606,STRAWBERRY VALLEY,39.563,-121.1077,1160.7,2012,,,,,,,,,4976,,,,,
USW00053150,YOSEMITE VILLAGE 12 W,37.7592,-119.8208,2017.8,2012,394,,,13,,,3.7,86,5703,47.01,,50.5,57.4,43.6
USW00053151,FALLBROOK 5 NE,33.4392,-117.1904,347.5,2012,1514,,,35,,,1.25,107,1413,11.57,,65.5,77.6,53.4
USW00053152,SANTA BARBARA 11 W,34.4141,-119.8796,5.5,2012,66,,,33,,,1.44,90,2897,13.53,,58,66.8,49.2
USC00044484,KELSEY 1 N,38.8088,-120.8208,609.6,2012,,,,,,,,,,46.28,,,,
USR0000CWES,WESTWOOD CALIFORNIA,40.3067,-120.9,1767.8,2012,447,,,10,,,,92,6381,,,48.9,58.3,39.5
USC00044259,INDIO FIRE STATION,33.7086,-116.2152,-6.4,2012,4757,,,35,,,0.55,117,855,1.83,,76.3,88.3,64.2
USC00047767,SAN FRANCISCO OCEANSIDE,37.728,-122.5052,2.4,2012,,,,31,,,,82,3781,,,54.2,59.5,48.9
USR0000CLOP,LOS PRIETOS CALIFORNIA,34.5358,-119.7833,310.9,2012,1416,,,29,,,,113,1876,,,63.9,81.7,46.1
USC00043161,FORT BRAGG 5 N,39.5091,-123.7566,37.5,2012,0,,,29,,,3.06,79,,46.49,,51.3,58.8,43.8
USC00045100,LORAINE 5 NNE,35.3836,-118.4122,1290.8,2012,895,,,17,,,1.6,99,,8.85,,57.3,70.6,44.1
US1CASJ0010,STOCKTON 0.7 E,37.9692,-121.2934,4.9,2012,,,,,,,1.25,,,12.67,,,,
USC00045360,MARKLEY COVE,38.4916,-122.1241,146.3,2012,1248,,,22,,,3.52,109,2795,36.93,,61.1,76.4,45.8
USR0000CFAN,FANCHER CREEK CALIFORNIA,36.8839,-119.4658,280.4,2012,2692,,,33,,,,110,2015,,,67.1,77.9,56.2
USR0000CHER,HERNANDEZ CALIFORNIA,36.3825,-120.8558,1137.8,2012,1492,,,24,,,,101,3300,,,59.6,68.4,50.9
USC00045118,LOS BANOS,37.0563,-120.8666,36.6,2012,,,,25,,,0.62,,,6.57,,,,51.3
US1CASJ0004,STOCKTON 5.8 NNE,38.0381,-121.2547,10.7,2012,,,,,,,1.49,,,17.18,,,,
US1CASJ0005,LODI 1.0 NNW,38.136,-121.3044,13.1,2012,,,,,,,1.66,,,20.37,,,,
US1CASJ0006,STOCKTON 3.3 SE,37.9417,-121.2585,7,2012,,,,,,,1.62,,,15.05,,,,
USC00047776,SAN GABRIEL CANYON PH,34.1553,-117.9078,226.8,2012,2700,,,38,,,1.77,112,926,15.69,,69.9,84.2,55.7
USC00046685,PARADISE,39.7538,-121.6241,533.4,2012,,,,,,,4.73,,2624,65.26,,,,
US1CASJ0001,LINDEN 5.8 ENE,38.0627,-121.0079,44.5,2012,,,,,,,1.78,,,20.24,,,,
USC00047306,REDLANDS,34.037,-117.1948,429.8,2012,2194,,,31,,,1.78,109,1503,9.02,,67.2,81.8,52.5
US1CARV0005,HEMET 4.1 ENE,33.7527,-116.9196,517.6,2012,,,,,,,0.8,,,8.11,,,,
USR0000CHEL,HELL HOLE CALIFORNIA,39.0717,-120.4217,1597.2,2012,639,,,15,,,,97,4853,,,53.3,64.5,42.1
US1CARV0008,CORONA 12.8 SE,33.7307,-117.4276,427.9,2012,,,,,,,1.4,,,8.71,,,,
US1CARV0002,IDYLLWILD 1.8 NW,33.7631,-116.735,1927.9,2012,,,,,,,2.12,,,23.38,,,,
USC00046699,PARKER RESERVOIR,34.2903,-114.1708,224.9,2012,,,,,,,1.24,,,3.88,,,,
USR0000CWAL,WALKER PASS CALIFORNIA,35.6647,-118.0569,1698.3,2012,1556,,,18,,,,104,3520,,,59.8,73.6,46.1
USR0000CWAK,WALKER CALIFORNIA,38.5653,-119.4592,1658.1,2012,1102,,,8,,,,99,,,,55.9,68.5,43.4
USC00045378,MARTINEZ WATER PLANT,38.0131,-122.1142,12.2,2012,,,,,,,,,2962,,,,,
USR0000CWAR,WARM SPRINGS CALIFORNIA,34.5958,-118.5786,1502.7,2012,1781,,,27,,,,103,2921,,,62,72.1,51.9
USW00053119,HANFORD MUNICIPAL AIRPORT,36.31889,-119.62889,75.9,2012,1976,0,0,19,0,0,1.39,107,2687,6.59,0,63.7,78.7,48.6
USC00040931,BOCA,39.3886,-120.0936,1699.3,2012,45,64,27,-10,23,16,2.03,95,7687,25.55,108.3,44.9,64.2,25.5
USR0000CLKL,LOWER KLAMATH CALIFORNIA,41.9992,-121.7003,1249.1,2012,130,,,6,,,,95,6798,,,47.2,61.7,32.8
USW00053120,RAMONA AIRPORT,33.0375,-116.91583,424.6,2012,999,0,,22,0,,1.03,104,2625,10.6,,61,77.4,44.6
USW00053121,OCEANSIDE MUNICIPAL AIRPORT,33.21944,-117.34944,8.5,2012,581,0,,29,0,,0.85,93,2213,8.87,,61.2,71.8,50.6
US1CARV0020,NORCO 2.3 SE,33.9059,-117.5178,332.5,2012,,,,,,,0.65,,,5.72,,,,
USC00049742,WINTERS,38.5252,-121.9777,41.1,2012,1662,,,23,,,,107,2235,,,63.6,77.5,49.7
USR0000CHAS,HASTINGS CALIFORNIA,36.3886,-121.5517,574.5,2012,784,,,27,,,,101,,,,58.6,70.3,46.8
USR0000CHAY,HAYFORK CALIFORNIA,40.55,-123.165,708.1,2012,516,,,10,,,,109,4811,,,53.5,70.4,36.5
USR0000CHAW,HAWKEYE CALIFORNIA,38.7817,-122.9169,609.6,2012,1081,,,28,,,,97,3169,,,58.8,66.6,51.1
USR0000CLIN,LINCOLN CALIFORNIA,38.8825,-121.2683,61,2012,1622,,,19,,,,109,2751,,,62.4,76.5,48.3
USR0000CRUT,RUTH CALIFORNIA,40.2506,-123.3158,832.7,2012,384,,,12,,,,107,4484,,,53.4,70.2,36.6
USR0000CJER,JERSEYDALE CALIFORNIA,37.5436,-119.8386,1188.7,2012,1623,,,21,,,,106,3469,,,59.8,72.7,46.8
USC00047339,REDWOOD CITY,37.4767,-122.2386,9.4,2012,362,,,29,,,2.31,100,2624,25.18,,59.1,70.3,48
US1CARV0017,PERRIS 8.5 WNW,33.8262,-117.365,499.6,2012,,,,,,,0.8,,,5.99,,,,
USC00040943,BODIE CALIFORNIA STATE HISTORIC PARK,38.2119,-119.0142,2551.2,2012,,,,-21,,,,,,,,,,21.3
USR0000CPRD,PANOCHE ROAD CALIFORNIA,36.7269,-120.7658,619.4,2012,2051,,,33,,,,101,2599,,,63.6,70.6,56.6
US1CARV0015,NORCO 1.2 S,33.908,-117.548,201.5,2012,,,,,,,0.76,,,5.59,,,,
USC00046006,MOUNT WILSON CBS,34.2308,-118.0711,1740.4,2012,1108,,,20,,,3.69,96,,25.26,,59.1,69.5,48.6
