STATION,NAME,LATITUDE,LONGITUDE,ELEVATION,DATE,CDSD,CDSD_ATTRIBUTES,DSND,DSND_ATTRIBUTES,DSNW,DSNW_ATTRIBUTES,EMNT,EMNT_ATTRIBUTES,EMSD,EMSD_ATTRIBUTES,EMSN,EMSN_ATTRIBUTES,EMXP,EMXP_ATTRIBUTES,EMXT,EMXT_ATTRIBUTES,HDSD,HDSD_ATTRIBUTES,PRCP,PRCP_ATTRIBUTES,SNOW,SNOW_ATTRIBUTES,TAVG,TAVG_ATTRIBUTES,TMAX,TMAX_ATTRIBUTES,TMIN,TMIN_ATTRIBUTES
USR0000CTHO,THOMES CREEK CALIFORNIA,39.8644,-122.6097,317.0,2012,2445,,,,,,28,U,0117,,,,,,,,110,U,0813,,2415,,,,,,64.9,U,75.1,U,54.8,U
USC00049099,TWENTYNINE PALMS,34.128,-116.0369,602.0,2012,,,,,,,,,,,,,,,,,1616,,,,,,,,,,,
USR0000CRDR,READER RANCH CALIFORNIA,39.3036,-121.1172,599.8,2012,1539,,,,,,24,U,0117,,,,,,,,106,U,0811,,3076,,,,,,60.7,U,72.7,U,48.8,U
USR0000CTHS,THOUSAND OAKS CALIFORNIA,34.21,-118.87,242.3,2012,,,,,,,,,,,,,,,,,1830,,,,,,,,,,,
USR0000CABS,ARBUCKLE BASIN CALIFORNIA,40.3983,-122.8333,579.1,2012,1654,,,,,,27,U,0116,,,,,,,,105,U,0813,,3475,,,,,,59.6,U,67.9,U,51.4,U
USC00047902,SANTA BARBARA,34.4167,-119.6844,1.5,2012,425,,,,,,36,7,1220,,,,,,1.77,,7,0411,,92,7,1002,+,,,13.46,,7,,,61.8,7,70.4,7,53.1,7
USC00042214,CULVER CITY,34.005,-118.4139,28.0,2012,670,,,,,,30,7,1215,+,,,,,1.10,,7,0413,,97,7,0915,,,,8.86,,7,,,62.9,7,71.6,7,54.2,7
USR0000CGOR,GORDON CALIFORNIA,40.7586,-120.8961,1889.8,2012,161,,,,,,2,U,0116,,,,,,,,93,U,0804,,6930,,,,,,46.4,U,60.0,U,32.9,U
USR0000CREA,REDDING AIRPORT CALIFORNIA,40.5158,-122.2906,152.4,2012,1917,,,,,,17,U,0117,,,,,,,,114,U,0813,,2780,,,,,,62.6,U,76.5,U,48.6,U
US1CAMT0008,KING CITY 2.0 SSW,36.1872,-121.1461,113.1,2012,,,,,,,,,,,,,1.01,,N,0317,,,,,,11.87,,N,,,,,,,,
US1CAMT0006,CASTROVILLE 1.6 ENE,36.7764,-121.7284,5.5,2012,,,,,,,,,,,,,1.65,,N,1201,,,,,,16.96,,N,,,,,,,,
US1CAMT0005,KING CITY 13.2 S,36.0249,-121.1745,336.5,2012,,,,,,,,,,,,,1.20,,N,0121,,,,,,14.35,,N,,,,,,,,
USR0000CGOO,GOOSE VALLEY CALIFORNIA,33.0736,-116.8458,466.3,2012,1331,,,,,,27,U,0118,,,,,,,,107,U,1001,,1943,,,,,,63.6,U,80.0,U,47.2,U
US1CAMT0003,LOCKWOOD 3.6 NW,35.9808,-121.1174,360.0,2012,,,,,,,,,,,,,0.88,,N,0121,,,,,,11.24,,N,,,,,,,,
US1CAMT0002,CARMEL VALLEY VILLAGE 0.8 SSW,36.4757,-121.7285,109.4,2012,,,,,0,N,,,,,0.0,,N,1231,+,2.34,,N,1201,,,,,,19.81,,N,0.0,,N,,,,,,
USR0000CRCH,RANCHITA CALIFORNIA,33.2222,-116.4975,1345.7,2012,1526,,,,,,25,U,1219,,,,,,,,99,U,0710,,3108,,,,,,61.2,U,71.0,U,51.4,U
USC00042467,DONNER MEMORIAL ST PARK,39.3239,-120.2331,1809.6,2012,67,,,,,,0,7,0302,,,,,,4.05,,7,0316,,92,7,0811,,7665,,44.07,,7,,,44.7,7,60.1,7,29.3,7
USC00044405,JOSHUA TREE,34.1471,-116.2747,781.2,2012,2941,,0,,0,7,24,7,1220,,0,,7,1231,+,0.0,T,7,1219,+,0.83,,7,0823,,112,7,0711,,2177,,2.49,,7,0.0,T,7,67.7,7,82.1,7,53.2,7
USC00047916,SANTA CRUZ,36.9905,-121.9911,39.6,2012,99,,,,,,26,7,0117,,,,,,,,101,7,1002,,2863,,,,,,58.0,7,69.4,7,46.5,7
USC00046826,PETALUMA AIRPORT,38.2577,-122.6077,6.1,2012,226,,,,,,22,7,0117,,,,,,2.03,,7,1130,,100,7,1002,,3056,,28.26,,7,,,57.6,7,70.4,7,44.8,7
USC00044881,LEE VINING,37.9567,-119.1194,2071.7,2012,424,,36,,15,7,7,7,1219,,23,,7,1226,,10.5,,7,0317,,1.79,,7,0121,,94,7,0712,,5750,,11.43,,7,66.2,,7,51.1,7,64.9,7,37.3,7
USW00093210,OROVILLE MUNICIPAL AIRPORT,39.49,-121.61833,57.9,2012,,,,,,,,,,,,,,,,,2692,,,,,,,,,,,
US1CAMT0023,BIG SUR 9.5 NNW,36.398,-121.8685,335.3,2012,,,,,,,,,,,,,5.68,,N,1201,,,,,,41.69,,N,,,,,,,,
USW00093209,PASO ROBLES MUNICIPAL AIRPORT,35.6697,-120.6283,246.9,2012,1109,,,,,,17,X,0117,,,,,,1.47,,X,0317,,110,X,0810,+,2781,,9.09,,X,,,60.9,X,78.1,X,43.7,X
US1CAMT0022,CARMEL VALLEY VILLAGE 5.4 WNW,36.5218,-121.81,40.5,2012,,,,,,,,,,,,,1.79,,N,1201,,,,,,19.52,,N,,,,,,,,
USC00044412,JULIAN CDF,33.0763,-116.5925,1284.7,2012,1035,,,,,,24,7,1219,,,,,,1.53,,7,0414,,97,7,0812,+,3422,,18.06,,7,,,59.0,7,68.8,7,49.3,7
USC00042239,CUYAMACA,32.9897,-116.5872,1414.3,2012,607,,,,,,15,7,1231,,,,,,1.32,,7,1214,,98,7,0811,+,4447,,23.08,,7,,,55.3,7,69.0,7,41.7,7
USC00044890,LEMON COVE,36.3817,-119.0264,156.4,2012,2064,,,,,,28,7,0117,,,,,,1.11,,7,0317,,110,7,0812,,2433,,13.78,,7,,,64.6,7,80.0,7,49.2,7
USC00045983,MOUNT SHASTA,41.3218,-122.3173,1102.5,2012,322,,,,,,9,7,1231,+,,,,,3.70,,7,1202,,99,7,0813,,5456,,51.98,,7,,,51.1,7,65.4,7,36.8,7
USW00093205,MARYSVILLE YUBA CO AIRPORT,39.1019,-121.5677,18.9,2012,1570,,,,,,19,X,0117,,,,,,1.64,,X,1130,,107,X,0813,+,2650,,24.73,,X,,,62.5,X,76.2,X,48.8,X
USW00093206,SAN LUIS OBISPO MCCHESNEY FIELD,35.23722,-120.64139,61.0,2012,259,,0,,,,28,W,0118,,0,,W,1231,+,,,1.80,,W,0123,,104,W,1001,,2194,,16.14,,W,,,59.9,W,71.8,W,47.9,W
USS0020H12S,Dismal Swamp,41.99,-120.18,2243.3,2012,11,,211,,,,2,T,0226,,78,,T,0405,,,,1.50,,T,1202,,83,T,0812,,9287,,46.65,,T,,,40.4,T,50.1,T,30.6,T
USC00047933,SANTA MARGARITA BOOST,35.3741,-120.6375,349.9,2012,1075,,,,,,20,7,0118,,,,,,3.75,,7,0121,,112,7,0807,,2433,,27.61,,7,,,61.6,7,77.9,7,45.3,7
USC00043578,GRATON,38.4305,-122.8647,61.0,2012,234,,,,,,20,7,0117,,,,,,3.80,,7,0121,,106,7,1003,,2984,,49.63,,7,,,57.5,7,74.0,7,41.0,7
US1CASH0010,REDDING 7.9 NNE,40.6721,-122.2913,207.6,2012,,,,,,,,,,,,,5.16,,N,1121,,,,,,55.76,,N,,,,,,,,
USC00043573,GRASS VALLEY NUMBER 2,39.2041,-121.068,731.5,2012,821,,,,,,19,7,0117,,,,,,4.19,,7,0121,,99,7,0814,+,4020,,73.91,,7,,,56.5,7,68.8,7,44.1,7
USR0000CRAV,RAVENDALE CALIFORNIA,40.7308,-120.3164,1614.8,2012,349,,,,,,-9,U,1231,,,,,,,,97,U,0814,+,6399,,,,,,48.8,U,63.5,U,34.0,U
USC00044422,JUNCAL DAM,34.4908,-119.5069,688.8,2012,,,,,,,,,,,,,2.06,,7,0317,,,,,,18.61,,7,,,,,,,,
USR0000CCDG,CEDAR GROVE CALIFORNIA,36.7878,-118.6561,1438.7,2012,,,,,,,,,,,,,,,,,4717,,,,,,,,,,,
USW00024216,RED BLUFF MUNICIPAL AIRPORT,40.1519,-122.2536,107.6,2012,1983,,,,,,18,X,0117,,,,,,1.85,,X,0120,,112,X,0813,,2630,,25.57,,X,,,63.4,X,76.7,X,50.2,X
USW00023129,LONG BEACH DAUGHERTY FIELD,33.8116,-118.1463,9.4,2012,1324,,,,,,36,X,1231,,,,,,0.98,,X,1224,,104,X,0914,,1284,,8.22,,X,,,65.6,X,75.0,X,56.2,X
USW00024215,MOUNT SHASTA,41.3325,-122.33278,1077.5,2012,370,,,,,,10,W,0117,,,,,,3.89,,W,1129,,99,W,0813,+,5547,,44.21,,W,,,51.0,W,64.6,W,37.5,W
USW00024213,EUREKA WEATHER FORECAST OFFICE WOODLEY ISLAND,40.8097,-124.1602,6.1,2012,0,,0,,0,X,30,X,0307,+,0,,X,1231,+,0.0,T,X,1222,+,2.26,,X,0119,,74,X,1001,,4909,,50.83,,X,0.0,T,X,51.7,X,57.8,X,45.5,X
US1CAYL0001,DAVIS 1.2 SE,38.5425,-121.721,11.0,2012,,,,,,,,,,,,,1.49,,N,1222,,,,,,23.89,,N,,,,,,,,
US1CAYL0002,DAVIS 0.8 NE,38.5618,-121.7241,12.5,2012,,,,,,,,,,,,,1.43,,N,1222,,,,,,21.94,,N,,,,,,,,
US1CAYL0007,DAVIS 6.1 WNW,38.578,-121.8453,25.3,2012,,,,,,,,,,,,,1.70,,N,1130,,,,,,20.92,,N,,,,,,,,
US1CAYL0009,DAVIS 2.7 W,38.5523,-121.7855,17.4,2012,,,,,,,,,,,,,1.83,,N,1202,,,,,,21.93,,N,,,,,,,,
USR0000CTE2,TEMESCAL LPF CALIFORNIA,34.4806,-118.7556,347.5,2012,1583,,,,,,31,U,1221,,,,,,,,106,U,1001,+,1797,,,,,,64.5,U,79.3,U,49.8,U
USC00042012,CORCORAN IRRIGATION DIST.,36.0975,-119.5817,61.0,2012,2101,,,,,,24,7,0117,,,,,,0.91,,7,0316,,108,7,0617,,2543,,5.32,,7,,,64.5,7,78.9,7,50.1,7
USW00023130,VAN NUYS AIRPORT,34.20972,-118.48917,234.7,2012,1856,,,,,,32,W,1221,,,,,,1.29,,W,0325,,106,W,0809,+,1444,,9.49,,W,,,66.5,W,78.9,W,54.1,W
USR0000COZE,OZENA CALIFORNIA,34.6819,-119.3539,1118.6,2012,,,,,,,,,,,,,,,112,U,0711,,,,,,,,,,78.2,U,,
USR0000CIND,INDIAN WELL CALIFORNIA,41.7417,-121.5383,1453.9,2012,491,,,,,,9,U,1231,,,,,,,,97,U,0812,,5958,,,,,,49.7,U,61.9,U,37.6,U
USR0000CCAR,CARRIZO CALIFORNIA,35.0964,-119.7728,759.0,2012,1988,,,,,,31,U,0307,+,,,,,,,105,U,0812,,2473,,,,,,63.7,U,74.7,U,52.6,U
USR0000CCAT,CATHEYS VALLEY CALIFORNIA,37.4681,-120.1106,365.8,2012,2118,,,,,,30,U,0117,+,,,,,,,107,U,0811,,2546,,,,,,64.0,U,74.7,U,53.2,U
USW00023136,CAMARILLO AIRPORT,34.21667,-119.08333,23.5,2012,364,,0,,,,35,W,1231,+,0,,W,1231,+,,,1.53,,W,0325,,98,W,1105,,1780,,8.40,,W,,,61.2,W,70.9,W,51.4,W
USC00043357,GASQUET RANGER STATION,41.8452,-123.9647,118.0,2012,,,,,,,,,,,,,6.39,,7,0119,,,,,,124.15,,7,,,,,,,,
USC00046624,PALMDALE,34.5883,-118.0938,796.1,2012,2421,,0,,,,22,7,1221,+,0,,7,1231,+,,,0.64,,7,0317,,108,7,0809,+,2536,,2.89,,7,,,65.2,7,80.1,7,50.4,7
US1CAOR0027,IRVINE 4.1 NNE,33.7183,-117.7721,46.3,2012,,,,,,,,,,,,,0.85,,N,0414,,,,,,7.88,,N,,,,,,,,
US1CAOR0021,ANAHEIM 4.9 ENE,33.8632,-117.7918,90.8,2012,,,,,,,,,,,,,0.87,,N,1213,,,,,,7.71,,N,,,,,,,,
USR0000CMTZ,MOUNT ZION CALIFORNIA,38.3894,-120.6511,902.2,2012,1751,,,,,,27,U,0319,,,,,,,,102,U,0811,,3179,,,,,,60.8,U,69.3,U,52.3,U
US1CAOR0029,ANAHEIM 4.9 E,33.847,-117.7871,114.0,2012,,,,,,,,,,,,,1.02,,N,0318,,,,,,8.17,,N,,,,,,,,
USR0000CEEL,EEL RIVER CALIFORNIA,39.8333,-123.0833,457.2,2012,1204,,,,,,17,U,0116,,,,,,,,114,U,0813,,3557,,,,,,58.7,U,75.8,U,41.7,U
USR0000CCAN,CANBY CALIFORNIA,41.4342,-120.8678,1314.3,2012,340,,,,,,-5,U,1231,,,,,,,,101,U,0814,+,6226,,,,,,49.2,U,66.3,U,32.2,U
USR0000CCAM,CAMERON FIRE STATION CALIFORNI,32.7214,-116.4631,1049.4,2012,911,,,,,,20,U,0220,,,,,,,,103,U,0810,+,,,,,,,58.7,U,76.4,U,40.9,U
USR0000CCAL,CALLAHAN CALIFORNIA,41.3075,-122.7958,955.9,2012,931,,,,,,16,U,0116,,,,,,,,106,U,0813,,5069,,,,,,53.9,U,66.9,U,40.8,U
USR0000CCAA,CAHUILLA CALIFORNIA,32.9736,-115.1736,84.7,2012,4963,,,,,,38,U,1221,,,,,,,,118,U,0813,+,644,,,,,,77.1,U,90.8,U,63.3,U
USR0000CEEC,EEL RIVER CAMP CALIFORNIA,40.1383,-123.8236,135.9,2012,407,,,,,,26,U,0117,+,,,,,,,109,U,0813,,3567,,,,,,56.8,U,69.7,U,44.0,U
USC00044211,IDYLLWILD FIRE DEPARTMENT,33.7572,-116.7066,1639.8,2012,525,,,,10,7,14,7,1231,,,,10.0,,7,0228,,1.62,,7,0812,+,94,7,0809,+,,,18.93,,7,37.1,,7,55.3,7,69.5,7,41.2,7
USW00023110,LEMOORE REEVES NAS,36.33333,-119.95,70.7,2012,,,,,,,,,,,,,0.87,,W,0317,,,,,,5.02,,W,,,,,,,,
USR0000CMTD,MOUNT DIABLO CALIFORNIA,37.8817,-121.9142,1173.2,2012,881,,,,,,25,U,0319,+,,,,,,,91,U,0813,+,,,,,,,54.8,U,60.2,U,49.4,U
USC00046646,PALO ALTO,37.4436,-122.1402,7.6,2012,223,,,,,,27,7,1213,,,,,,1.80,,7,1224,,98,7,0617,,2701,,16.34,,7,,,57.7,7,69.2,7,46.2,7
USR0000CGHP,GRASSHOPPER CALIFORNIA,40.7817,-120.7844,1877.0,2012,174,,,,,,2,U,0116,,,,,,,,92,U,0813,+,7255,,,,,,46.1,U,58.9,U,33.2,U
USC00041194,BURBANK VALLEY PUMP,34.1866,-118.348,199.6,2012,1383,,,,,,32,7,0307,,,,,,1.77,,7,0325,,105,7,1001,,,,9.62,,7,,,64.7,7,77.4,7,51.9,7
USC00044223,IMPERIAL,32.8488,-115.5666,-19.5,2012,3453,,,,,,25,7,1222,,,,,,1.22,,7,0730,,116,7,0601,,1461,,2.29,,7,,,70.9,7,90.3,7,51.5,7
USC00045795,MONTEREY,36.5902,-121.9102,117.3,2012,77,,,,,,33,7,0118,,,,,,,,100,7,1002,,3439,,,,,,55.5,7,62.9,7,48.1,7
USR0000CCOL,COLLINS BALDY CALIFORNIA,41.775,-122.9503,1674.3,2012,439,,,,,,14,U,0116,,,,,,,,93,U,0813,,6523,,,,,,48.1,U,56.6,U,39.7,U
US1CASU0005,SUTTER 0.3 W,39.1596,-121.7511,22.3,2012,,,,,,,,,,,,,1.76,,N,1222,,,,,,23.57,,N,,,,,,,,
USC00049490,WEAVERVILLE,40.7367,-122.9404,627.3,2012,644,,,,,,13,7,0117,,,,,,2.51,,7,1202,,106,7,0813,,4695,,47.63,,7,,,54.3,7,69.7,7,39.0,7
US1CAOR0001,ORANGE 3.5 ENE,33.8291,-117.77,247.2,2012,,,,,,,,,,,,,1.11,,N,0318,,,,,,8.62,,N,,,,,,,,
USW00023161,DAGGETT AIRPORT,34.8536,-116.7858,584.3,2012,3439,,,,,,23,X,1220,,,,,,0.24,,X,1213,,114,X,0711,,2098,,1.30,,X,,,69.3,X,83.8,X,54.8,X
USR0000CPHI,PINE HILLS CALIFORNIA,33.0164,-116.6339,0.0,2012,1122,,,,,,26,U,1231,,,,,,,,99,U,0809,+,,,,,,,60.3,U,72.6,U,47.9,U
US1CAOR0006,SILVERADO 1.0 ESE,33.7455,-117.6199,424.9,2012,,,,,,,,,,,,,2.76,,N,0318,,,,,,15.04,,N,,,,,,,,
USW00024259,MONTAGUE SISKIYOU AIRPORT,41.78139,-122.46806,808.0,2012,602,,,,,,7,W,0117,,,,,,0.97,,W,1202,,104,W,0814,+,5524,,12.27,,W,,,52.3,W,67.3,W,37.3,W
USW00024257,REDDING MUNICIPAL AIRPORT,40.5175,-122.2986,151.5,2012,1913,,,,,,16,X,0117,,,,,,2.43,,X,0120,,112,X,0813,,2872,,36.45,,X,,,62.4,X,75.8,X,49.1,X
USR0000CCP9,CAMP 9 CALIFORNIA,34.3617,-118.4217,1219.2,2012,1615,,,,,,27,U,1219,,,,,,,,100,U,0809,,2773,,,,,,61.6,U,70.5,U,52.8,U
USR0000CPIE,PIERCE CALIFORNIA,40.2461,-120.6422,1737.4,2012,303,,,,,,6,U,1231,,,,,,,,92,U,0811,,6036,,,,,,49.4,U,60.7,U,38.2,U
USC00040673,BEN LOMOND NUMBER 4,37.0855,-122.0797,128.0,2012,683,,,,,,23,7,0117,,,,,,,,112,7,1002,,2131,,,,,,61.2,7,78.5,7,44.0,7
USR0000CCOU,CO LINE CALIFORNIA,39.0189,-122.4119,635.5,2012,,,,,,,,,,,,,,,,,2961,,,,,,,,,,,
USR0000CPIH,PINEHURST CALIFORNIA,36.6853,-119.0,1237.5,2012,,,,,,,,,,,,,,,,,3458,,,,,,,,,,,
USC00040436,BAKER,35.27611,-116.06278,293.2,2012,4072,,0,,0,7,23,7,0113,,0,,7,1231,+,0.0,,7,1231,+,1.20,,7,0715,,119,7,0711,,1943,,4.44,,7,0.0,,7,71.7,7,87.4,7,56.0,7
USR0000CLAB,LOS BANOS CALIFORNIA,37.0547,-121.0531,106.7,2012,1888,,,,,,31,U,0117,,,,,,,,104,U,0814,+,2088,,,,,,64.8,U,75.5,U,54.2,U
USR0000CCOO,COOSKIE MOUNTAIN CALIFORNIA,40.2569,-124.2661,899.2,2012,525,,,,,,25,U,0116,,,,,,,,100,U,1001,+,5000,,,,,,52.2,U,60.4,U,44.1,U
USR0000CESP,ESPERANZA CALIFORNIA,38.2428,-120.515,780.0,2012,1225,,,,,,21,U,0117,,,,,,,,105,U,0811,,3578,,,,,,58.5,U,71.3,U,45.8,U
USR0000CCOR,CORRALITOS CALIFORNIA,36.9911,-121.7978,137.2,2012,159,,,,,,27,U,0116,,,,,,,,104,U,1002,,3035,,,,,,57.6,U,70.2,U,44.9,U
USW00023174,LOS ANGELES INTERNATIONAL AIRPORT,33.938,-118.3888,29.6,2012,702,,,,,,41,X,1231,+,,,,,1.42,,X,1224,,98,X,0915,,1465,,8.91,,X,,,63.4,X,70.0,X,56.8,X
USR0000CTOM,MOUNT TOM CALIFORNIA,37.3761,-119.1783,2748.7,2012,23,,,,,,1,U,0307,,,,,,,,79,U,0809,,,,,,,,44.6,U,52.9,U,36.2,U
USW00023179,NEEDLES AIRPORT,34.7675,-114.6188,271.3,2012,5121,,,,,,34,X,1227,,,,,,0.91,,X,0714,,120,X,0710,,1029,,4.23,,X,,,76.5,X,89.1,X,64.0,X
US1CAOR0017,MISSION VIEJO 1.6 ENE,33.6239,-117.6275,310.3,2012,,,,,0,N,,,,,0.0,,N,1231,+,1.35,,N,0318,,,,,,11.72,,N,0.0,,N,,,,,,
US1CAOR0019,MISSION VIEJO 1.3 SSE,33.5954,-117.6442,214.6,2012,,,,,,,,,,,,,1.31,,N,0318,,,,,,10.99,,N,,,,,,,,
USC00042863,ESCONDIDO NUMBER 2,33.121,-117.09,182.9,2012,1395,,,,,,33,7,1231,,,,,,1.73,,7,1213,,103,7,0914,,1410,,11.01,,7,,,65.3,7,76.5,7,54.0,7
USC00043710,HAIWEE,36.1388,-117.9527,1165.9,2012,2387,,,,,,19,Z,1222,+,,,,,0.64,,Z,0124,,113,Z,0712,,2893,,2.18,,Z,,,64.6,Z,80.9,Z,48.3,Z
USC00041534,CARMEL VALLEY,36.4805,-121.7244,146.3,2012,193,,,,,,25,7,0117,,,,,,,,104,7,1001,,2993,,,,,,57.5,7,71.0,7,44.0,7
USC00043714,HALF MOON BAY,37.4725,-122.44333,8.2,2012,2,,,,,,28,7,0117,,,,,,1.69,,7,1130,,82,7,1018,,3983,,25.93,,7,,,54.4,7,62.3,7,46.5,7
US1CAFR0005,TOLLHOUSE 6.2 SSE,36.9342,-119.3586,425.8,2012,,,,,,,,,,,,,3.14,,N,0121,,,,,,26.01,,N,,,,,,,,
US1CAFR0003,TOLLHOUSE 2.0 SSE,36.9897,-119.3971,509.9,2012,,,,,,,,,,,,,3.47,,N,0121,,,,,,25.37,,N,,,,,,,,
USS0019L19S,Ebbetts Pass,38.55,-119.8,2671.6,2012,,,190,,,,,,70,,T,1226,,,,3.40,,T,1202,+,,,,,57.37,,T,,,,,,,,
USC00040212,ANGWIN PAC UNION COL,38.573,-122.4405,522.7,2012,571,,,,,,24,7,0117,,,,,,,,98,7,0616,,3448,,,,,,57.2,7,68.7,7,45.6,7
USC00049026,TRINITY RIVER HATCHERY,40.7263,-122.7947,567.2,2012,784,,15,,11,7,16,7,0117,,10,,7,1221,,6.0,,7,1221,,2.08,,7,1202,,108,7,0814,,4552,,37.44,,7,27.6,,7,55.2,7,70.2,7,40.2,7
USC00040693,BERKELEY,37.8744,-122.2605,94.5,2012,,,,,,,,,,,,,,,,,2717,,,,,,,,,,,
USR0000CCMO,CASE MOUNTAIN CALIFORNIA,36.4108,-118.8092,1966.0,2012,,,,,,,15,U,0319,,,,,,,,,,,,,,,,,,,,44.1,U
USR0000CCLE,CLEAR CREEK CALIFORNIA,34.2711,-118.1525,914.4,2012,1695,,,,,,30,U,0318,,,,,,,,98,U,0812,+,2382,,,,,,63.1,U,71.5,U,54.8,U
USW00023152,BURBANK GLENDALE PASADENA AIRPORT,34.20056,-118.3575,225.9,2012,1626,,0,,,,35,W,1230,+,0,,W,1231,+,,,1.38,,W,0325,,105,W,1001,,1526,,8.29,,W,,,65.6,W,76.9,W,54.4,W
USW00023155,BAKERSFIELD AIRPORT,35.4344,-119.0542,149.0,2012,2537,,0,,0,X,28,X,1220,,0,,X,1231,+,0.0,,X,1231,+,0.86,,X,0413,,110,X,0813,,2077,,4.42,,X,0.0,,X,67.0,X,79.9,X,54.1,X
USC00049040,TRUCKEE TAHOE AIRPORT DISTRICT,39.318,-120.145,1798.3,2012,34,,78,,32,7,-6,7,1231,+,30,,7,1226,,18.0,,7,1223,,2.35,,7,0121,,95,7,0812,,8080,,29.64,,7,134.8,,7,43.6,7,62.4,7,24.8,7
USR0000CCLA,CLAREMONT CALIFORNIA,34.1369,-117.7069,501.4,2012,,,,,,,,,,,,,,,,,1781,,,,,,,,,,,
USW00023157,BISHOP AIRPORT,37.3711,-118.358,1250.3,2012,1126,,8,,3,X,5,X,1221,+,3,,X,1226,+,4.6,,X,0123,,0.83,,X,0121,,106,X,0711,,4255,,3.48,,X,7.7,,X,56.7,X,75.9,X,37.6,X
USW00023158,BLYTHE AIRPORT,33.6186,-114.7142,120.4,2012,4531,,,,,,33,X,1220,,,,,,0.75,,X,0713,,117,X,0813,+,1095,,4.48,,X,,,74.9,X,89.1,X,60.7,X
USC00041312,CALISTOGA,38.5961,-122.6013,121.9,2012,657,,,,,,17,7,0118,+,,,,,,,105,7,0616,,2844,,,,,,58.9,7,75.5,7,42.3,7
USC00042402,DE SABLA,39.8716,-121.6108,826.0,2012,,,,,,,,,,,,,5.50,,7,1130,,,,,,78.93,,7,,,,,,,,
USC00045915,MOUNT DIABLO JUNCTION,37.8792,-121.9303,661.4,2012,966,,,,,,27,7,0413,,,,,,2.88,,7,1202,,99,7,0814,+,3317,,33.71,,7,,,58.3,7,67.3,7,49.4,7
USC00041316,CALLAHAN,41.3111,-122.8044,970.8,2012,,,,,,,,,,,,,,,,,5612,,,,,,,,,,,
USR0000CCLV,CALAVERAS ROAD CALIFORNIA,37.5531,-121.8439,374.9,2012,600,,,,,,32,U,0116,,,,,,,,100,U,1002,,,,,,,,58.7,U,67.7,U,49.7,U
USR0000CCLK,CLARK CALIFORNIA,33.8767,-117.3089,524.3,2012,1746,,,,,,32,U,0117,,,,,,,,107,U,1001,,1726,,,,,,65.3,U,78.6,U,52.1,U
USC00049035,TRONA,35.7636,-117.3908,516.6,2012,3350,,0,,0,7,23,7,1222,+,0,,7,1231,+,0.0,,7,1231,+,0.25,,7,1214,+,114,7,0712,,2227,,1.35,,7,0.0,,7,68.7,7,83.6,7,53.8,7
USC00049053,TULELAKE,41.96,-121.4744,1229.9,2012,126,,,,,,-2,7,0117,,,,,,0.82,,7,1130,,96,7,0813,,6662,,9.41,,7,,,47.6,7,63.2,7,31.9,7
USS0020H13S,Adin Mtn,41.24,-120.79,1886.7,2012,15,,182,,,,-9,T,1231,,29,,T,1226,,,,1.70,,T,0604,,87,T,0814,,8391,,31.26,,T,,,42.4,T,55.1,T,29.6,T
USW00093230,SOUTH LAKE TAHOE AIRPORT,38.8983,-119.9947,1924.5,2012,26,,,,,,-8,X,1231,,,,,,2.20,,X,1130,,89,X,0811,+,7121,,21.50,,X,,,45.4,X,60.6,X,30.3,X
USR0000CAGD,ARROYO GRANDE CALIFORNIA,35.1792,-120.3919,319.4,2012,841,,,,,,28,U,1220,,,,,,,,107,U,1001,,2224,,,,,,61.3,U,76.7,U,45.9,U
USR0000CRIC,RICE VALLEY CALIFORNIA,34.0608,-114.7322,249.9,2012,4539,,,,,,30,U,1221,+,,,,,,,120,U,0710,,1244,,,,,,74.5,U,90.0,U,59.0,U
USC00043747,HANFORD 1 S,36.3158,-119.637,72.2,2012,1995,,,,,,25,7,0117,,,,,,,,106,7,0815,+,2623,,,,,,64.0,7,77.7,7,50.4,7
USR0000CGSP,GREEN SPRING CALIFORNIA,37.8331,-120.5,310.9,2012,1819,,,,,,28,U,1219,+,,,,,,,107,U,0813,+,2720,,,,,,62.8,U,74.5,U,51.0,U
USW00093225,SACRAMENTO METROPOLITAN AIRPORT,38.69556,-121.58972,7.0,2012,1438,,,,,,21,W,0117,,,,,,1.23,,W,1202,,107,W,0813,,2607,,20.48,,W,,,62.2,W,75.8,W,48.6,W
USW00093227,NAPA CO AIRPORT,38.2102,-122.2847,4.3,2012,188,,,,,,19,X,0117,,,,,,1.92,,X,0120,,98,X,1002,+,3245,,22.15,,X,,,57.0,X,69.9,X,44.2,X
USW00093228,HAYWARD AIR TERMINAL,37.6542,-122.115,13.1,2012,175,,,,,,30,X,0117,,,,,,1.18,,X,1130,,97,X,1002,,2660,,15.11,,X,,,58.4,X,67.0,X,49.8,X
USW00003104,DESERT RESORTS REGIONAL AIRPORT,33.62667,-116.15944,-36.0,2012,4221,,0,,0,W,22,W,1220,,0,,W,1231,+,0.0,,W,1231,+,1.42,,W,0911,,117,W,0813,+,1263,,2.54,,W,0.0,,W,73.6,W,90.5,W,56.7,W
US1CAKG0003,LEMOORE 0.3 SW,36.295,-119.7914,68.0,2012,,,,,0,N,,,,,0.0,,N,1231,+,0.63,,N,0413,,,,,,5.88,,N,0.0,,N,,,,,,
US1CAKG0004,HANFORD 3.6 N,36.3769,-119.6527,78.6,2012,,,,,,,,,,,,,0.87,,N,0414,,,,,,6.16,,N,,,,,,,,
US1CAKG0001,LEMOORE 0.9 ESE,36.2932,-119.7718,68.0,2012,,,,,,,,,,,,,0.71,,N,0413,,,,,,6.31,,N,,,,,,,,
USW00003102,ONTARIO INTERNATIONAL AIRPORT,34.05611,-117.60028,289.3,2012,2121,,0,,,,33,W,1231,+,0,,W,1231,+,,,1.03,,W,0317,,107,W,1001,+,1567,,8.28,,W,,,67.0,W,79.8,W,54.0,W
USC00045933,MOUNT HAMILTON,37.3436,-121.6425,1282.0,2012,898,,,,,,21,7,0319,+,,,,,2.85,,7,1130,,92,7,0811,,,,28.41,,7,,,55.4,7,62.0,7,48.7,7
US1CAKG0005,HANFORD 1.7 WNW,36.3349,-119.6743,74.7,2012,,,,,,,,,,,,,0.89,,N,1116,,,,,,7.45,,N,,,,,,,,
USW00023188,SAN DIEGO INTERNATIONAL AIRPORT,32.7336,-117.1831,4.6,2012,862,,,,,,41,X,1231,,,,,,1.56,,X,1213,,101,X,0915,,1290,,6.64,,X,,,64.2,X,70.0,X,58.4,X
USW00023187,SANDBERG,34.7436,-118.7242,1374.6,2012,1324,,,,,,22,X,0307,,,,,,1.16,,X,0325,,99,X,0810,,3807,,5.70,,X,,,58.7,X,68.1,X,49.4,X
USW00023182,PALMDALE AIRPORT,34.62944,-118.08361,769.2,2012,2279,,0,,,,18,W,1221,+,0,,W,1231,+,,,0.54,,W,0413,,109,W,0810,+,2848,,2.08,,W,,,64.0,W,79.0,W,49.0,W
USW00003131,SAN DIEGO MONTGOMERY FIELD,32.81583,-117.13944,127.1,2012,991,,0,,,,36,W,1231,,0,,W,1231,+,,,1.47,,W,1213,,107,W,0914,,1487,,8.38,,W,,,64.1,W,73.1,W,55.0,W
US1CAVT0002,FRAZIER PARK 10.7 WSW,34.746,-119.1103,1607.5,2012,,,,,,,,,,,,,1.16,,N,0414,,,,,,7.99,,N,,,,,,,,
US1CAVT0001,THOUSAND OAKS 2.1 WSW,34.1772,-118.8984,210.9,2012,,,,,,,,,,,,,1.73,,N,0318,,,,,,10.09,,N,,,,,,,,
USW00004222,REDDING 12 WNW,40.6507,-122.6068,432.2,2012,1606,,,,,,22,R,0117,,,,,,7.48,,R,1129,,110,R,0813,,3397,,56.83,,R,,,60.1,R,72.8,R,47.3,R
US1CAVT0008,SIMI VALLEY 1.0 NW,34.2724,-118.7638,258.5,2012,,,,,,,,,,,,,1.75,,N,0326,,,,,,9.20,,N,,,,,,,,
USW00093245,BODEGA 6 WSW,38.3208,-123.0747,19.2,2012,2,,,,,,33,R,0117,,,,,,2.38,,R,0120,,79,R,1106,,4569,,34.67,,R,,,52.5,R,58.2,R,46.8,R
USR0000CELC,EL CARISO CALIFORNIA,33.6472,-117.4111,926.0,2012,2173,,,,,,32,U,0318,+,,,,,,,106,U,0813,,1854,,,,,,65.9,U,77.0,U,54.9,U
USW00023199,EL CENTRO NAF,32.81667,-115.68333,-12.8,2012,4232,,,,,,31,W,1221,+,,,,,0.73,,W,0730,,116,W,0813,+,,,1.30,,W,,,74.2,W,89.6,W,58.7,W
USW00024286,CRESCENT CITY MCNAMARA AIRPORT,41.78028,-124.23667,17.1,2012,0,,0,,,,30,W,0116,+,0,,W,1231,+,,,4.14,,W,1129,,72,W,1018,,4912,,76.62,,W,,,51.2,W,56.8,W,45.7,W
USW00024283,ARCATA EUREKA AIRPORT,40.97806,-124.10861,61.0,2012,0,,0,,,,28,W,1231,+,0,,W,1231,+,,,2.68,,W,0119,,75,W,1001,,5251,,55.57,,W,,,50.7,W,57.6,W,43.8,W
USW00093241,VACAVILLE NUT TREE AIRPORT,38.3775,-121.9575,33.2,2012,1302,,,,,,18,W,0117,,,,,,2.15,,W,0120,,107,W,0616,,2713,,29.96,,W,,,61.5,W,75.5,W,47.4,W
USW00093242,MADERA MUNICIPAL AIRPORT,36.98778,-120.11056,77.1,2012,1694,,0,,0,W,22,W,0117,,0,,W,1231,+,0.0,,W,1231,+,1.90,,W,0317,,106,W,0814,+,2656,,10.94,,W,0.0,,W,62.9,W,77.4,W,48.4,W
USR0000CCHC,CHICO CALIFORNIA,39.7119,-121.7789,70.1,2012,1607,,,,,,20,U,0117,,,,,,,,106,U,0813,+,2741,,,,,,62.2,U,75.4,U,49.0,U
USW00093243,MERCED 23 WSW,37.2381,-120.8825,23.8,2012,1046,,,,,,16,R,0117,,,,,,0.68,,R,1223,,105,R,0617,,3066,,7.35,,R,,,60.1,R,76.8,R,43.4,R
USR0000CCHB,CHEESEBORO CALIFORNIA,34.1847,-118.7172,502.9,2012,2101,,,,,,35,U,0228,,,,,,,,107,U,0810,+,1448,,,,,,66.8,U,78.4,U,55.1,U
USR0000CPAN,PANAMINT CALIFORNIA,36.1203,-117.0878,2097.0,2012,851,,,,,,13,U,1231,,,,,,,,98,U,0711,,4368,,,,,,55.6,U,67.4,U,43.8,U
USR0000CTIM,TIMBER MOUNTAIN CALIFORNIA,41.6294,-121.2981,1511.8,2012,546,,,,,,11,U,1231,,,,,,,,96,U,0804,,,,,,,,49.3,U,59.8,U,38.9,U
USR0000CVND,VANDENBERG CALIFORNIA,34.7586,-120.4861,320.0,2012,217,,,,,,33,U,0117,,,,,,,,96,U,1001,,2809,,,,,,58.4,U,67.6,U,49.1,U
USC00044863,LEBEC,34.8328,-118.865,1092.7,2012,769,,,,,,21,7,0118,+,,,,,1.02,,7,0228,,98,7,0814,,,,8.24,,7,,,56.9,7,68.4,7,45.5,7
US1CAMR0009,PETALUMA 10.1 W,38.2475,-122.8119,36.3,2012,,,,,,,,,,,,,3.38,,N,1130,,,,,,33.00,,N,,,,,,,,
USR0000CCHI,CHILAO CALIFORNIA,34.3317,-118.0303,1661.2,2012,1227,,,,,,22,U,1219,+,,,,,,,98,U,0711,,3326,,,,,,59.5,U,68.7,U,50.4,U
USC00040029,ADIN RANGER STATION,41.1936,-120.9447,1278.6,2012,,,27,,21,7,,,6,,7,1226,,5.0,,7,0229,,1.00,,7,1202,,,,,,14.62,,7,58.4,,7,,,,,,
USR0000CPAT,PATTY MOCUS CALIFORNIA,40.295,-122.8667,1066.8,2012,1234,,,,,,23,U,0116,,,,,,,,101,U,0814,+,4171,,,,,,56.4,U,67.0,U,45.8,U
USR0000CELI,MOUNT ELIZABETH CALIFORNIA,38.0631,-120.2469,1503.6,2012,1216,,,,,,19,U,0319,,,,,,,,98,U,0811,,4105,,,,,,56.9,U,65.8,U,47.9,U
USW00023191,AVALON CATALINA AIRPORT,33.405,-118.41583,488.3,2012,1074,,,,,,41,W,0318,+,,,,,0.96,,W,0207,,98,W,0915,+,2036,,10.51,,W,,,62.3,W,69.2,W,55.3,W
USR0000CPAR,PARKFIELD CALIFORNIA,35.8989,-120.4319,467.9,2012,1278,,,,,,17,U,0117,,,,,,,,111,U,0811,,3122,,,,,,60.3,U,77.9,U,42.8,U
USW00023190,SANTA BARBARA MUNICIPAL AIRPORT,34.4258,-119.8425,2.7,2012,204,,,,,,31,X,1220,,,,,,1.40,,X,0121,,94,X,1105,,2710,,12.76,,X,,,59.0,X,69.0,X,49.0,X
USR0000CELM,EL MIRAGE CALIFORNIA,34.6344,-117.5503,877.8,2012,2158,,,,,,17,U,1221,,,,,,,,112,U,0711,,2881,,,,,,63.5,U,81.0,U,46.0,U
USW00003159,LANCASTER WM J FOX FIELD,34.7411,-118.2116,712.6,2012,2235,,,,,,10,X,1221,,,,,,0.79,,X,0413,,111,X,0711,,3107,,1.87,,X,,,63.3,X,79.3,X,47.4,X
USR0000CBUL,BULL FLAT CALIFORNIA,40.4808,-120.1139,1339.6,2012,375,,,,,,-7,U,0116,,,,,,,,99,U,0812,+,6219,,,,,,49.7,U,66.2,U,33.1,U
USR0000CBUR,BURNS CANYON CALIFORNIA,34.2103,-116.6339,1828.8,2012,1228,,,,,,19,U,0307,,,,,,,,95,U,0710,,3582,,,,,,59.3,U,69.0,U,49.6,U
USS0019L24S,Heavenly Valley,38.92,-119.92,2615.8,2012,0,,195,,,,-3,T,1219,,57,,T,1230,+,,,2.00,,T,0316,,75,T,0809,,8723,,35.67,,T,,,41.5,T,51.5,T,31.5,T
USC00049888,YUCCA VALLEY,34.1294,-116.3879,990.3,2012,2214,,0,,0,7,21,7,1220,,0,,7,1231,+,0.0,T,7,1231,+,0.41,,7,0414,+,106,7,0711,,2648,,2.54,,7,0.0,T,7,64.5,7,78.1,7,50.8,7
USR0000CBUU,BUTTERCUP CALIFORNIA,32.7397,-114.8839,66.1,2012,4858,,,,,,37,U,1228,+,,,,,,,118,U,0812,,725,,,,,,76.7,U,91.5,U,61.9,U
USC00049884,YUCCA MESA,34.2182,-116.4073,1050.0,2012,2544,,0,,0,7,25,7,1220,+,0,,7,1231,+,0.0,T,7,1230,,0.33,,7,0216,,107,7,0711,,2314,,1.89,,7,0.0,T,7,66.3,7,78.5,7,54.1,7
USC00046136,NEVADA CITY,39.2466,-121.0008,847.6,2012,,,,,,,,,,,,,,,,,3990,,,,,,,,,,,
USR0000CKET,KETTLEMAN HILLS CALIFORNIA,36.0333,-120.0569,246.9,2012,2618,,,,,,34,U,1219,,,,,,,,107,U,0811,+,1912,,,,,,67.3,U,77.2,U,57.5,U
USR0000CSVA,SPRING VALLEY CALIFORNIA,37.5625,-122.4364,327.7,2012,,,,,,,,,,,,,,,,,3937,,,,,,,,,,,
USR0000CMIO,MILO CALIFORNIA,36.2314,-118.8689,586.1,2012,2413,,,,,,32,U,1219,+,,,,,,,105,U,0814,+,2363,,,,,,65.4,U,74.6,U,56.1,U
USS0020L02S,Rubicon NUMBER 2,39.0,-120.13,2343.6,2012,55,,204,,,,10,T,1218,,58,,T,0318,,,,2.20,,T,1130,+,81,T,0811,,7298,,45.94,,T,,,45.6,T,53.4,T,37.8,T
USW00003144,IMPERIAL CO AIRPORT,32.83417,-115.57861,-17.7,2012,4397,,0,,0,W,32,W,1221,+,0,,W,1231,+,0.0,,W,1231,+,0.91,,W,0730,,116,W,0813,+,1073,,1.69,,W,0.0,,W,74.6,W,89.7,W,59.6,W
USC00046144,NEWARK,37.5147,-122.0325,3.0,2012,237,,,,,,30,7,0118,,,,,,,,94,7,1003,+,2360,,,,,,58.8,7,68.0,7,49.6,7
USC00046386,OCOTILLO WELLS 2 W,33.1552,-116.1688,118.9,2012,5831,,,,,,33,7,1221,+,,,,,1.94,,7,0730,,121,7,0710,,591,,4.45,,7,,,79.4,7,91.3,7,67.5,7
USC00046161,NEWHALL 5 NW,34.3933,-118.5938,538.0,2012,2215,,,,,,33,7,0228,+,,,,,2.03,,7,0325,,109,7,0810,+,1693,,8.20,,7,,,66.6,7,79.8,7,53.3,7
USC00041948,COLUSA 2 SSW,39.1875,-122.0269,15.2,2012,,,,,,,,,,,,,,,,,2558,,,,,,,,,,,
USW00003177,CARLSBAD MCCLELLAN PALOMAR AIRPORT,33.12806,-117.27944,100.0,2012,712,,0,,,,39,W,1231,+,0,,W,1231,+,,,0.95,,W,1213,,94,W,1017,+,1631,,8.07,,W,,,62.9,W,69.4,W,56.5,W
USW00003179,CHINO AIRPORT,33.97528,-117.63611,198.1,2012,1728,,0,,,,28,W,1221,,0,,W,1231,+,,,0.48,,W,1213,,108,W,1001,+,1742,,3.52,,W,,,65.3,W,81.1,W,49.5,W
USW00003178,SAN DIEGO BROWN FIELD,32.57222,-116.97944,157.0,2012,742,,,,,,35,W,0218,+,,,,,1.74,,W,1213,,106,W,0914,,1800,,8.28,,W,,,62.6,W,72.5,W,52.6,W
USR0000CKEE,KEENWILD CALIFORNIA,33.6667,-116.7667,1499.6,2012,1167,,,,,,19,U,1231,,,,,,,,101,U,0711,,3258,,,,,,59.7,U,73.5,U,45.9,U
USR0000CMIL,MILL CREEK ANF CALIFORNIA,34.3903,-118.0825,1530.4,2012,1112,,,,,,23,U,1219,+,,,,,,,93,U,0813,+,3525,,,,,,58.6,U,66.7,U,50.5,U
US1CAPC0001,SODA SPRINGS 1.5 SSW,39.3021,-120.3837,2099.2,2012,,,238,,74,N,,,99,,N,0321,+,26.0,,N,1223,+,6.31,,N,1202,,,,,,97.19,,N,519.2,,N,,,,,,
USC00041700,CHESTER,40.3033,-121.2422,1380.7,2012,144,,,,,,2,7,1231,,,,,,3.80,,7,0330,,96,7,0805,,6470,,41.69,,7,,,47.8,7,62.5,7,33.1,7
USW00003171,RIVERSIDE MUNICIPAL AIRPORT,33.95194,-117.43861,245.2,2012,2181,,,,,,34,W,1231,,,,,,0.52,,W,0317,,107,W,1001,,1291,,4.77,,W,,,67.7,W,80.9,W,54.4,W
USC00045064,LOMPOC,34.6538,-120.4513,22.9,2012,72,,,,,,27,7,0117,,,,,,1.03,,7,0317,+,92,7,1105,+,2677,,11.64,,7,,,58.3,7,67.9,7,48.8,7
USC00046154,NEW CUYAMA FIRE STATION,34.9455,-119.6827,658.4,2012,1319,,,,,,17,7,0117,,,,,,1.15,,7,0317,,110,7,0711,,2936,,2.71,,7,,,60.7,7,77.1,7,44.4,7
USR0000CBSR,BIG SUR CALIFORNIA,36.2356,-121.785,137.2,2012,192,,,,,,33,U,0216,,,,,,,,99,U,1001,,2609,,,,,,58.3,U,70.4,U,46.2,U
USR0000CMID,MID HILLS CALIFORNIA,35.1231,-115.4114,1649.9,2012,1258,,,,,,20,U,0307,,,,,,,,99,U,0710,,3763,,,,,,58.7,U,69.2,U,48.1,U
USC00047248,RANCHO BERNARDO,33.0216,-117.0813,210.3,2012,980,,,,,,35,7,0308,,,,,,1.54,,7,1213,,103,7,0915,+,1580,,10.55,,7,,,63.9,7,74.6,7,53.2,7
USC00046399,OJAI,34.4477,-119.2275,227.1,2012,1227,,,,,,26,7,1221,+,,,,,1.89,,7,0317,,110,7,0810,+,,,12.62,,7,,,62.2,7,79.3,7,45.1,7
US1CAPC0007,ROSEVILLE 4.7 WNW,38.7802,-121.3766,29.3,2012,,,,,,,,,,,,,1.70,,N,0413,,,,,,23.25,,N,,,,,,,,
USR0000CBRI,BRIONES CALIFORNIA,37.9442,-122.1178,442.0,2012,732,,,,,,31,U,0116,,,,,,,,101,U,0616,,3125,,,,,,58.5,U,68.3,U,48.7,U
USR0000CDVR,DEVORE CALIFORNIA,34.2211,-117.4044,627.0,2012,1996,,,,,,33,U,0318,,,,,,,,105,U,0811,+,1788,,,,,,65.7,U,76.4,U,55.0,U
USC00046174,NEW MELONES DAM HQ,38.0047,-120.4863,292.6,2012,1982,,,,,,29,7,1219,+,,,,,2.52,,7,0121,,109,7,0813,+,2505,,30.70,,7,,,63.6,7,76.5,7,50.6,7
USR0000CBRO,BROOKS CALIFORNIA,38.7383,-122.1447,107.9,2012,1853,,,,,,22,U,0117,,,,,,,,110,U,0811,,2425,,,,,,63.6,U,77.5,U,49.7,U
USS0019L45S,Carson Pass,38.69,-119.99,2546.0,2012,2,,209,,,,-1,T,1219,,81,,T,1226,,,,2.90,,T,0316,,78,T,0809,,8539,,44.78,,T,,,42.2,T,51.9,T,32.5,T
USR0000COKO,OAK OPENING CALIFORNIA,36.1753,-118.7017,987.6,2012,1855,,,,,,25,U,0117,,,,,,,,108,U,0810,,2941,,,,,,62.1,U,75.4,U,48.7,U
USC00042805,ELSINORE,33.6692,-117.3319,391.7,2012,2389,,,,,,32,7,1220,+,,,,,0.55,,7,0318,,112,7,0811,+,1567,,6.94,,7,,,67.7,7,83.2,7,52.2,7
USW00003164,CAMPO ASOS,32.6261,-116.4681,805.0,2012,913,,0,,,,23,W,0120,+,0,,W,1231,+,,,0.85,,W,0413,,103,W,0810,+,3380,,10.52,,W,,,58.9,W,75.9,W,42.0,W
USR0000CBRA,BRANCH MOUNTAIN CALIFORNIA,35.1889,-120.0833,1149.1,2012,1596,,,,,,26,U,0116,,,,,,,,103,U,0810,+,3157,,,,,,60.5,U,70.9,U,50.1,U
USW00003166,FULLERTON MUNICIPAL AIRPORT,33.87194,-117.97889,29.3,2012,1981,,0,,,,37,W,1231,,0,,W,1231,+,,,0.84,,W,0325,,108,W,0914,,888,,7.30,,W,,,68.4,W,78.9,W,58.0,W
USR0000CBRF,BEAR FLAT CALIFORNIA,41.295,-120.3133,1889.8,2012,187,,,,,,2,U,1231,,,,,,,,92,U,0814,+,,,,,,,46.1,U,59.0,U,33.3,U
USW00003167,HAWTHORNE MUNICIPAL AIRPORT,33.92278,-118.33417,19.2,2012,941,,0,,,,40,W,1231,+,0,,W,1231,+,,,1.11,,W,1224,,100,W,0915,,1123,,8.09,,W,,,64.7,W,72.3,W,57.1,W
USR0000CSTO,STONYFORD CALIFORNIA,39.3669,-122.575,365.8,2012,1527,,,,,,14,U,0117,,,,,,,,109,U,0813,,3181,,,,,,60.5,U,75.2,U,45.9,U
USC00048587,STONY GORGE RESERVOIR,39.5861,-122.5341,243.8,2012,1351,,,,,,16,7,0118,,,,,,1.87,,7,1130,,110,7,0814,,3227,,21.15,,7,,,59.9,7,75.6,7,44.3,7
USC00046168,NEWMAN,37.2811,-121.0177,27.4,2012,,,,,,,,,,,,,,,,,1986,,,,,,,,,,,
USC00049452,WASCO,35.5892,-119.352,88.7,2012,,,,,,,,,,,,,0.79,,7,0317,,109,7,0812,,,,4.35,,7,,,,,80.7,7,,
US1CAAL0001,PIEDMONT 1.0 SE,37.8123,-122.216,113.4,2012,,,,,,,,,,,,,2.78,,N,0315,,,,,,32.94,,N,,,,,,,,
USC00041967,CONCORD WASTEWATER PLANT,37.9833,-122.0692,12.2,2012,,,,,,,31,H,1220,+,,,,,2.10,,H,1202,,,,2170,,21.42,,H,,,,,,,50.0,H
USR0000CSRS,SANTA ROSA CALIFORNIA,38.4786,-122.7119,175.6,2012,367,,,,,,32,U,0117,,,,,,,,102,U,1002,,2721,,,,,,58.4,U,69.2,U,47.6,U
US1CAHM0014,MIRANDA 4.1 SW,40.2093,-123.8941,164.3,2012,,,,,,,,,,,,,5.92,,N,1202,,,,,,92.59,,N,,,,,,,,
US1CAST0004,HOLLISTER 5.4 NNE,36.9306,-121.3704,75.3,2012,,,,,,,,,,,,,1.36,,N,0121,,,,,,14.57,,N,,,,,,,,
US1CAST0005,HOLLISTER 2.1 ESE,36.8422,-121.365,118.6,2012,,,,,,,,,,,,,1.55,,N,1201,,,,,,14.76,,N,,,,,,,,
USR0000COKG,OAK GROVE CALIFORNIA,33.3933,-116.795,838.8,2012,1362,,,,,,24,U,0117,,,,,,,,103,U,0811,+,2435,,,,,,62.1,U,77.1,U,47.1,U
US1CAKN0009,PINE MOUNTAIN CLUB 0.9 SSW,34.8353,-119.1631,1834.0,2012,,,,,13,N,,,,,10.5,,N,0326,,1.54,,N,0414,,,,,,12.91,,N,48.9,,N,,,,,,
USR0000CDVA,DEL VALLE CALIFORNIA,34.4311,-118.6828,389.5,2012,1972,,,,,,32,U,1230,,,,,,,,109,U,0809,,1531,,,,,,66.3,U,80.7,U,52.0,U
USR0000CBR4,BRIDGEPORT 4 NW CALIFORNIA,38.2719,-119.2892,2026.9,2012,266,,,,,,-5,U,1231,,,,,,,,93,U,0809,,6002,,,,,,49.6,U,65.1,U,34.0,U
US1CAKN0001,INYOKERN 9.4 WSW,35.6345,-117.9782,1316.4,2012,,,1,,1,N,,,1,,N,0307,,1.2,,N,0307,,0.60,,N,0121,,,,,,3.64,,N,1.6,,N,,,,,,
USC00046175,NEWPORT BEACH HARBOR,33.6025,-117.8803,3.0,2012,460,,,,,,39,7,1221,+,,,,,,,86,7,1017,+,1637,,,,,,62.0,7,66.8,7,57.3,7
USC00048353,SONORA,37.9672,-120.3872,510.5,2012,987,,,,,,18,7,0118,+,,,,,,,105,7,0812,,3734,,,,,,57.9,7,72.9,7,42.8,7
USS0019L05S,Blue Lakes,38.61,-119.92,2455.8,2012,1,,209,,,,-4,T,1215,,58,,T,1226,,,,2.20,,T,1130,,79,T,0809,,,,39.07,,T,,,41.7,T,51.8,T,31.5,T
USR0000CMET,METCALF GAP CALIFORNIA,37.4094,-119.7681,937.9,2012,2164,,,,,,26,U,0319,,,,,,,,107,U,0810,,2818,,,,,,63.1,U,72.9,U,53.2,U
USR0000CBPI,BIG PINE FLAT CALIFORNIA,34.3194,-117.0131,2091.2,2012,277,,,,,,8,U,1231,,,,,,,,95,U,0710,,5181,,,,,,52.4,U,68.1,U,36.6,U
US1CAHM0026,BRIDGEVILLE 5.2 ENE,40.4734,-123.7013,815.3,2012,,,,,,,,,,,,,6.11,,N,1221,,,,,,116.52,,N,,,,,,,,
US1CAAL0012,PLEASANTON 0.4 ESE,37.6702,-121.8814,104.9,2012,,,,,,,,,,,,,1.82,,N,1201,,,,,,22.79,,N,,,,,,,,
USC00041738,CHIRIACO SUMMIT,33.6617,-115.7206,520.0,2012,3516,,,,,,28,7,1220,,,,,,1.57,,7,0801,,112,7,0712,,1561,,5.13,,7,,,70.8,7,85.0,7,56.5,7
USS0020K13S,Truckee NUMBER 2,39.3,-120.18,1983.9,2012,96,,182,,,,6,T,1219,,43,,T,1225,,,,2.90,,T,1130,,88,T,0811,,6661,,41.34,,T,,,47.6,T,58.7,T,36.4,T
USR0000CSQU,SQUAW LAKE CALIFORNIA,32.9083,-114.4944,91.4,2012,5127,,,,,,39,U,1228,,,,,,,,119,U,0812,,683,,,,,,77.5,U,90.9,U,64.1,U
USR0000CSQS,SQUAW SPRINGS CALIFORNIA,35.37,-117.5683,1103.4,2012,2593,,,,,,28,U,0307,,,,,,,,107,U,0711,,,,,,,,65.9,U,76.3,U,55.5,U
USR0000CSRI,SANTA ROSA ISLAND CALIFORNIA,33.9778,-120.0778,395.6,2012,304,,,,,,37,U,0318,,,,,,,,96,U,0915,,3542,,,,,,56.4,U,63.5,U,49.3,U
USR0000CSRO,SANTA ROSA PLATEAU CALIFORNIA,33.5286,-117.2306,603.5,2012,1428,,,,,,34,U,1219,,,,,,,,103,U,1001,,1912,,,,,,63.9,U,74.5,U,53.2,U
US1CATY0003,DOUGLAS CITY 2.4 SW,40.6326,-122.9777,514.8,2012,,,,,,,,,,,,,2.78,,N,1130,,,,,,42.79,,N,,,,,,,,
USC00049699,WILLOWS 6 W,39.523,-122.3058,71.0,2012,1438,,0,,0,7,22,7,0117,,0,,7,1231,+,0.0,,7,1231,+,,,107,7,0617,,,,19.47,,7,0.0,,7,62.7,7,77.4,7,47.9,7
USC00048122,SHAFTER 6 E,35.4867,-119.1458,123.1,2012,1924,,,,,,20,7,0118,,,,,,0.94,,7,0317,,108,7,0814,,2646,,5.32,,7,,,63.8,7,79.5,7,48.1,7
USR0000CMEY,MEYERS CALIFORNIA,38.8489,-120.0181,1923.3,2012,54,,,,,,-4,U,1231,,,,,,,,92,U,0803,,7137,,,,,,46.4,U,62.1,U,30.6,U
US1CAKN0013,ONYX 2.8 ENE,35.7022,-118.1739,926.3,2012,,,,,,,,,,,,,0.72,,N,0318,,,,,,5.14,,N,,,,,,,,
US1CAAL0008,BERKELEY 3.8 ESE,37.8557,-122.2301,268.8,2012,,,,,,,,,,,,,2.15,,N,0314,,,,,,31.46,,N,,,,,,,,
USR0000COJA,OJAI CALIFORNIA,34.4483,-119.2303,233.2,2012,,,,,,,,,,,,,,,,,2299,,,,,,,,,,,
USC00047050,POMONA FAIRPLEX,34.0816,-117.7658,304.5,2012,,,,,,,,,,,,,1.36,,H,0317,,,,1564,,9.17,,H,,,,,,,,
USC00048380,SO ENTRANCE YOSEMITE N.P.,37.5122,-119.6331,1538.3,2012,213,,,,,,14,7,1220,+,,,,,2.95,,7,0121,,92,7,0814,+,6057,,31.49,,7,,,49.1,7,61.6,7,36.6,7
USC00049473,WATSONVILLE WATERWORKS,36.9308,-121.7691,29.0,2012,97,,,,,,28,7,0119,+,,,,,1.96,,7,0121,,102,7,1003,+,2973,,22.28,,7,,,57.4,7,67.9,7,46.9,7
USR0000CBOG,BOGARD RANGER STATION CALIFORNIA,40.5981,-121.0831,1722.1,2012,25,,,,,,-15,U,1231,,,,,,,,96,U,0804,,7793,,,,,,43.8,U,61.8,U,25.9,U
US1CAHM0038,KNEELAND 0.4 NNW,40.7659,-123.9985,612.0,2012,,,,,,,,,,,,,3.71,,N,1202,,,,,,72.73,,N,,,,,,,,
US1CAHM0035,EUREKA 2.2 S,40.7642,-124.1476,59.1,2012,,,,,,,,,,,,,3.31,,N,0330,,,,,,58.66,,N,,,,,,,,
US1CAHM0030,GARBERVILLE 2.2 SW,40.0775,-123.8239,126.5,2012,,,,,,,,,,,,,4.43,,N,1130,,,,,,63.56,,N,,,,,,,,
USR0000CMEA,MEANS LAKE CALIFORNIA,34.3906,-116.5169,883.9,2012,2809,,,,,,20,U,1221,,,,,,,,112,U,0710,,2385,,,,,,66.8,U,81.9,U,51.6,U
USC00048135,SHASTA DAM,40.7141,-122.4161,327.7,2012,2046,,,,,,28,7,0414,+,,,,,5.00,,7,1201,,110,7,0814,,2713,,73.06,,7,,,62.7,7,73.5,7,51.9,7
USS0019L03S,Hagan s Meadow,38.85,-119.94,2370.1,2012,0,,159,,,,-5,T,1219,,47,,T,1226,,,,2.40,,T,0120,,83,T,0811,,8410,,33.97,,T,,,42.5,T,56.4,T,28.7,T
USR0000CBOO,BOONVILLE CALIFORNIA,38.9875,-123.3486,196.3,2012,374,,,,,,26,U,0117,+,,,,,,,105,U,0811,,3333,,,,,,57.0,U,69.6,U,44.4,U
USC00049001,TRACY PUMPING PLANT,37.7967,-121.5828,18.6,2012,1596,,,,,,28,7,0118,,,,,,1.52,,7,1130,,105,7,0616,,2229,,13.24,,7,,,63.7,7,76.0,7,51.4,7
USR0000CBNL,BEN LOMOND CALIFORNIA,37.1317,-122.17,801.6,2012,993,,,,,,30,U,0117,+,,,,,,,96,U,1002,+,3583,,,,,,57.8,U,65.7,U,49.8,U
USC00041758,CHULA VISTA,32.64,-117.0858,17.1,2012,733,,,,,,34,7,0113,,,,,,1.61,,7,1213,,100,7,0915,,1426,,8.07,,7,,,63.6,7,71.3,7,55.8,7
USC00043937,HESPERIA 2 E,34.4206,-117.2661,931.2,2012,2007,,0,,1,7,22,7,1220,,0,,7,1231,+,1.0,,7,0318,,0.53,,7,1213,+,106,7,0711,,2626,,3.29,,7,1.3,,7,63.9,7,77.9,7,49.8,7
USC00043939,HETCH HETCHY,37.9613,-119.783,1179.6,2012,,,,,,,,,,,,,,,,,4432,,,,,,,,,,,
USR0000CMCG,MCGUIRES CALIFORNIA,39.3528,-123.6011,180.7,2012,116,,,,,,25,U,0116,,,,,,,,101,U,1001,,3824,,,,,,54.9,U,66.6,U,43.1,U
USR0000CSOM,SOMES BAR CALIFORNIA,41.39,-123.4958,280.4,2012,1306,,,,,,26,U,0117,+,,,,,,,115,U,0813,,3488,,,,,,59.1,U,73.9,U,44.4,U
US1CACV0002,WALLACE 0.3 NE,38.1967,-120.9728,90.8,2012,,,,,,,,,,,,,1.42,,N,1203,,,,,,23.76,,N,,,,,,,,
USC00041990,COPCO NUMBER 1 DAM,41.9797,-122.3378,823.9,2012,838,,,,,,12,7,0117,,,,,,1.79,,7,1202,,105,7,0805,,5327,,23.63,,7,,,53.7,7,68.5,7,38.8,7
USS0019L40S,Monitor Pass,38.67,-119.61,2532.9,2012,17,,154,,,,1,T,1219,,46,,T,1223,,,,1.80,,T,1222,,82,T,0809,,7797,,21.76,,T,,,44.4,T,54.7,T,34.0,T
USR0000CMSA,MARIPOSA CALIFORNIA,37.5042,-119.9869,680.0,2012,1443,,,,,,23,U,0117,,,,,,,,103,U,0814,+,3238,,,,,,60.2,U,73.0,U,47.4,U
US1CAMD0010,HOPLAND 2.4 WNW,38.9844,-123.158,175.0,2012,,,,,,,,,,,,,4.00,,N,1202,,,,,,47.51,,N,,,,,,,,
USR0000COWE,OWENS CAMP LOC CALIFORNIA,38.7333,-120.245,1597.2,2012,350,,,,,,10,U,1219,,,,,,,,96,U,0811,,4639,,,,,,52.6,U,67.1,U,38.0,U
USC00045449,MC CLOUD,41.2514,-122.1383,999.7,2012,,,,,,,,,,,,,,,,,,,61.00,,7,,,,,,,,
USR0000CKON,KONOCTI CALIFORNIA,38.9119,-122.7064,659.3,2012,1599,,,,,,29,U,0116,,,,,,,,105,U,0812,,3104,,,,,,60.5,U,71.0,U,50.1,U
USR0000COWV,OWENS VALLEY CALIFORNIA,37.39,-118.5506,1414.3,2012,1843,,,,,,15,U,1231,+,,,,,,,104,U,0711,+,3479,,,,,,60.8,U,75.0,U,46.7,U
USC00043261,FRIANT GOVERNMENT CAMP,36.9969,-119.7072,125.0,2012,,,,,,,25,7,0118,+,,,,,,,,,,,,,,,,,,,49.5,7
USC00046773,PEARBLOSSOM,34.5025,-117.8969,945.2,2012,,,,,,,25,7,1222,+,,,,,,,105,7,0812,+,,,,,,,65.3,7,76.8,7,53.8,7
US1CAMD0001,UKIAH 8.4 NW,39.2206,-123.3312,759.6,2012,,,,,,,,,,,,,4.11,,N,1202,,,,,,56.63,,N,,,,,,,,
US1CASR0020,LANDERS 1.6 NE,34.2828,-116.3751,900.4,2012,,,,,,,,,,,,,0.41,,N,0830,,,,,,2.01,,N,,,,,,,,
US1CAMD0007,UKIAH 1.2 NW,39.1583,-123.2248,227.4,2012,,,,,,,,,,,,,4.37,,N,1130,,,,,,44.93,,N,,,,,,,,
USR0000CKNO,KNOXVILLE CREEK CALIFORNIA,38.8619,-122.4172,670.6,2012,1301,,,,,,18,U,0117,,,,,,,,109,U,0813,,3224,,,,,,59.5,U,73.8,U,45.2,U
USR0000CMS2,MOUNT SHASTA CALIFORNIA,41.3156,-122.3156,0.0,2012,469,,,,,,10,U,0117,,,,,,,,103,U,0813,,5401,,,,,,51.8,U,65.8,U,37.8,U
US1CASR0029,RIALTO 2.1 N,34.1442,-117.381,451.7,2012,,,,,,,,,,,,,1.62,,N,0414,,,,,,13.18,,N,,,,,,,,
USR0000CMRK,MARKLEEVILLE CALIFORNIA,38.6833,-119.7667,1676.7,2012,385,,,,,,3,U,1231,+,,,,,,,96,U,0811,,5739,,,,,,50.8,U,65.9,U,35.7,U
USR0000CEAG,EAGLE PEAK CALIFORNIA,39.9278,-122.6569,1131.7,2012,1393,,,,,,27,U,0117,,,,,,,,98,U,0813,,3844,,,,,,57.8,U,65.5,U,50.2,U
USC00047888,SANTA ANA FIRE STATION,33.7442,-117.8667,41.1,2012,1459,,,,,,39,7,1219,,,,,,1.60,,7,0413,,101,7,0914,,870,,9.28,,7,,,66.7,7,76.9,7,56.6,7
USC00044374,JESS VALLEY,41.2683,-120.2947,1645.9,2012,,,,,,,,,,,,,0.70,,7,0605,,,,6757,,14.54,,7,,,,,,,,
USC00047643,SAINT HELENA,38.5066,-122.4713,68.6,2012,,,,,,,,,,,,,,,,,2398,,,,,,,,,,,
US1CAHM0009,MCKINLEYVILLE 2.3 NE,40.9778,-124.086,82.3,2012,,,,,,,,,,,,,3.62,,N,0330,,,,,,67.15,,N,,,,,,,,
US1CAHM0004,MCKINLEYVILLE 2.7 SE,40.9231,-124.084,99.1,2012,,,,,,,,,,,,,3.10,,N,0330,,,,,,59.28,,N,,,,,,,,
USR0000CMOU,MOUNTAIN REST CALIFORNIA,37.0544,-119.3711,1249.7,2012,1506,,,,,,22,U,1219,+,,,,,,,100,U,0812,+,,,,,,,59.5,U,68.8,U,50.2,U
US1CAHM0003,ORICK 5.9 SSW,41.2084,-124.1027,172.8,2012,,,0,,0,N,,,0,T,N,1219,+,0.0,T,N,1219,+,5.17,,N,1130,,,,,,78.72,,N,0.0,T,N,,,,,,
USR0000CVAY,VALYERMO CALIFORNIA,34.4456,-117.8511,1152.1,2012,1503,,,,,,18,U,1221,+,,,,,,,104,U,0711,,3168,,,,,,60.8,U,76.8,U,44.7,U
USR0000CVAN,VAN BREMMER CALIFORNIA,41.6431,-121.7939,1502.1,2012,482,,,,,,10,U,0116,,,,,,,,96,U,0815,+,6157,,,,,,49.5,U,61.5,U,37.4,U
USR0000CVAL,VALLEY CENTER CALIFORNIA,33.2372,-117.0086,452.0,2012,1367,,,,,,30,U,1219,,,,,,,,103,U,1001,,1838,,,,,,64.0,U,77.1,U,50.9,U
USS0019L44S,Horse Meadow,38.84,-119.89,2608.2,2012,11,,174,,,,1,T,1219,,57,,T,1226,,,,1.50,,T,1130,,79,T,0809,,8160,,25.35,,T,,,43.0,T,52.4,T,33.6,T
USC00048758,TAHOE CITY,39.1678,-120.1428,1898.9,2012,56,,,,,,5,7,1219,+,,,,,3.11,,7,0121,,88,7,0812,,,,37.14,,7,,,45.3,7,58.4,7,32.1,7
USC00047668,SALINAS NUMBER 2,36.6594,-121.6663,13.7,2012,,,,,,,,,,,,,,,,,2882,,,,,,,,,,,
USR0000CBZE,BRAZIE RANCH CALIFORNIA,41.6853,-122.5942,914.4,2012,1066,,,,,,16,U,0117,,,,,,,,103,U,0812,,4881,,,,,,54.8,U,66.1,U,43.4,U
USC00044394,JOHNSON VALLEY,34.3591,-116.5378,965.3,2012,2208,,0,,0,7,24,7,1231,+,0,,7,1231,+,0.0,T,7,1231,,0.40,,7,0713,,106,7,0711,,2686,,1.61,,7,0.0,T,7,64.2,7,77.1,7,51.2,7
USR0000CMOD,MODOC NWR CALIFORNIA,41.4589,-120.3536,1335.0,2012,225,,,,,,-3,U,0117,,,,,,,,100,U,0814,,6374,,,,,,48.5,U,64.8,U,32.2,U
USC00046572,OXNARD WEATHER FORECAST OFFICE,34.2066,-119.1375,15.8,2012,381,,,,,,36,7,0308,+,,,,,1.62,,7,0325,,93,7,1105,,1869,,9.34,,7,,,61.2,7,70.2,7,52.2,7
USC00046336,OAKLAND MUSEUM,37.79833,-122.26417,9.1,2012,130,,,,,,34,7,0117,,,,,,2.46,,7,0314,,95,7,1002,,2327,,27.06,,7,,,59.0,7,67.4,7,50.6,7
US1CASA0030,LA RIVIERA 1.0 NE,38.5753,-121.34,19.5,2012,,,,,,,,,,,,,1.53,,N,0121,,,,,,25.90,,N,,,,,,,,
USR0000CGAS,GASQUET CALIFORNIA,41.8458,-123.9792,152.4,2012,383,,,,,,27,U,0114,,,,,,,,106,U,0814,,3903,,,,,,55.4,U,66.9,U,43.9,U
USS0019L43S,Forestdale Creek,38.68,-119.96,2443.6,2012,23,,209,,,,1,T,1219,,86,,T,1226,,,,3.70,,T,1130,,81,T,0811,,7658,,55.58,,T,,,44.5,T,54.8,T,34.3,T
USC00043083,FIVE POINTS 5 SSW,36.3642,-120.1561,86.9,2012,2210,,,,,,24,7,0117,,,,,,1.14,,7,0317,,112,7,0811,,2415,,4.57,,7,,,65.2,7,80.5,7,49.9,7
USS0020L06S,Echo Peak,38.85,-120.08,2337.8,2012,43,,200,,,,8,T,1219,,82,,T,0318,,,,3.70,,T,0120,,80,T,0804,,7272,,66.16,,T,,,45.5,T,53.5,T,37.6,T
US1CAPC0013,NEWCASTLE 1.6 SSE,38.851,-121.123,243.8,2012,,,,,,,,,,,,,2.25,,N,0121,,,,,,36.62,,N,,,,,,,,
US1CAPC0014,LINCOLN 4.3 SSE,38.8423,-121.2837,52.4,2012,,,,,,,,,,,,,1.92,,N,0413,,,,,,27.94,,N,,,,,,,,
USC00047672,SALINAS DAM,35.3372,-120.5038,424.3,2012,1369,,,,,,19,7,0117,,,,,,2.23,,7,0413,,111,7,0811,+,2636,,15.43,,7,,,62.1,7,78.9,7,45.3,7
USC00049855,YOSEMITE PARK HEADQUARTERS,37.75,-119.5897,1224.7,2012,960,,,,,,18,7,0118,,,,,,2.95,,7,0121,,100,7,0812,,,,35.60,,7,,,55.6,7,68.5,7,42.7,7
USR0000CMNC,MONTECITO CALIFORNIA,34.4614,-119.6481,457.2,2012,1425,,,,,,37,U,0318,+,,,,,,,101,U,0914,,1673,,,,,,64.4,U,72.2,U,56.5,U
USC00048760,TAHOMA,39.06,-120.1292,1924.8,2012,18,,128,,38,7,4,7,1220,+,46,,7,1226,,24.5,,7,1223,,2.95,,7,0121,,86,7,0812,,8231,,39.44,,7,220.5,,7,43.1,7,55.0,7,31.2,7
USS0019L42S,Summit Meadow,38.4,-119.54,2838.6,2012,1,,179,,,,-1,T,1219,,51,,T,1223,,,,1.90,,T,0121,,77,T,0803,,8656,,26.84,,T,,,41.7,T,50.5,T,32.8,T
USR0000CQUA,QUARTZ HILL CALIFORNIA,41.5992,-122.9336,1287.8,2012,964,,,,,,19,U,0116,,,,,,,,101,U,0814,+,5396,,,,,,53.0,U,63.4,U,42.6,U
USR0000CMLR,MALLORY RIDGE CALIFORNIA,37.8172,-121.7789,621.8,2012,1411,,,,,,32,U,0319,,,,,,,,102,U,0813,+,3270,,,,,,59.9,U,68.0,U,51.9,U
US1CASR0014,JOSHUA TREE 2.0 S,34.0973,-116.3178,1039.1,2012,,,,,,,,,,,,,0.66,,N,0216,,,,,,3.72,,N,,,,,,,,
USC00049866,YREKA,41.7036,-122.6408,800.1,2012,646,,,,,,11,7,0117,,,,,,2.15,,7,1202,,103,7,0814,+,5514,,21.31,,7,,,52.2,7,67.2,7,37.3,7
USC00046597,PACIFIC HOUSE,38.7583,-120.503,1051.6,2012,626,,41,,16,7,17,7,0118,+,12,,7,0319,,7.2,,7,0318,,4.80,,7,0121,,100,7,0814,+,5031,,63.43,,7,54.9,,7,52.9,7,66.5,7,39.3,7
USR0000CQUI,QUINCY RD CALIFORNIA,39.9733,-120.9419,1066.8,2012,610,,,,,,7,U,0117,,,,,,,,107,U,0816,,4760,,,,,,53.9,U,71.6,U,36.2,U
USS0019L41S,Burnside Lake,38.72,-119.89,2477.7,2012,0,,195,,,,-17,T,1219,,70,,T,1226,+,,,3.30,,T,1130,,78,T,0811,,9465,,44.57,,T,,,39.7,T,53.3,T,26.1,T
USR0000COPA,OPAL MOUNTAIN CALIFORNIA,35.1542,-117.1756,987.6,2012,2639,,,,,,28,U,0319,+,,,,,,,110,U,0711,,2335,,,,,,66.3,U,78.5,U,54.1,U
USR0000CBVR,BEAVER CAMP LOC CALIFORNIA,38.4883,-120.325,1524.0,2012,,,,,,,,,,,,,,,,,3757,,,,,,,,,,,
USC00041912,COLFAX,39.0911,-120.948,725.4,2012,1556,,,,,,24,7,1219,+,,,,,5.01,,7,1130,,108,7,0811,,3085,,60.25,,7,,,60.4,7,72.8,7,48.0,7
US1CASR0009,APPLE VALLEY 2.6 SE,34.5043,-117.1808,896.4,2012,,,,,,,,,,,,,0.68,,N,0713,,,,,,3.62,,N,,,,,,,,
US1CALA0036,PASADENA 2.0 SE,34.1392,-118.1161,225.2,2012,,,,,,,,,,,,,1.17,,N,0317,,,,,,11.18,,N,,,,,,,,
USR0000CDIA,DIABLO GRANDE CALIFORNIA,37.3292,-121.2939,563.9,2012,1723,,,,,,31,U,0117,,,,,,,,102,U,0812,+,2719,,,,,,62.2,U,71.4,U,53.1,U
US1CABT0002,OROVILLE 2.7 ENE,39.514,-121.518,163.1,2012,,,,,,,,,,,,,2.52,,N,0121,,,,,,36.98,,N,,,,,,,,
US1CABT0005,OROVILLE 4.8 E,39.4932,-121.477,203.6,2012,,,,,,,,,,,,,3.12,,N,1222,,,,,,40.64,,N,,,,,,,,
US1CALA0031,LANCASTER 6.5 ENE,34.7184,-118.0659,721.2,2012,,,,,,,,,,,,,0.61,,N,0414,,,,,,1.93,,N,,,,,,,,
US1CASA0002,SACRAMENTO 8.0 NE,38.635,-121.3611,29.0,2012,,,,,,,,,,,,,1.60,,N,0413,,,,,,28.42,,N,,,,,,,,
USR0000CBEA,BEAR PEAK CALIFORNIA,35.8842,-118.0517,2507.9,2012,117,,,,,,7,U,0307,,,,,,,,82,U,0711,+,6284,,,,,,47.8,U,55.7,U,39.9,U
US1CABT0007,CHICO 1.2 NNW,39.7697,-121.8138,76.5,2012,,,,,,,,,,,,,2.32,,N,1130,,,,,,31.13,,N,,,,,,,,
USR0000CBDY,BRADLEY CALIFORNIA,35.8644,-120.8031,163.7,2012,1193,,,,,,15,U,0117,,,,,,,,112,U,0811,,2686,,,,,,61.4,U,79.0,U,43.7,U
USR0000CJUA,JUANITA LAKE CALIFORNIA,41.7861,-122.0056,1645.9,2012,545,,,,,,13,U,1231,+,,,,,,,99,U,0813,+,6143,,,,,,49.9,U,62.2,U,37.7,U
USC00041244,BUTTONWILLOW,35.4028,-119.47,68.6,2012,,,,,,,,,,,,,,,,,2205,,,,,,,,,,,
USR0000CBEN,BENTON CALIFORNIA,37.8431,-118.4778,1661.2,2012,782,,,,,,2,U,0117,,,,,,,,104,U,0711,,4852,,,,,,54.1,U,72.8,U,35.4,U
USC00044997,LIVERMORE,37.6922,-121.7691,146.3,2012,947,,,,,,25,7,0117,+,,,,,1.68,,7,1130,,105,7,0811,+,2592,,14.67,,7,,,60.8,7,74.4,7,47.3,7
USC00043669,GROVELAND 2,37.8444,-120.2258,853.4,2012,907,,,,,,18,7,0117,,,,,,2.55,,7,0121,,103,7,0815,,4226,,38.17,,7,,,56.3,7,70.5,7,42.0,7
USR0000CWOF,WOFFORD HEIGHTS CALIFORNIA,35.7217,-118.4989,960.1,2012,1698,,,,,,22,U,0117,,,,,,,,105,U,0809,,3172,,,,,,61.2,U,74.3,U,48.2,U
USR0000CJUN,JUNIPER CREEK CALIFORNIA,41.3322,-120.4725,1332.6,2012,366,,,,,,0,U,1231,,,,,,,,99,U,0812,,6205,,,,,,49.5,U,64.3,U,34.7,U
USR0000CLYO,LYONS VALLEY CALIFORNIA,39.1258,-123.0736,975.4,2012,1261,,,,,,24,U,0116,+,,,,,,,102,U,0813,,4129,,,,,,56.8,U,65.0,U,48.6,U
USR0000CJUL,JULIAN CALIFORNIA,33.0758,-116.5908,1292.4,2012,1010,,,,,,24,U,1219,,,,,,,,97,U,0812,+,3518,,,,,,58.7,U,68.7,U,48.7,U
USR0000CLYT,LYTLE CREEK CALIFORNIA,34.2339,-117.4803,851.0,2012,1627,,,,,,29,U,1229,,,,,,,,109,U,0809,,2162,,,,,,63.6,U,77.7,U,49.4,U
USC00042574,DUNSMUIR TRTMNT PLANT,41.1833,-122.2736,661.4,2012,642,,36,,16,7,15,7,0117,,19,,7,1226,+,19.0,,7,1221,,4.89,,7,1130,,105,7,0814,,4797,,77.20,,7,62.9,,7,53.7,7,68.1,7,39.3,7
USR0000CSEC,SECRET TOWN CALIFORNIA,39.1836,-120.8847,861.4,2012,1213,,,,,,21,U,0117,,,,,,,,104,U,0811,,3611,,,,,,58.3,U,71.1,U,45.6,U
USW00023213,SANTA ROSA SONOMA CO AIRPORT,38.5038,-122.8102,34.7,2012,316,,,,,,21,X,0117,,,,,,2.77,,X,0120,,103,X,0616,,2994,,41.12,,X,,,57.9,X,72.0,X,43.8,X
USC00041497,CANYON DAM,40.1705,-121.0886,1389.9,2012,,,,,,,,,,,,,,,,,5940,,,,,,,,,,,
USC00042346,DELANO,35.7683,-119.26,92.0,2012,2036,,,,,,27,7,0119,+,,,,,0.78,,7,0317,,109,7,0618,,2282,,6.01,,7,,,65.0,7,78.5,7,51.6,7
USC00045853,MORGAN HILL,37.1363,-121.6025,114.3,2012,,,,,,,,,,,,,,,99,H,1003,,,,,,,,,,73.3,H,,
USC00041253,CACHUMA LAKE,34.5822,-119.9817,242.3,2012,816,,,,,,23,7,1221,,,,,,1.55,,7,0317,,109,7,1002,+,,,13.48,,7,,,61.5,7,79.7,7,43.3,7
USC00268186,TOPAZ LAKE,38.6944,-119.5454,1557.8,2012,1001,,,,2,7,8,7,1220,,,,4.0,,7,1230,,1.30,,7,1202,,100,7,0810,+,,,7.28,,7,9.6,,7,54.9,7,69.2,7,40.6,7
US1CALA0014,CANYON COUNTRY 2.6 E,34.4268,-118.4275,492.9,2012,,,,,,,,,,,,,1.59,,N,0414,,,,,,7.08,,N,,,,,,,,
US1CALA0011,REDONDO BEACH 2.6 S,33.8192,-118.3771,35.7,2012,,,,,0,N,,,,,0.0,,N,1231,+,1.96,,N,0326,,,,,,8.53,,N,0.0,,N,,,,,,
USR0000CUHL,UHL HOT SPRINGS,35.8889,-118.6333,1133.9,2012,1348,,,,,,22,U,0319,+,,,,,,,104,U,0810,,3447,,,,,,59.5,U,72.9,U,46.1,U
US1CALA0010,WHITTIER 2.9 WNW,33.9862,-118.0664,52.1,2012,,,,,,,,,,,,,0.94,,N,0326,,,,,,9.81,,N,,,,,,,,
USC00046719,PASADENA,34.1483,-118.1447,263.3,2012,2110,,,,,,39,7,1231,,,,,,1.19,,7,0317,,106,7,1001,+,992,,12.96,,7,,,68.2,7,79.8,7,56.6,7
USR0000CSDC,SODA CREEK CALIFORNIA,39.425,-122.9772,540.4,2012,717,,,,,,11,U,0117,,,,,,,,110,U,0813,+,4285,,,,,,55.6,U,73.3,U,38.0,U
USR0000CBBR,BIG BAR CALIFORNIA,40.7333,-123.2333,457.2,2012,1271,,,,,,20,U,0117,,,,,,,,114,U,0813,,3853,,,,,,58.1,U,72.9,U,43.3,U
USC00044534,KETTLEMAN CITY,36.0067,-119.96,73.2,2012,2257,,,,,,22,7,0118,+,,,,,0.72,,7,0413,,109,7,0618,,2641,,4.73,,7,,,64.7,7,78.8,7,50.6,7
USC00042598,EAGLE MOUNTAIN,33.8089,-115.4508,296.6,2012,4181,,,,,,36,7,1222,,,,,,1.93,,7,0801,,114,7,0711,,1155,,4.59,,7,,,74.0,7,84.5,7,63.6,7
USR0000CHOR,HORSE THIEF SPRINGS CALIFORNIA,35.7706,-115.9092,1524.0,2012,2015,,,,,,21,U,0307,,,,,,,,104,U,0711,,3181,,,,,,62.2,U,72.4,U,52.1,U
US1CACC0004,WALNUT CREEK 1.7 SSE,37.8783,-122.0338,74.1,2012,,,,,,,,,,,,,2.17,,N,1130,,,,,,27.82,,N,,,,,,,,
USR0000CDGR,DEVILS GARDEN CALIFORNIA,41.53,-120.6714,1530.7,2012,452,,,,,,-7,U,1231,,,,,,,,95,U,0815,+,6375,,,,,,49.0,U,61.1,U,37.0,U
USR0000CBCN,BELL CANYON CALIFORNIA,33.5417,-117.5917,213.4,2012,1257,,,,,,36,U,1219,,,,,,,,106,U,0914,,1366,,,,,,64.7,U,75.1,U,54.4,U
US1CACC0001,MARTINEZ 0.8 SSE,37.9898,-122.1085,76.8,2012,,,,,,,,,,,,,2.00,,N,0121,,,,,,25.87,,N,,,,,,,,
US1CASA0015,SACRAMENTO 4.1 NE,38.6086,-121.4122,14.0,2012,,,,,,,,,,,,,1.60,,N,1203,,,,,,25.19,,N,,,,,,,,
USR0000CHOO,HOOPA CALIFORNIA,41.0478,-123.6714,114.3,2012,702,,,,,,25,U,0117,,,,,,,,107,U,0813,+,3595,,,,,,57.6,U,69.3,U,46.0,U
USC00045860,MORONGO VALLEY NORTH,34.0864,-116.5622,958.6,2012,2373,,0,,0,7,28,7,0319,,0,T,7,1002,+,0.0,T,7,1002,+,0.70,,7,0319,,104,7,0711,,2220,,4.31,,7,0.0,T,7,66.0,7,77.3,7,54.7,7
USR0000CHOL,HORSE LAKE CALIFORNIA,40.6306,-120.5028,1554.5,2012,283,,,,,,-7,U,1231,+,,,,,,,98,U,0804,,6616,,,,,,48.2,U,64.1,U,32.2,U
USR0000CSCN,SCORPION CALIFORNIA,41.1117,-122.6967,1341.1,2012,1238,,,,,,18,U,0117,,,,,,,,107,U,0813,,4504,,,,,,56.0,U,68.8,U,43.1,U
US1CASA0012,SACRAMENTO 2.0 SE,38.5499,-121.4374,10.4,2012,,,,,,,,,,,,,1.48,,N,1202,,,,,,26.36,,N,,,,,,,,
US1CACC0011,MARTINEZ 2.2 SW,37.9744,-122.1384,210.9,2012,,,,,,,,,,,,,1.99,,N,0121,,,,,,29.09,,N,,,,,,,,
USR0000CBAR,BARNABY CALIFORNIA,38.0281,-122.7022,378.0,2012,,,,,,,,,,,,,,,,,3238,,,,,,,,,,,
US1CACC0010,LAFAYETTE 1.9 WSW,37.8883,-122.1526,157.9,2012,,,,,,,,,,,,,2.68,,N,0121,,,,,,34.37,,N,,,,,,,,
USR0000CFIV,FIVE MILE CALIFORNIA,35.8717,-117.9183,1264.9,2012,2885,,,,,,28,U,0307,,,,,,,,106,U,0711,,2280,,,,,,66.9,U,77.0,U,56.8,U
USR0000CDES,DESCANSO CALIFORNIA,32.8569,-116.6222,1060.7,2012,1189,,,,,,23,U,1231,+,,,,,,,102,U,0810,+,3005,,,,,,60.6,U,76.3,U,44.9,U
USR0000CBAT,BATTERSON CALIFORNIA,37.2319,-119.5083,963.2,2012,1863,,,,,,24,U,0319,,,,,,,,105,U,0811,+,3101,,,,,,61.7,U,73.8,U,49.7,U
USR0000CYOL,YOLLA BOLLA CALIFORNIA,40.3375,-123.0656,1378.8,2012,795,,,,,,16,U,0116,,,,,,,,101,U,0813,+,4983,,,,,,53.2,U,66.4,U,40.0,U
USC00044303,IRVINE RANCH,33.72,-117.723,164.6,2012,1305,,,,,,31,7,1219,,,,,,0.89,,7,0413,,108,7,0914,,1361,,7.05,,7,,,65.2,7,79.4,7,51.1,7
US1CACC0018,WALNUT CREEK 1.4 SSE,37.8846,-122.0285,84.4,2012,,,,,,,,,,,,,1.96,,N,0121,,,,,,26.25,,N,,,,,,,,
USC00047813,SAN JACINTO R S,33.7869,-116.9583,475.5,2012,2207,,,,,,28,7,1221,,,,,,,,110,7,0809,,1706,,,,,,66.9,7,82.4,7,51.4,7
US1CASA0003,FOLSOM 3.4 ESE,38.6546,-121.0907,181.1,2012,,,,,,,,,,,,,2.23,,N,0121,,,,,,35.17,,N,,,,,,,,
US1CASA0005,CARMICHAEL 0.9 NE,38.6429,-121.3059,39.6,2012,,,,,,,,,,,,,1.52,,N,0121,,,,,,25.97,,N,,,,,,,,
US1CASA0007,FOLSOM 1.2 SSE,38.66,-121.1395,110.3,2012,,,,,,,,,,,,,2.25,,N,1201,,,,,,31.96,,N,,,,,,,,
US1CASB0004,SANTA BARBARA 1.9 NE,34.45,-119.7,247.2,2012,,,,,,,,,,,,,1.27,,N,0317,,,,,,13.81,,N,,,,,,,,
USW00023244,MOFFETT FEDERAL AIRFIELD,37.40583,-122.04806,11.9,2012,295,,0,,0,W,29,W,0117,,0,,W,1231,+,0.0,,W,1231,+,1.52,,W,1223,,95,W,1002,,2112,,13.11,,W,0.0,,W,59.8,W,69.0,W,50.6,W
USR0000CFIS,FISH CREEK MOUNTAIN CALIFORNIA,32.9903,-116.0669,231.6,2012,,,,,,,,,,,,,,,,,476,,,,,,,,,,,
USC00040192,ANAHEIM,33.8647,-117.8425,102.1,2012,1737,,,,,,36,7,1231,+,,,,,2.00,,7,0512,,105,7,0914,,944,,16.44,,7,,,67.4,7,78.5,7,56.4,7
USR0000CFIG,FIGUEROA CALIFORNIA,34.7331,-120.0067,975.4,2012,1775,,,,,,31,U,0318,+,,,,,,,102,U,0810,,2306,,,,,,63.4,U,72.8,U,53.9,U
USR0000CBAC,BACKBONE CALIFORNIA,40.8892,-123.1422,1432.6,2012,977,,,,,,19,U,1219,+,,,,,,,101,U,0813,,4998,,,,,,53.7,U,64.1,U,43.2,U
USC00043463,GLENNVILLE,35.7269,-118.7006,957.1,2012,610,,,,,,14,7,0117,,,,,,,,100,7,0812,+,,,,,,,55.0,7,71.3,7,38.8,7
USC00046730,PASO ROBLES,35.6277,-120.6855,222.5,2012,978,,,,,,18,7,0119,+,,,,,1.28,,7,0413,,111,7,0811,,2947,,12.82,,7,,,60.1,7,77.5,7,42.7,7
US1CALA0001,GLENDALE 2.4 WSW,34.1689,-118.2947,155.8,2012,,,,,0,N,,,,,0.0,,N,1231,+,1.36,,N,0326,,,,,,9.17,,N,0.0,,N,,,,,,
USR0000CWIL,WILEY RIDGE CALIFORNIA,34.3717,-118.8408,501.4,2012,1511,,,,,,36,U,0318,,,,,,,,100,U,1001,+,1796,,,,,,64.3,U,72.7,U,55.8,U
USW00023254,CONCORD BUCHANAN FIELD,37.9917,-122.055,5.5,2012,762,,,,,,27,X,0116,,,,,,1.76,,X,1202,,103,X,0616,,2593,,19.27,,X,,,60.2,X,72.7,X,47.8,X
USR0000CHLD,HOPLAND CALIFORNIA,39.0308,-123.0806,817.5,2012,,,,,,,,,,,,,,,,,3520,,,,,,,,,,,
USW00023259,MONTEREY PENINSUL AIRPORT,36.58806,-121.84528,50.3,2012,33,,0,,0,W,29,W,0118,,0,,W,1231,+,0.0,,W,1231,+,1.95,,W,1130,,90,W,1002,+,3306,,15.92,,W,0.0,,W,56.0,W,63.8,W,48.1,W
USR0000CSAD,SADDLEBACK BUTTE CALIFORNIA,34.6847,-117.8208,789.4,2012,,,,,,,,,,,,,,,,,2973,,,,,,,,,,,
USW00023258,MODESTO CITY CO AIRPORT,37.6241,-120.9505,22.3,2012,1672,,,,,,23,X,0117,,,,,,0.90,,X,0413,,105,X,0813,+,2562,,12.74,,X,,,63.1,X,76.3,X,49.9,X
USR0000CSAC,SACRAMENTO NWR CALIFORNIA,39.4172,-122.1825,36.6,2012,1588,,,,,,25,U,0117,,,,,,,,106,U,0813,+,2430,,,,,,62.9,U,75.8,U,50.0,U
USW00023257,MERCED MUNICIPAL AIRPORT,37.28472,-120.51278,46.3,2012,1927,,0,,0,W,21,W,0117,,0,,W,1231,+,0.0,,W,1231,+,0.90,,W,0413,,108,W,0811,,2565,,10.36,,W,0.0,,W,63.9,W,78.0,W,49.8,W
USC00042147,CRESCENT CITY,41.7958,-124.2147,13.1,2012,0,,,,,,28,7,1231,+,,,,,4.91,,7,0330,,72,7,1001,,5003,,94.47,,7,,,50.9,7,57.3,7,44.6,7
USC00046508,ORLEANS,41.3088,-123.5316,122.8,2012,,,,,,,,,,,,,,,,,3634,,,,,,,,,,,
USC00046506,ORLAND,39.7458,-122.1997,77.4,2012,1636,,,,,,22,7,0117,,,,,,,,108,7,0814,,2371,,,,,,62.8,7,76.4,7,49.2,7
USR0000CHLR,HOLLISTER CALIFORNIA,36.8422,-121.3622,123.1,2012,372,,,,,,24,U,0117,,,,,,,,106,U,1002,,2801,,,,,,58.7,U,71.7,U,45.8,U
USR0000CLTU,LITTLE TUJUNGA CALIFORNIA,34.2936,-118.3608,423.7,2012,1488,,,,,,33,U,0319,+,,,,,,,103,U,0809,+,1640,,,,,,64.6,U,76.6,U,52.5,U
USC00045892,MOUNTAIN PASS 1 SE,35.45917,-115.53111,1456.0,2012,1319,,6,,4,7,18,7,1220,,2,,7,1215,+,2.0,,7,1215,+,1.62,,7,0823,,100,7,0712,+,4254,,10.54,,7,8.0,,7,57.6,7,69.5,7,45.8,7
USR0000CSAU,SAUGUS CALIFORNIA,34.425,-118.525,442.0,2012,2076,,,,,,32,U,0117,,,,,,,,109,U,1001,+,1593,,,,,,66.4,U,79.9,U,52.9,U
USR0000CWHC,WHITE CLOUD CALIFORNIA,39.3167,-120.8375,1316.7,2012,1285,,,,,,23,U,0319,+,,,,,,,101,U,0813,,3920,,,,,,57.4,U,66.9,U,47.9,U
US1CASC0032,CAMPBELL 2.8 N,37.3185,-121.9608,42.4,2012,,,,,,,,,,,,,1.57,,N,1224,,,,,,15.74,,N,,,,,,,,
USW00023225,BLUE CANYON AIRPORT,39.2774,-120.7102,1608.1,2012,650,,,,,,18,X,0116,,,,,,5.45,,X,1130,,89,X,0813,+,,,73.85,,X,,,52.8,X,59.3,X,46.2,X
USR0000CLST,LAS TABLAS CALIFORNIA,35.6564,-120.9242,303.0,2012,853,,,,,,16,U,0117,,,,,,,,111,U,0809,,3262,,,,,,58.9,U,77.3,U,40.5,U
USR0000CJOH,JOHNSONDALE CALIFORNIA,35.9717,-118.545,1432.6,2012,394,,,,,,8,U,0117,,,,,,,,102,U,0711,,5032,,,,,,52.7,U,71.5,U,33.9,U
USC00043244,FREMONT,37.5422,-122.0158,11.6,2012,233,,,,,,29,7,0116,,,,,,1.55,,7,1223,,94,7,0616,,2497,,14.24,,7,,,59.0,7,69.0,7,49.1,7
USW00023230,OAKLAND METROPOLITAN INTERNATIONAL AIRPORT,37.72139,-122.22083,1.8,2012,55,,0,,0,W,28,W,0117,,0,,W,1231,+,0.0,,W,1231,+,1.88,,W,1130,,95,W,1002,,,,22.94,,W,0.0,,W,57.0,W,65.6,W,48.4,W
USW00023232,SACRAMENTO EXECUTIVE AIRPORT,38.5069,-121.495,4.6,2012,1276,,,,,,24,X,0117,,,,,,1.68,,X,1130,,106,X,0711,,2641,,21.16,,X,,,61.7,X,74.9,X,48.4,X
US1CASC0042,SUNNYVALE 3.6 S,37.3344,-122.018,51.8,2012,,,,,,,,,,,,,1.84,,N,1224,,,,,,16.82,,N,,,,,,,,
USW00023237,STOCKTON METROPOLITAN AIRPORT,37.8891,-121.2258,7.9,2012,1328,,,,,,22,X,0117,,,,,,1.39,,X,1130,,105,X,0811,+,2744,,13.57,,X,,,61.7,X,75.7,X,47.8,X
USW00023234,SAN FRANCISCO INTERNATIONAL AIRPORT,37.6197,-122.3647,2.4,2012,79,,,,,,34,X,0117,,,,,,1.96,,X,1130,,93,X,1002,,2899,,21.46,,X,,,57.6,X,64.9,X,50.2,X
USW00023233,SALINAS MUNICIPAL AIRPORT,36.6636,-121.6081,22.6,2012,99,,,,,,27,X,0117,,,,,,2.22,,X,1130,,101,X,1002,,2643,,13.73,,X,,,58.5,X,68.3,X,48.7,X
US1CASC0040,LOS GATOS 5.4 SSW,37.156,-121.9875,506.6,2012,,,,,,,,,,,,,3.77,,N,0121,,,,,,52.58,,N,,,,,,,,
US1CASB0001,GOLETA 3.7 WNW,34.4397,-119.8961,48.2,2012,,,,,,,,,,,,,1.64,,N,0121,,,,,,15.20,,N,,,,,,,,
US1CASD0071,FALLBROOK 2.3SE,33.3516,-117.2248,188.4,2012,,,,,,,,,,,,,1.55,,N,1213,,,,,,11.24,,N,,,,,,,,
US1CAYB0001,CHALLENGE BROWNSVILLE 1.3 WSW,39.4518,-121.2801,624.5,2012,,,,,,,,,,,,,6.19,,N,0314,,,,,,78.12,,N,,,,,,,,
USC00043256,FRESNO 5 NE,36.7672,-119.7092,103.0,2012,,,,,,,,,,,,,,,,,2009,,,,,,,,,,,
US1CAYB0003,MARYSVILLE 5.0 N,39.2241,-121.594,22.3,2012,,,,,,,,,,,,,1.83,,N,1222,,,,,,23.27,,N,,,,,,,,
USC00046521,OROVILLE,39.5177,-121.553,52.1,2012,,,,,,,27,7,0116,,,,,,,,,,,,,,,,,,,,49.3,7
USC00047851,SAN LUIS OBISPO POLY,35.3056,-120.6619,93.9,2012,402,,,,,,23,7,0222,,,,,,2.00,,7,0412,,107,7,1001,,2070,,21.52,,7,,,60.7,7,73.0,7,48.5,7
USW00023285,LIVERMORE MUNICIPAL AIRPORT,37.6927,-121.8144,119.8,2012,920,,,,,,23,X,0116,,,,,,1.85,,X,1130,,106,Z,0616,,2660,,15.36,,X,,,60.6,X,73.7,Z,47.5,X
US1CASD0057,VISTA 1.2SE,33.1862,-117.2311,153.9,2012,,,,,,,,,,,,,1.12,,N,0318,,,,,,9.27,,N,,,,,,,,
US1CASD0056,CARLSBAD 8.7SE,33.0946,-117.2214,184.4,2012,,,,,,,,,,,,,0.90,,N,1213,,,,,,8.87,,N,,,,,,,,
USC00047195,QUINCY,39.9366,-120.9475,1042.4,2012,,,,,,,,,,,,,,,100,7,0814,,5716,,,,,,,,66.3,7,,
US1CASC0011,CAMBRIAN PARK 2.2 SE,37.2341,-121.8974,76.8,2012,,,,,,,,,,,,,1.82,,N,1224,,,,,,17.96,,N,,,,,,,,
USR0000CSNL,SAN LUIS NWR CALIFORNIA,37.1822,-120.7939,19.8,2012,1398,,,,,,20,U,0117,,,,,,,,105,U,0812,+,2602,,,,,,62.1,U,77.4,U,46.8,U
USR0000CSNR,SANTA RITA CALIFORNIA,36.3478,-120.5978,1524.0,2012,1021,,,,,,20,U,0319,,,,,,,,97,U,0811,,4090,,,,,,56.5,U,65.2,U,47.7,U
USR0000CMCB,MILL CREEK BDF CALIFORNIA,34.0836,-117.0347,899.2,2012,2065,,,,,,30,U,1219,,,,,,,,107,U,0807,,1916,,,,,,65.7,U,79.4,U,52.0,U
USR0000CSOL,SOLDIER MOUNTAIN CALIFORNIA,40.9258,-121.5856,1130.8,2012,853,,,,,,12,U,1231,,,,,,,,102,U,0804,,5014,,,,,,53.5,U,64.7,U,42.3,U
USR0000CWWO,WHITE WOLF CALIFORNIA,37.8511,-119.65,2446.0,2012,35,,,,,,2,U,1219,,,,,,,,84,U,0811,+,7137,,,,,,45.5,U,58.0,U,33.1,U
US1CASC0003,SUNNYVALE 1.9 SE,37.3647,-122.0042,25.9,2012,,,,,,,,,,,,,1.34,,N,1224,,,,,,13.89,,N,,,,,,,,
USC00043824,HAT CREEK,40.9316,-121.5433,919.0,2012,,,,,,,,,,,,,,,,,5159,,,,,,,,,,,
US1CASD0061,EL CAJON 2.8SE,32.7724,-116.9197,209.1,2012,,,,,,,,,,,,,1.17,,N,0318,,,,,,8.81,,N,,,,,,,,
US1CASD0060,SAN DIEGO 9.5 NNW,32.8428,-117.2208,86.6,2012,,,,,,,,,,,,,1.72,,N,1213,,,,,,8.64,,N,,,,,,,,
US1CASD0063,ESCONDIDO 7.2 SE,33.0563,-116.9925,483.1,2012,,,,,,,,,,,,,1.50,,N,1213,,,,,,11.87,,N,,,,,,,,
US1CASD0062,CARLSBAD 3.8SE,33.1187,-117.3044,51.2,2012,,,,,,,,,,,,,1.15,,N,1213,,,,,,7.94,,N,,,,,,,,
US1CASN0016,SEBASTOPOL 4.5 WSW,38.3753,-122.9035,128.9,2012,,,,,,,,,,,,,3.87,,N,0121,,,,,,54.27,,N,,,,,,,,
US1CASD0047,CHULA VISTA 3.1SE,32.6044,-117.0508,61.0,2012,,,,,,,,,,,,,0.76,,N,1214,,,,,,6.64,,N,,,,,,,,
US1CASN0007,SEBASTOPOL 3.7 WSW,38.3852,-122.8928,116.7,2012,,,,,0,N,,,,,0.0,,N,1231,+,3.84,,N,0121,,,,,,51.59,,N,0.0,,N,,,,,,
USR0000CMAN,MANZANITA LAKE CALIFORNIA,40.54,-121.5803,1725.2,2012,46,,,,,,5,U,1228,+,,,,,,,91,U,0813,,7065,,,,,,45.6,U,59.1,U,32.2,U
USR0000CBLD,BLUE DOOR CALIFORNIA,41.0547,-120.3375,1711.5,2012,208,,,,,,1,U,1231,,,,,,,,94,U,0804,,6935,,,,,,46.9,U,59.5,U,34.3,U
US1CASD0049,SAN DIEGO 9 NE,32.8168,-117.0586,89.0,2012,,,,,,,,,,,,,1.60,,N,1213,,,,,,9.67,,N,,,,,,,,
USW00023293,SAN JOSE,37.3591,-121.924,15.5,2012,,,,,,,,,,,,,1.17,,X,1223,,,,2300,,12.77,,X,,,,,,,,
USS0020H06S,Cedar Pass,41.58,-120.3,2142.7,2012,128,,195,,,,7,T,1219,,47,,T,0405,,,,1.70,,T,1202,,85,T,0817,,7807,,29.16,,T,,,44.4,T,52.6,T,36.2,T
USC00042500,DOWNIEVILLE,39.5633,-120.8238,888.5,2012,,,,,,,,,,,,,,,,,4647,,,,,,,,,,,
US1CASC0018,SAN JOSE 3.0 WSW,37.3086,-121.9272,48.5,2012,,,,,,,,,,,,,1.39,,N,1224,,,,,,15.36,,N,,,,,,,,
USR0000CBLT,BEN BOLT CALIFORNIA,38.5908,-120.9336,275.8,2012,1514,,,,,,24,U,0117,,,,,,,,108,U,0813,+,2962,,,,,,61.3,U,74.9,U,47.7,U
US1CASC0012,SAN JOSE 3.5 ENE,37.319,-121.7887,61.0,2012,,,,,,,,,,,,,1.03,,N,1224,,,,,,15.12,,N,,,,,,,,
US1CASC0015,SARATOGA 0.5 N,37.2748,-122.0227,113.7,2012,,,,,,,,,,,,,2.16,,N,1224,,,,,,24.97,,N,,,,,,,,
US1CASN0001,ROHNERT PARK 1.6 WNW,38.3522,-122.7274,28.3,2012,,,,,,,,,,,,,2.86,,N,0121,,,,,,33.11,,N,,,,,,,,
USC00048045,SCOTIA,40.48306,-124.10361,41.5,2012,23,,,,,,30,7,0117,,,,,,3.70,,7,0327,,92,7,1002,+,3313,,56.04,,7,,,55.5,7,63.6,7,47.4,7
USW00093138,PALM SPRINGS REGIONAL AIRPORT,33.8222,-116.5043,124.7,2012,4669,,0,,0,W,33,W,1220,,0,,W,1231,+,0.0,,W,1231,+,0.60,,W,0830,,119,W,0710,,789,,2.00,,W,0.0,,W,75.9,W,89.5,W,62.3,W
US1CASD0054,DESCANSO 0.3 WNW,32.8538,-116.6212,1049.1,2012,,,,,,,,,,,,,2.28,,N,0318,,,,,,18.39,,N,,,,,,,,
USS0019L08S,Leavitt Meadows,38.3,-119.55,2194.0,2012,16,,123,,,,-11,T,1231,,35,,T,1226,,,,3.70,,T,1130,,86,T,0803,,7374,,35.16,,T,,,45.7,T,60.0,T,31.3,T
US1CASD0053,SAN DIEGO COUNTRY ESTATES 1.5,33.0158,-116.8068,449.3,2012,,,,,,,,,,,,,1.41,,N,0318,,,,,,12.78,,N,,,,,,,,
US1CASD0052,POWAY 4.7NNW,33.0261,-117.0466,225.2,2012,,,,,,,,,,,,,1.12,,N,0414,,,,,,9.10,,N,,,,,,,,
USC00049152,U C L A,34.0697,-118.4427,131.1,2012,906,,0,,0,7,39,7,0228,,0,,7,1231,+,0.0,,7,1231,+,1.02,,7,1130,,98,7,0915,,1171,,10.44,,7,0.0,,7,64.2,7,72.0,7,56.4,7
USR0000CBKD,BLACK DIAMOND CALIFORNIA,37.95,-121.8844,487.7,2012,1102,,,,,,33,U,0116,,,,,,,,103,U,0616,,3145,,,,,,59.5,U,67.3,U,51.7,U
USR0000CDOG,DOG VALLEY CALIFORNIA,39.5619,-120.0478,1821.5,2012,240,,,,,,-4,U,1231,,,,,,,,100,U,0811,,6729,,,,,,48.0,U,65.0,U,31.1,U
US1CASD0035,RANCHO BERNARDO 0.8SE,33.0179,-117.0625,147.2,2012,,,,,,,,,,,,,1.16,,N,0414,,,,,,10.72,,N,,,,,,,,
US1CASD0034,CARLSBAD 2.2SE,33.1427,-117.3206,6.7,2012,,,,,,,,,,,,,1.36,,N,1213,,,,,,8.09,,N,,,,,,,,
US1CASD0039,VISTA 1.5NNW,33.2192,-117.2536,127.1,2012,,,,,,,,,,,,,0.90,,N,0318,,,,,,9.41,,N,,,,,,,,
USC00041428,CAMP PARDEE,38.2486,-120.8433,200.6,2012,,,,,,,,,,,,,,,,,2585,,,,,,,,,,,
USC00041424,CAMPO,32.6263,-116.4699,801.6,2012,972,,,,,,22,7,0229,,,,,,1.83,,7,0318,,106,7,0710,,3040,,13.85,,7,,,59.8,7,78.4,7,41.2,7
USR0000CMAD,MAD RIVER CALIFORNIA,40.4633,-123.5239,845.8,2012,438,,,,,,19,U,0117,+,,,,,,,104,U,0813,,4690,,,,,,53.0,U,66.5,U,39.6,U
USR0000CSMI,SAN MIGUEL CALIFORNIA,32.685,-116.9736,129.5,2012,1067,,,,,,40,U,1219,,,,,,,,106,U,0914,,1276,,,,,,64.6,U,73.8,U,55.5,U
USR0000CDOY,DOYLE CALIFORNIA,40.0222,-120.1056,1292.4,2012,893,,,,,,4,U,1231,+,,,,,,,103,U,0712,,5100,,,,,,54.1,U,69.5,U,38.7,U
USS0019L07S,Sonora Pass,38.31,-119.6,2690.5,2012,1,,199,,,,-3,T,1219,,67,,T,1226,,,,2.00,,T,1201,+,80,T,0711,,8546,,35.16,,T,,,42.2,T,52.4,T,31.9,T
USC00040332,ARVIN,35.2111,-118.8336,137.2,2012,,,,,,,26,7,0122,+,,,,,0.70,,7,1224,,112,7,0618,,,,5.01,,7,,,66.5,7,80.3,7,52.7,7
US1CASD0025,PAUMA VALLEY 1.7 SE,33.2905,-116.9568,345.0,2012,,,,,,,,,,,,,1.27,,N,0318,,,,,,13.38,,N,,,,,,,,
US1CASD0024,CHULA VISTA 2.5SE,32.6168,-117.0519,81.1,2012,,,,,,,,,,,,,0.88,,N,1214,,,,,,8.65,,N,,,,,,,,
USW00023273,SANTA MARIA PUBLIC AIRPORT,34.8994,-120.4486,73.8,2012,111,,,,,,27,X,0118,+,,,,,1.18,,X,0317,,100,X,1001,,2735,,10.93,,X,,,58.2,X,69.7,X,46.7,X
US1CASD0023,CARDIFF BY THE SEA 0.2 E,33.0267,-117.2712,81.1,2012,,,,,,,,,,,,,1.10,,N,1213,,,,,,7.70,,N,,,,,,,,
USR0000CFRE,FREMONT CANYON CALIFORNIA,33.8081,-117.7111,542.8,2012,1565,,,,,,38,U,1219,+,,,,,,,102,U,0914,,1516,,,,,,65.0,U,73.6,U,56.3,U
USW00023275,UKIAH MUNICIPAL AIRPORT,39.12583,-123.20083,183.2,2012,948,,0,,,,20,W,0116,,0,,W,1231,+,,,2.81,,W,0327,,107,W,0813,+,3214,,41.20,,W,,,59.1,W,74.0,W,44.3,W
US1CASD0029,SAN DIEGO 7.9NE,32.8057,-117.0732,73.8,2012,,,,,,,,,,,,,1.05,,N,1214,,,,,,8.66,,N,,,,,,,,
US1CASD0028,SANTEE 1.8NW,32.8562,-116.9961,143.3,2012,,,,,,,,,,,,,1.33,,N,1214,,,,,,10.66,,N,,,,,,,,
USR0000COCR,OAK CREEK CALIFORNIA,36.8425,-118.2594,1479.8,2012,1984,,,,,,20,U,0307,,,,,,,,102,U,0711,,3248,,,,,,61.9,U,73.1,U,50.7,U
USW00023272,SAN FRANCISCO DOWNTOWN,37.7705,-122.4269,45.7,2012,59,,,,,,40,X,1219,+,,,,,1.47,,X,0314,,94,X,1002,,2975,,25.49,,X,,,56.8,X,62.9,X,50.7,X
US1CASD0026,FALLBROOK 6.5 NE,33.4363,-117.1603,419.7,2012,,,,,,,,,,,,,1.48,,N,0318,,,,,,12.42,,N,,,,,,,,
USR0000CFRI,FRIEND MOUNTAIN CALIFORNIA,40.505,-123.3417,1219.2,2012,710,,,,,,16,U,0116,,,,,,,,102,U,0813,,5214,,,,,,52.3,U,63.8,U,40.8,U
USW00023271,SACRAMENTO 5 ESE,38.5552,-121.4183,11.6,2012,1621,,,,0,W,28,X,0117,,,,0.0,,W,1231,+,1.79,,X,1130,,107,X,0813,,2299,,22.67,,X,0.0,,W,63.5,X,76.3,X,50.7,X
USW00023277,WATSONVILLE MUNICIPAL AIRPORT,36.93583,-121.78861,48.8,2012,,,0,,0,W,,,0,,W,1231,+,0.0,,W,1231,+,2.07,,W,1130,,,,,,22.63,,W,0.0,,W,,,,,,
USC00043855,HAYFIELD PUMP PLANT,33.7044,-115.6289,417.6,2012,3587,,,,,,25,7,1222,,,,,,1.40,,7,0801,,113,7,0814,+,1571,,4.75,,7,,,71.3,7,87.5,7,55.1,7
US1CAMA0001,OAKHURST 7.5 N,37.4415,-119.6316,1302.7,2012,,,,,23,N,,,,,14.7,,N,0318,,5.90,,N,0121,,,,,,53.15,,N,91.4,,N,,,,,,
US1CAMA0002,RAYMOND 6.8 NE,37.2717,-119.802,549.2,2012,,,,,,,,,,,,,2.80,,N,0317,,,,,,24.95,,N,,,,,,,,
USS0019L06S,Poison Flat,38.51,-119.63,2357.9,2012,0,,180,,,,-6,T,1219,,47,,T,1223,,,,2.50,,T,1202,,81,T,0811,+,8542,,31.36,,T,,,42.5,T,55.5,T,29.4,T
USR0000CDNK,DINKEY CALIFORNIA,37.0664,-119.0394,1727.6,2012,95,,,,,,3,U,1231,,,,,,,,91,U,0811,+,6481,,,,,,47.9,U,63.7,U,32.1,U
USR0000CSLA,SLATER BUTTE CALIFORNIA,41.8586,-123.3525,1423.4,2012,788,,,,,,17,U,0115,,,,,,,,101,U,0813,,5911,,,,,,50.7,U,60.6,U,40.9,U
US1CASD0030,LA JOLLA 2.1 SE,32.8257,-117.2501,149.7,2012,,,,,,,,,,,,,1.34,,N,1213,,,,,,10.11,,N,,,,,,,,
US1CASD0014,BORREGO SPRINGS 2.4 WSW,33.2225,-116.3904,236.8,2012,,,,,0,N,,,,,0.0,,N,1231,+,0.66,,N,0318,,,,,,3.87,,N,0.0,,N,,,,,,
US1CASD0013,JAMUL 9.9ESE,32.6802,-116.7061,834.2,2012,,,,,,,,,,,,,2.14,,N,0318,,,,,,18.20,,N,,,,,,,,
US1CASD0012,POWAY 3.2NE,32.9956,-117.0044,367.6,2012,,,,,,,,,,,,,1.18,,N,1214,,,,,,11.46,,N,,,,,,,,
USR0000CDMC,DEMOCRAT CALIFORNIA,35.5317,-118.6303,718.1,2012,,,,,,,,,,,,,,,,,2331,,,,,,,,,,,
US1CASD0011,ENCINITAS 2.7N,33.0757,-117.292,57.3,2012,,,,,0,N,,,,,0.0,,N,1231,+,0.69,,N,0228,,,,,,5.24,,N,0.0,,N,,,,,,
USW00093110,OXNARD VENTURA CO AIRPORT,34.20083,-119.20694,11.0,2012,,,,,,,,,,,,,1.56,,W,0325,,,,1886,,9.50,,W,,,,,,,,
US1CASD0015,LA JOLLA 2.5SE,32.8254,-117.2397,154.8,2012,,,,,,,,,,,,,1.60,,N,1213,,,,,,9.92,,N,,,,,,,,
USW00093112,NORTH ISLAND NAS,32.7,-117.2,7.9,2012,1085,,,,,,40,W,1231,,,,,,1.30,,W,1213,,93,W,1017,,780,,7.53,,W,,,65.9,W,72.8,W,59.1,W
US1CASD0019,OCEANSIDE 5.6NE,33.2539,-117.3127,18.3,2012,,,,,,,,,,,,,1.13,,N,1213,,,,,,10.89,,N,,,,,,,,
US1CASM0014,BELMONT 0.7 WSW,37.5104,-122.3057,146.9,2012,,,0,,0,N,,,0,,N,1231,+,0.0,,N,1231,+,2.11,,N,1224,,,,,,25.34,,N,0.0,,N,,,,,,
USR0000CBIR,BIG ROCK CALIFORNIA,38.0394,-122.57,457.2,2012,523,,,,,,37,U,0227,+,,,,,,,100,U,0616,,3077,,,,,,57.9,U,66.6,U,49.2,U
USC00044712,LAKE SOLANO,38.492,-122.0039,57.0,2012,1461,,,,,,23,7,0118,+,,,,,2.12,,7,0123,,106,7,0814,+,2577,,29.98,,7,,,62.3,7,76.7,7,47.9,7
USR0000CBIP,BIG PINES CALIFORNIA,34.3789,-117.6919,2108.3,2012,550,,,,,,11,U,1219,,,,,,,,92,U,0711,,4528,,,,,,54.4,U,65.3,U,43.5,U
USC00045802,MONTEREY NWSFO,36.5927,-121.8555,37.2,2012,20,,,,,,30,7,0118,,,,,,1.88,,7,1130,,88,7,1002,,3713,,16.25,,7,,,55.1,7,62.1,7,48.1,7
USC00044957,LINDSAY,36.2032,-119.0545,132.6,2012,,,,,,,,,,,,,,,,,2783,,,,,,,,,,,
USW00093104,CHINA LAKE NAF,35.6875,-117.6931,679.7,2012,,,,,,,,,,,,,0.19,,W,0822,,,,,,1.00,,W,,,,,,,,
USW00093107,SAN DIEGO MIRAMAR NAS,32.86667,-117.13333,145.4,2012,990,,,,,,35,W,1231,+,,,,,0.66,,W,0227,,109,W,0914,,1550,,7.73,,W,,,63.8,W,74.7,W,53.0,W
USR0000CHUR,HURLEY CALIFORNIA,37.0153,-119.5678,366.1,2012,1457,,,,,,18,U,0118,+,,,,,,,108,U,0811,,3454,,,,,,60.1,U,75.9,U,44.3,U
US1CASD0003,IMPERIAL BEACH 3.3 E,32.5738,-117.0625,42.1,2012,,,,,,,,,,,,,1.16,,N,1213,,,,,,6.34,,N,,,,,,,,
USC00049185,UPPER SAN LEANDRO FILTERS,37.7719,-122.1675,120.1,2012,,,,,,,,,,,,,2.43,,7,1130,,,,,,27.43,,7,,,,,,,,
USS0020H02S,Crowder Flat,41.89,-120.75,1575.8,2012,,,76,,,,,,18,,T,1226,,,,1.30,,T,1202,,,,7153,,18.75,,T,,,,,,,,
US1CASD0001,SAN MARCOS 2.5 ENE,33.1472,-117.1316,203.0,2012,,,,,,,,,,,,,1.20,,N,0318,,,,,,11.13,,N,,,,,,,,
USR0000CSIV,SIMI VALLEY CALIFORNIA,34.2911,-118.8144,278.6,2012,,,,,,,,,,,,,,,,,1609,,,,,,,,,,,
US1CASD0006,EL CAJON 2.3ENE,32.8112,-116.9254,185.9,2012,,,,,,,,,,,,,1.16,,N,0318,,,,,,8.78,,N,,,,,,,,
US1CASD0004,OCEANSIDE 8.4NE,33.27,-117.2663,76.8,2012,,,,,,,,,,,,,1.37,,N,1213,,,,,,10.70,,N,,,,,,,,
US1CASM0001,PACIFICA 0.3 W,37.6121,-122.4825,69.2,2012,,,,,0,N,,,,,0.0,,N,1231,+,2.12,,N,1130,,,,,,31.31,,N,0.0,,N,,,,,,
US1CASD0009,EL CAJON 1.5WSW,32.7907,-116.987,221.6,2012,,,,,,,,,,,,,1.17,,N,1213,,,,,,8.90,,N,,,,,,,,
US1CASD0008,ESCONDIDO 5.2NNW,33.1852,-117.1282,449.3,2012,,,,,,,,,,,,,1.15,,N,0318,,,,,,11.22,,N,,,,,,,,
US1CASM0006,FOSTER CITY 1.3 SW,37.5488,-122.2587,2.1,2012,,,,,,,,,,,,,1.38,,N,1224,,,,,,20.52,,N,,,,,,,,
USR0000CYUR,YUROK CALIFORNIA,41.2897,-123.8575,150.9,2012,556,,,,,,28,U,0117,,,,,,,,107,U,0813,,3582,,,,,,56.9,U,69.1,U,44.8,U
USR0000CUND,UNDERWOOD CALIFORNIA,40.7219,-123.4953,792.5,2012,775,,,,,,22,U,0117,,,,,,,,106,U,0813,,4451,,,,,,54.7,U,67.5,U,42.0,U
US1CASM0007,HALF MOON BAY 0.5 SSW,37.463,-122.4408,16.5,2012,,,0,,0,N,,,0,,N,1231,+,0.0,,N,1231,+,1.92,,N,1224,,,,,,29.33,,N,0.0,,N,,,,,,
USC00041697,CHERRY VALLEY DAM,37.9747,-119.9161,1452.4,2012,,,,,,,,,,,,,,,,,4498,,,,,,,,,,,
US1CASD0010,ESCONDIDO 2.5 SSE,33.1055,-117.0482,210.3,2012,,,,,,,,,,,,,1.18,,N,1214,,,,,,11.04,,N,,,,,,,,
US1CASN0049,SEBASTOPOL 1.1 SSE,38.3842,-122.8191,51.2,2012,,,,,,,,,,,,,3.16,,N,0123,,,,,,33.26,,N,,,,,,,,
USR0000CSHQ,SHADEQUARTER CALIFORNIA,36.5672,-118.9556,1240.2,2012,1518,,,,,,23,U,0319,,,,,,,,98,U,0813,+,3457,,,,,,59.4,U,67.4,U,51.5,U
USS0020K30S,Squaw Valley G.C.,39.19,-120.26,2447.2,2012,16,,213,,,,6,T,1219,,98,,T,0318,,,,4.20,,T,0120,,76,T,0804,,8037,,70.37,,T,,,43.5,T,50.3,T,36.7,T
USW00093134,LOS ANGELES DOWNTOWN USC,34.0236,-118.2911,54.6,2012,1269,,,,,,39,X,1231,+,,,,,0.91,,X,0325,,103,X,0915,,1254,,8.17,,X,,,65.5,X,74.8,X,56.2,X
USC00042319,DEATH VALLEY,36.4622,-116.8669,-59.1,2012,6243,,0,,0,7,29,7,1222,,0,,7,1231,+,0.0,,7,1231,+,0.49,,7,1012,,128,7,0712,,1054,,1.67,,7,0.0,,7,79.6,7,94.0,7,65.3,7
USR0000CWPK,WHITAKER PEAK CALIFORNIA,34.5686,-118.7403,1255.8,2012,1672,,,,,,27,U,0319,+,,,,,,,101,U,0813,+,2985,,,,,,61.6,U,70.9,U,52.2,U
USR0000CFOU,FOUNTAIN SPRINGS CALIFORNIA,35.8922,-118.915,64.0,2012,1949,,,,,,24,U,0117,,,,,,,,109,U,0813,+,2647,,,,,,63.7,U,78.1,U,49.2,U
USR0000CFOR,FORESTHILL CALIFORNIA,39.0914,-120.7317,1327.4,2012,1067,,,,,,22,U,0319,+,,,,,,,98,U,0812,+,3923,,,,,,56.9,U,67.6,U,46.1,U
USR0000CBGR,BANGOR CALIFORNIA,39.3975,-121.3861,244.8,2012,1684,,,,,,24,U,0117,+,,,,,,,108,U,0811,,2673,,,,,,62.4,U,74.4,U,50.3,U
USC00040379,AUBERRY 2 NW,37.0919,-119.5128,637.0,2012,1969,,,,,,26,7,1218,+,,,,,3.45,,7,0121,,105,7,0811,+,3024,,26.13,,7,,,62.5,7,73.6,7,51.3,7
USC00040136,ALPINE,32.8358,-116.7774,516.6,2012,1277,,,,,,31,7,1219,,,,,,1.56,,Z,0414,,100,7,1001,,2047,,13.78,,Z,,,63.1,7,75.6,7,50.6,7
USR0000CYUC,YUCCA VALLEY CALIFORNIA,34.1233,-116.4078,993.6,2012,2116,,,,,,19,U,1220,,,,,,,,106,U,0710,,2723,,,,,,63.9,U,77.9,U,50.0,U
USC00043882,HEARST CASTLE,35.6841,-121.1683,465.1,2012,836,,,,,,34,7,1219,+,,,,,2.65,,7,0121,,98,7,1014,+,,,28.07,,7,,,60.1,7,68.7,7,51.5,7
US1CASN0028,SANTA ROSA 3.1 NW,38.4789,-122.744,42.7,2012,,,,,,,,,,,,,3.31,,N,0123,,,,,,42.07,,N,,,,,,,,
US1CASN0029,CLOVERDALE 3.2 ESE,38.781,-122.963,242.9,2012,,,,,,,,,,,,,3.98,,N,1130,,,,,,46.49,,N,,,,,,,,
USS0020K31S,Css Lab,39.33,-120.37,2089.4,2012,23,,201,,,,6,T,1219,,83,,T,0413,,,,4.40,,T,1130,,82,T,0811,,7395,,73.98,,T,,,45.3,T,55.7,T,34.9,T
USR0000CBEV,BEVERLY HILLS CALIFORNIA,34.125,-118.4122,384.0,2012,2219,,,,,,36,U,0228,,,,,,,,112,U,1001,+,894,,,,,,68.6,U,82.6,U,54.5,U
USR0000CWOL,WOLVERTON CALIFORNIA,36.445,-118.7033,1597.2,2012,1316,,,,,,19,U,0319,+,,,,,,,100,U,0809,,,,,,,,58.7,U,70.5,U,46.8,U
USR0000CBEU,BEAUMONT CALIFORNIA,33.9306,-116.95,793.7,2012,1950,,,,,,29,U,1231,,,,,,,,105,U,0812,+,2158,,,,,,64.8,U,77.6,U,52.1,U
USR0000CWOO,WOODACRE CALIFORNIA,37.9906,-122.6447,426.7,2012,679,,,,,,31,U,0116,,,,,,,,102,U,0616,,,,,,,,58.0,U,68.3,U,47.6,U
USR0000CSHA,SHAVER CALIFORNIA,37.135,-119.2561,1751.4,2012,152,,,,,,6,U,1231,,,,,,,,92,U,0811,+,6218,,,,,,48.9,U,64.1,U,33.7,U
USC00044500,KENTFIELD,37.9566,-122.5447,44.2,2012,,,,,,,29,7,0117,,,,,,4.17,,7,0314,,,,,,57.50,,7,,,,,,,47.0,7
USC00043417,GILROY,37.003,-121.5608,59.1,2012,742,,,,,,20,7,0119,,,,,,3.30,,7,0121,,104,7,1003,,2163,,23.06,,7,,,60.9,7,74.8,7,47.0,7
US1CASN0023,WINDSOR 1.4 SE,38.5317,-122.78,42.7,2012,,,,,,,,,,,,,3.79,,N,0123,,,,,,42.79,,N,,,,,,,,
US1CANV0014,LAKE OF THE PINES 1.0 WSW,39.0322,-121.0774,480.4,2012,,,,,,,,,,,,,2.56,,N,0121,,,,,,46.63,,N,,,,,,,,
USR0000CLHO,LOST HORSE CALIFORNIA,34.0178,-116.1878,1280.2,2012,1509,,,,,,17,U,1228,+,,,,,,,102,U,0710,,3294,,,,,,60.7,U,74.6,U,46.7,U
USS0020K04S,Independence Camp,39.45,-120.29,2134.5,2012,8,,147,,,,0,T,1231,,44,,T,0412,,,,2.80,,T,1130,,84,T,0804,,7893,,32.15,,T,,,44.1,T,55.7,T,32.6,T
USR0000CASC,ASH CREEK CALIFORNIA,41.2769,-121.9794,975.4,2012,106,,,,,,1,U,1231,+,,,,,,,102,U,0813,,6432,,,,,,48.0,U,66.1,U,29.9,U
USR0000CASH,ASH VALLEY CALIFORNIA,41.0519,-120.6861,1554.5,2012,106,,,,,,-11,U,1231,,,,,,,,97,U,0814,,6871,,,,,,46.5,U,62.7,U,30.4,U
US1CASN0090,FORESTVILLE 0.7 SW,38.4733,-122.8974,61.3,2012,,,,,,,,,,,,,4.55,,N,0123,,,,,,57.61,,N,,,,,,,,
USR0000CRUS,RUSH CREEK CALIFORNIA,41.2944,-120.8639,1463.0,2012,630,,,,,,14,U,0116,,,,,,,,94,U,0804,,6088,,,,,,50.2,U,59.5,U,40.8,U
US1CASL0001,SANTA MARGARITA 8.9 ESE,35.3805,-120.4525,611.1,2012,,,,,,,,,,,,,1.81,,N,0413,,,,,,13.85,,N,,,,,,,,
USC00049781,WOODLAND 1 WNW,38.6829,-121.794,20.4,2012,1604,,,,,,24,7,0118,+,,,,,2.38,,7,1130,,106,7,0726,,2351,,24.41,,7,,,63.4,7,76.4,7,50.3,7
USS0020K05S,Independence Lake,39.43,-120.31,2545.7,2012,42,,240,,,,6,T,0307,,103,,T,0413,+,,,3.10,,T,1202,,80,T,0811,,8222,,54.06,,T,,,43.2,T,50.7,T,35.6,T
USR0000CPOP,POPPY PARK CALIFORNIA,34.7325,-118.3833,841.2,2012,,,,,,,,,,,,,,,,,2723,,,,,,,,,,,
USR0000CPOT,POTRERO CALIFORNIA,32.6058,-116.6089,714.8,2012,1087,,,,,,27,U,1219,,,,,,,,102,U,0813,,2824,,,,,,60.7,U,76.1,U,45.4,U
US1CASN0080,GLEN ELLEN 1.5 N,38.3778,-122.5343,102.7,2012,,,,,,,,,,,,,5.20,,N,1130,,,,,,53.06,,N,,,,,,,,
US1CASN0088,OCCIDENTAL 2.8 SW,38.3653,-122.9738,187.1,2012,,,,,,,,,,,,,3.28,,N,1130,,,,,,50.99,,N,,,,,,,,
USC00046263,NORTHRIDGE CAL STATE,34.2447,-118.525,275.5,2012,,,,,,,,,,,,,1.91,,7,0325,,,,,,10.31,,7,,,,,,,,
USC00047111,POWAY VALLEY,33.0175,-117.0292,197.5,2012,1284,,,,,,26,7,0119,,,,,,1.64,,7,1213,,102,7,0915,+,1594,,10.44,,7,,,64.6,7,76.9,7,52.3,7
US1CASZ0006,BOULDER CREEK 3.6 NE,37.1811,-122.0911,525.5,2012,,,,,,,,,,,,,2.85,,N,0121,,,,,,36.66,,N,,,,,,,,
US1CASZ0009,APTOS 2.6 E,36.9961,-121.8536,116.7,2012,,,,,,,,,,,,,2.53,,N,0121,,,,,,32.39,,N,,,,,,,,
US1CAED0010,PLACERVILLE 0.8 NE,38.7387,-120.7846,612.6,2012,,,,,1,N,,,,,2.5,,N,0318,,2.41,,N,0317,,,,,,43.07,,N,3.0,,N,,,,,,
US1CASN0071,ROHNERT PARK 0.9 SW,38.3392,-122.7113,29.3,2012,,,,,,,,,,,,,2.84,,N,0121,,,,,,36.22,,N,,,,,,,,
USR0000CRSP,ROSE PEAK CALIFORNIA,37.5019,-121.7355,932.7,2012,1021,,,,,,26,U,0115,,,,,,,,95,U,0811,,3938,,,,,,56.8,U,63.7,U,49.8,U
USC00049785,WOODLAND HILLS PIERCE COLLEGE,34.1819,-118.5744,240.8,2012,2001,,,,,,29,7,1221,,,,,,1.50,,7,0325,,109,7,0809,,,,9.82,,7,,,66.7,7,82.4,7,51.1,7
USR0000CLGA,LOS GATOS CALIFORNIA,37.2028,-121.9428,609.6,2012,942,,,,,,30,U,0116,,,,,,,,99,U,1002,,2837,,,,,,59.6,U,69.4,U,49.8,U
USR0000CJAR,JARBO GAP CALIFORNIA,39.7358,-121.4889,759.0,2012,1618,,,,,,23,U,0117,,,,,,,,104,U,0813,+,3410,,,,,,59.8,U,69.2,U,50.3,U
US1CASM0022,WOODSIDE 3.4 S,37.3754,-122.2637,485.2,2012,,,,,,,,,,,,,5.70,,N,1201,,,,,,69.32,,N,,,,,,,,
USC00041838,CLOVERDALE,38.8,-123.0175,100.6,2012,1035,,,,,,25,7,0116,,,,,,,,109,7,0616,,,,,,,,61.5,7,76.4,7,46.6,7
USR0000CLEO,LEO CARRILLO CALIFORNIA,34.0456,-118.9358,15.2,2012,444,,,,,,40,U,1219,+,,,,,,,91,U,1001,+,1677,,,,,,62.0,U,70.1,U,54.0,U
USC00040741,BIG BEAR LAKE,34.243,-116.917,2058.3,2012,68,,34,,11,7,8,7,1111,,16,,7,0319,+,16.0,,7,0318,,,,89,7,0711,,5966,,11.68,,7,58.5,,7,49.4,7,64.4,7,34.3,7
USC00040983,BORREGO DESERT PARK,33.2559,-116.4036,246.9,2012,4476,,,,,,33,7,1221,,,,,,0.75,,7,0318,,116,7,0710,,,,3.63,,7,,,75.2,7,89.6,7,60.9,7
USR0000CPNN,PINNACLES CALIFORNIA,36.4708,-121.1472,402.9,2012,1395,,,,,,22,U,0117,,,,,,,,114,U,0811,,2414,,,,,,62.4,U,79.9,U,44.8,U
US1CASN0063,WINDSOR 0.6 NNE,38.5534,-122.7929,47.9,2012,,,,,,,,,,,,,4.22,,N,0123,,,,,,48.07,,N,,,,,,,,
USR0000CAPT,ALDER POINT CALIFORNIA,40.1867,-123.5903,281.3,2012,573,,,,,,22,U,0117,,,,,,,,107,U,0813,,3766,,,,,,56.4,U,68.2,U,44.7,U
USW00093193,FRESNO YOSEMITE INTERNATIONAL,36.78,-119.7194,101.5,2012,2599,,0,,0,X,28,X,0117,,0,,X,1231,+,0.0,,X,1231,+,1.51,,X,0317,,111,X,0811,,2245,,9.99,,X,0.0,,X,66.7,X,79.4,X,54.1,X
US1CASZ0024,FELTON 4.5 NNE,37.1051,-122.0468,255.4,2012,,,,,,,,,,,,,4.98,,N,0121,,,,,,58.85,,N,,,,,,,,
USR0000CLDR,LADDER BUTTE CALIFORNIA,40.8072,-121.2967,1752.6,2012,498,,,,,,12,U,1231,,,,,,,,90,U,0804,+,5983,,,,,,49.7,U,59.3,U,40.1,U
USW00093197,SANTA MONICA MUNICIPAL AIRPORT,34.01583,-118.45139,53.0,2012,634,,0,,,,40,W,1230,+,0,,W,1231,+,,,0.99,,W,1130,,96,W,0915,,1564,,8.39,,W,,,62.9,W,70.6,W,55.3,W
US1CASZ0021,BOULDER CREEK 3.0 NW,37.1693,-122.1641,266.7,2012,,,,,,,,,,,,,4.58,,N,0121,,,,,,60.36,,N,,,,,,,,
USR0000CCSH,CASHMAN CALIFORNIA,40.0017,-120.915,1377.7,2012,1003,,,,,,14,U,0117,,,,,,,,105,U,0811,,4668,,,,,,55.0,U,69.6,U,40.3,U
US1CASK0002,YREKA 4.5 S,41.6651,-122.6208,895.2,2012,,,,,,,,,,,,,2.34,,N,1202,,,,,,21.80,,N,,,,,,,,
US1CASK0009,FORKS OF SALMON 1.0 NW,41.2688,-123.3336,507.2,2012,,,,,,,,,,,,,3.18,,N,1202,,,,,,56.79,,N,,,,,,,,
USC00042934,FAIRFIELD,38.2736,-122.0677,12.2,2012,,,,,,,,,,,,,,,107,7,0616,,2518,,,,,,,,74.0,7,,
USC00049325,VICTORVILLE PUMP PLANT,34.5349,-117.3058,871.1,2012,2193,,,,,,19,7,1220,,,,,,0.99,,7,0818,,112,7,0712,,2896,,4.44,,7,,,64.0,7,79.8,7,48.2,7
USS0019L17S,Lobdell Lake,38.44,-119.37,2814.2,2012,2,,134,,,,-8,T,1219,,50,,T,1223,,,,2.30,,T,1222,,80,T,0711,,8961,,23.66,,T,,,41.0,T,52.3,T,29.6,T
USW00093184,SANTA ANA JOHN WAYNE AIRPORT,33.68,-117.86639,16.5,2012,1289,,0,,,,38,W,1231,+,0,,W,1231,+,,,0.79,,W,0325,,102,W,0915,,1139,,6.91,,W,,,65.8,W,74.1,W,57.5,W
USC00046074,NAPA STATE HOSPITAL,38.2777,-122.2647,10.7,2012,553,,,,,,23,7,0117,,,,,,2.23,,7,0121,,101,7,0616,,2512,,32.15,,7,,,59.9,7,72.9,7,46.9,7
USR0000CCRN,CORNING CALIFORNIA,39.9389,-122.1697,89.6,2012,1848,,,,,,16,U,0117,,,,,,,,112,U,0813,,2693,,,,,,63.0,U,76.1,U,49.8,U
USS0020L10S,Fallen Leaf,38.93,-120.05,1900.7,2012,,,127,,,,,,30,,T,1226,,,,4.00,,T,1202,,,,7497,,41.35,,T,,,,,,,,
USC00042706,EL CAJON,32.8005,-116.928,150.9,2012,1388,,,,,,31,7,1220,,,,,,1.31,,7,1213,,103,7,1001,+,1460,,9.37,,7,,,65.2,7,77.5,7,53.0,7
USR0000CCRA,CRANE FLAT LOOKOUT CALIFORNIA,37.7617,-119.8247,2025.1,2012,427,,,,,,14,U,1219,+,,,,,,,88,U,0811,+,5239,,,,,,51.5,U,59.8,U,43.1,U
USS0020K25S,Ward Creek NUMBER 3,39.14,-120.22,2028.4,2012,3,,202,,,,2,T,1219,,77,,T,1226,,,,5.70,,T,1130,,84,T,0811,,7701,,81.18,,T,,,44.6,T,57.8,T,31.4,T
USR0000CROU,ROUND MOUNTAIN,41.4272,-121.4639,1602.6,2012,610,,,,,,11,U,1231,,,,,,,,95,U,0811,,6325,,,,,,49.3,U,59.4,U,39.2,U
USR0000CPKR,PARK RIDGE CALIFORNIA,36.7242,-118.9425,2298.2,2012,253,,,,,,12,U,0319,+,,,,,,,85,U,0811,,5366,,,,,,50.4,U,59.1,U,41.8,U
USR0000CCRE,CRESTVIEW CALIFORNIA,37.745,-118.9833,2316.5,2012,17,,,,,,-14,U,1231,,,,,,,,90,U,0803,,7718,,,,,,44.7,U,63.3,U,26.2,U
USR0000CROS,ROSE VALLEY CALIFORNIA,34.5431,-119.1842,1015.3,2012,476,,,,,,11,U,0117,,,,,,,,102,U,0810,+,4112,,,,,,55.4,U,75.8,U,35.1,U
USR0000CCRZ,CRAZY PEAK CALIFORNIA,41.9919,-123.6036,1210.1,2012,372,,,,,,18,U,0307,+,,,,,,,94,U,0812,,5614,,,,,,50.4,U,60.5,U,40.4,U
USC00040521,BARSTOW,34.8927,-117.0219,676.7,2012,2833,,0,,0,7,22,7,1221,,0,,7,1231,+,0.0,,7,1231,+,0.47,,7,0414,,111,7,0712,,2538,,2.41,,7,0.0,,7,66.5,7,80.9,7,52.2,7
USC00042941,FAIRMONT,34.705,-118.4297,932.7,2012,2073,,,,,,24,7,0117,,,,,,1.37,,7,0326,,105,7,0813,+,,,8.27,,7,,,63.7,7,75.8,7,51.6,7
USR0000CANZ,ANZA CALIFORNIA,33.555,-116.673,1194.8,2012,932,,,,,,20,U,1231,,,,,,,,100,U,0810,,3572,,,,,,58.2,U,72.7,U,43.8,U
USC00041614,CEDARVILLE,41.5301,-120.1791,1428.9,2012,730,,,,,,-1,7,0118,,,,,,,,102,7,0813,,6041,,,,,,50.8,7,66.3,7,35.4,7
US1CASF0004,SAN FRANCISCO 1.1 SW,37.765,-122.4348,59.1,2012,,,,,,,,,,,,,1.93,,N,0314,,,,,,30.00,,N,,,,,,,,
USR0000CCRR,CARPENTER RIDGE CALIFORNIA,40.0686,-121.5825,1466.7,2012,876,,,,,,19,U,0116,,,,,,,,96,U,0812,,,,,,,,53.6,U,62.2,U,45.0,U
USR0000CCRT,CRANSTON CALIFORNIA,33.7403,-116.8414,594.4,2012,2386,,,,,,32,U,1220,+,,,,,,,111,U,0809,,1595,,,,,,67.5,U,83.7,U,51.2,U
USC00049111,TWITCHELL DAM,34.988,-120.3211,177.4,2012,549,,,,,,27,7,0119,,,,,,,,104,7,1001,,1750,,,,,,61.8,7,74.6,7,49.0,7
USR0000CNFO,NORTH FORK CALIFORNIA,37.2331,-119.5047,829.1,2012,,,,,,,,,,,,,,,,,3137,,,,,,,,,,,
USC00042713,EL CENTRO 2 SSW,32.7669,-115.5617,-9.1,2012,,,,,,,,,,,,,0.38,,7,1214,,118,7,0813,,854,,1.23,,7,,,,,90.0,7,,
US1CAMP0004,CATHEYS VALLEY 1.2 S,37.4152,-120.0998,357.2,2012,,,,,,,,,,,,,1.80,,N,0121,,,,,,23.09,,N,,,,,,,,
USS0019L39S,Spratt Creek,38.67,-119.82,1863.9,2012,152,,89,,,,4,T,1231,,23,,T,1223,,,,3.50,,T,1130,,91,T,0811,,6298,,31.96,,T,,,48.9,T,62.0,T,35.7,T
US1CAMP0002,MARIPOSA 12.5 E,37.4613,-119.7417,899.8,2012,,,,,,,,,,,,,2.99,,N,0317,,,,,,33.89,,N,,,,,,,,
USC00049102,TWENTYNINE PALMS 12 E WONDER VALLEY,34.1206,-115.85,419.4,2012,3937,,0,,0,7,22,7,1221,,0,,7,1231,+,0.0,,7,1231,+,1.02,,7,0830,,116,7,0711,,1741,,3.98,,7,0.0,,7,71.7,7,86.5,7,56.9,7
USR0000CROD,RODEO VALLEY,39.6681,-123.3211,740.1,2012,452,,,,,,21,U,1219,,,,,,,,100,U,0813,,4179,,,,,,53.7,U,65.6,U,41.8,U
USR0000CROC,ROCK CREEK,37.5514,-118.6672,2145.8,2012,253,,,,,,-6,U,1228,,,,,,,,94,U,0711,,5828,,,,,,49.9,U,65.9,U,34.0,U
USR0000CLAP,LA PANZA CALIFORNIA,35.3811,-120.1875,496.8,2012,1078,,,,,,10,U,0117,,,,,,,,109,U,0811,,3560,,,,,,58.8,U,77.2,U,40.4,U
USR0000CALD,ALDER SPRINGS CALIFORNIA,39.6514,-122.7236,1310.6,2012,1065,,,,,,22,U,0116,,,,,,,,97,U,0813,+,4355,,,,,,55.7,U,64.8,U,46.5,U
USR0000CLAU,LAUFMAN CALIFORNIA,40.1417,-120.3533,1767.8,2012,759,,,,,,7,U,1231,+,,,,,,,101,U,0811,+,5504,,,,,,52.5,U,66.9,U,38.1,U
USC00048273,SKYLINE RIDGE,37.3133,-122.185,691.9,2012,718,,,,,,27,7,1219,+,,,,,4.43,,7,1130,,95,7,1002,+,3739,,51.74,,7,,,56.0,7,65.0,7,47.1,7
USR0000CLAS,LASSEN LODGE CALIFORNIA,40.3442,-121.7136,1267.7,2012,1386,,,,,,18,U,0116,,,,,,,,105,U,0813,,4134,,,,,,57.2,U,68.3,U,46.0,U
USS0019L13S,Virginia Lakes Ridge,38.07,-119.23,2878.8,2012,10,,162,,,,-2,T,1219,,54,,T,1223,,,,2.00,,T,1130,,78,T,0809,+,8299,,25.06,,T,,,42.8,T,52.3,T,33.2,T
USW00094299,ALTURAS MUNICIPAL AIRPORT,41.49139,-120.56444,1333.5,2012,210,,,,,,-6,W,1231,+,,,,,1.18,,W,1202,,99,W,0815,+,6728,,10.28,,W,,,47.5,W,64.7,W,30.3,W
USR0000CLAR,LAURAL MOUNTAIN CALIFORNIA,35.4783,-117.6989,1338.1,2012,2307,,,,,,26,U,1219,+,,,,,,,104,U,0811,+,2888,,,,,,63.9,U,73.6,U,54.1,U
USS0020K27S,Tahoe City Cross,39.17,-120.15,2071.7,2012,43,,131,,,,9,T,1219,,44,,T,1226,,,,3.20,,T,1130,,84,T,0804,,6934,,44.78,,T,,,46.6,T,57.4,T,35.9,T
USR0000CLAH,LA HONDA CALIFORNIA,37.3053,-122.255,265.8,2012,139,,,,,,28,U,0117,,,,,,,,101,U,1002,,3450,,,,,,55.9,U,67.5,U,44.2,U
USR0000CPIL,PILOT HILL CALIFORNIA,38.8325,-121.0086,365.8,2012,1282,,,,,,21,U,0117,,,,,,,,105,U,0813,+,3159,,,,,,60.0,U,73.1,U,46.8,U
USR0000CPIK,PIKE CO LOOKOUT CALIFORNIA,39.475,-121.2025,1132.0,2012,1221,,,,,,25,U,0117,,,,,,,,96,U,0812,,3732,,,,,,57.6,U,66.3,U,49.0,U
USS0020K03S,Independence Creek,39.49,-120.28,1967.8,2012,8,,161,,,,-4,T,1231,,29,,T,0331,,,,3.20,,T,1130,,87,T,0811,,7838,,34.76,,T,,,44.1,T,58.8,T,29.5,T
USR0000CTRI,TRINITY CAMP CALIFORNIA,40.7864,-122.8045,1008.3,2012,895,,,,,,18,U,0117,,,,,,,,100,U,0813,,5018,,,,,,53.6,U,63.9,U,43.4,U
USR0000CALT,LOS ALTOS CALIFORNIA,37.3581,-122.1472,196.6,2012,451,,,,,,32,U,1219,+,,,,,,,103,U,1002,+,2554,,,,,,59.4,U,71.5,U,47.3,U
USR0000CTRM,TRIMMER CALIFORNIA,36.9111,-119.305,469.4,2012,2185,,,,,,26,U,0117,,,,,,,,110,U,0811,,2683,,,,,,63.9,U,77.1,U,50.7,U
USR0000CLAY,LAYTONVILLE CALIFORNIA,39.7022,-123.485,554.7,2012,739,,,,,,19,U,0117,,,,,,,,108,U,0813,,3938,,,,,,56.2,U,70.9,U,41.5,U
USR0000CTRA,LAS TRAMPAS CALIFORNIA,37.8339,-122.0669,536.4,2012,924,,,,,,31,U,0116,,,,,,,,103,U,0811,,3417,,,,,,58.3,U,67.2,U,49.4,U
USS0019L38S,Leavitt Lake,38.28,-119.61,2931.3,2012,0,,222,,,,-1,T,1219,+,135,,T,1226,,,,4.00,,T,1130,,72,T,0803,,8942,,56.57,,T,,,41.0,T,48.4,T,33.6,T
USR0000CALP,ALPINE CALIFORNIA,32.8336,-116.7392,622.1,2012,1645,,,,,,30,U,1219,,,,,,,,105,U,1001,,1729,,,,,,64.9,U,80.4,U,49.5,U
USW00053139,STOVEPIPE WELLS 1 SW,36.602,-117.1449,25.6,2012,5783,,,,,,32,R,1221,,,,,,0.29,,R,0822,,124,R,0711,,1167,,1.03,,R,,,78.1,R,90.3,R,65.8,R
USC00046657,PALOMAR MOUNTAIN OBSVTRY,33.378,-116.84,1691.6,2012,952,,16,,11,7,20,7,0307,,10,,7,0318,,10.0,,7,0318,,2.00,,7,0317,,92,7,0813,+,3380,,22.22,,7,37.5,,7,58.1,7,67.1,7,49.1,7
USR0000CFEN,FENCE MEADOW CALIFORNIA,36.9614,-119.175,1538.6,2012,1437,,,,,,19,U,0319,,,,,,,,101,U,0811,,,,,,,,58.3,U,67.7,U,49.0,U
USC00042294,DAVIS 2 WSW EXPERIMENTAL FARM,38.5349,-121.7761,18.3,2012,1186,,,,,,21,7,0117,,,,,,1.75,,7,1202,,105,7,0812,,2582,,21.59,,7,,,61.5,7,75.4,7,47.6,7
USC00046896,PINE FLAT DAM,36.821,-119.3374,187.5,2012,,,,,,,,,,,,,,,,,2519,,,,,,,,,,,
USC00044232,INDEPENDENCE,36.798,-118.2036,1204.0,2012,2500,,,,,,15,Z,1222,,,,,,1.32,,Z,0123,,111,Z,0712,,2967,,3.52,,Z,,,64.1,Z,80.6,Z,47.6,Z
USR0000CHIG,HIGH SIERRA CALIFORNIA,37.3147,-119.0383,2256.4,2012,154,,,,,,4,U,0319,,,,,,,,90,U,0711,+,6270,,,,,,48.5,U,62.4,U,34.5,U
USR0000CWEE,WEED AIRPORT CALIFORNIA,41.4789,-122.4539,893.1,2012,772,,,,,,13,U,0117,+,,,,,,,102,U,0813,+,5233,,,,,,53.3,U,65.9,U,40.7,U
USC00048606,STRAWBERRY VALLEY,39.563,-121.1077,1160.7,2012,,,,,,,,,,,,,,,,,4976,,,,,,,,,,,
USW00053150,YOSEMITE VILLAGE 12 W,37.7592,-119.8208,2017.8,2012,394,,,,,,13,R,1218,,,,,,3.70,,R,1130,,86,R,0811,,5703,,47.01,,R,,,50.5,R,57.4,R,43.6,R
USW00053151,FALLBROOK 5 NE,33.4392,-117.1904,347.5,2012,1514,,,,,,35,R,1219,,,,,,1.25,,R,1213,,107,R,1001,,1413,,11.57,,R,,,65.5,R,77.6,R,53.4,R
USW00053152,SANTA BARBARA 11 W,34.4141,-119.8796,5.5,2012,66,,,,,,33,R,1221,,,,,,1.44,,R,0121,,90,R,1105,,2897,,13.53,,R,,,58.0,R,66.8,R,49.2,R
USC00044484,KELSEY 1 N,38.8088,-120.8208,609.6,2012,,,,,,,,,,,,,,,,,,,46.28,,7,,,,,,,,
USR0000CWES,WESTWOOD CALIFORNIA,40.3067,-120.9,1767.8,2012,447,,,,,,10,U,1231,+,,,,,,,92,U,0814,,6381,,,,,,48.9,U,58.3,U,39.5,U
USC00044259,INDIO FIRE STATION,33.7086,-116.2152,-6.4,2012,4757,,,,,,35,7,1220,,,,,,0.55,,7,0910,,117,7,0710,,855,,1.83,,7,,,76.3,7,88.3,7,64.2,7
USC00047767,SAN FRANCISCO OCEANSIDE,37.728,-122.5052,2.4,2012,,,,,,,31,7,1216,,,,,,,,82,7,1020,+,3781,,,,,,54.2,7,59.5,7,48.9,7
USR0000CLOP,LOS PRIETOS CALIFORNIA,34.5358,-119.7833,310.9,2012,1416,,,,,,29,U,1111,+,,,,,,,113,U,0811,+,1876,,,,,,63.9,U,81.7,U,46.1,U
USC00043161,FORT BRAGG 5 N,39.5091,-123.7566,37.5,2012,0,,,,,,29,7,0117,+,,,,,3.06,,7,1221,,79,7,1001,,,,46.49,,7,,,51.3,7,58.8,7,43.8,7
USC00045100,LORAINE 5 NNE,35.3836,-118.4122,1290.8,2012,895,,,,,,17,7,0117,,,,,,1.60,,7,0401,,99,7,0814,+,,,8.85,,7,,,57.3,7,70.6,7,44.1,7
US1CASJ0010,STOCKTON 0.7 E,37.9692,-121.2934,4.9,2012,,,,,,,,,,,,,1.25,,N,1203,,,,,,12.67,,N,,,,,,,,
USC00045360,MARKLEY COVE,38.4916,-122.1241,146.3,2012,1248,,,,,,22,7,0118,,,,,,3.52,,7,1130,,109,7,0814,+,2795,,36.93,,7,,,61.1,7,76.4,7,45.8,7
USR0000CFAN,FANCHER CREEK CALIFORNIA,36.8839,-119.4658,280.4,2012,2692,,,,,,33,U,1219,+,,,,,,,110,U,0811,,2015,,,,,,67.1,U,77.9,U,56.2,U
USR0000CHER,HERNANDEZ CALIFORNIA,36.3825,-120.8558,1137.8,2012,1492,,,,,,24,U,0319,,,,,,,,101,U,0811,,3300,,,,,,59.6,U,68.4,U,50.9,U
USC00045118,LOS BANOS,37.0563,-120.8666,36.6,2012,,,,,,,25,7,0118,,,,,,0.62,,7,0317,,,,,,6.57,,7,,,,,,,51.3,7
US1CASJ0004,STOCKTON 5.8 NNE,38.0381,-121.2547,10.7,2012,,,,,,,,,,,,,1.49,,N,0413,,,,,,17.18,,N,,,,,,,,
US1CASJ0005,LODI 1.0 NNW,38.136,-121.3044,13.1,2012,,,,,,,,,,,,,1.66,,N,1203,,,,,,20.37,,N,,,,,,,,
US1CASJ0006,STOCKTON 3.3 SE,37.9417,-121.2585,7.0,2012,,,,,,,,,,,,,1.62,,N,1203,,,,,,15.05,,N,,,,,,,,
USC00047776,SAN GABRIEL CANYON PH,34.1553,-117.9078,226.8,2012,2700,,,,,,38,7,1219,,,,,,1.77,,7,0414,,112,7,0915,,926,,15.69,,7,,,69.9,7,84.2,7,55.7,7
USC00046685,PARADISE,39.7538,-121.6241,533.4,2012,,,,,,,,,,,,,4.73,,7,0121,,,,2624,,65.26,,7,,,,,,,,
US1CASJ0001,LINDEN 5.8 ENE,38.0627,-121.0079,44.5,2012,,,,,,,,,,,,,1.78,,N,1203,,,,,,20.24,,N,,,,,,,,
USC00047306,REDLANDS,34.037,-117.1948,429.8,2012,2194,,,,,,31,7,1220,,,,,,1.78,,7,1213,,109,7,0809,+,1503,,9.02,,7,,,67.2,7,81.8,7,52.5,7
US1CARV0005,HEMET 4.1 ENE,33.7527,-116.9196,517.6,2012,,,,,,,,,,,,,0.80,,N,0228,,,,,,8.11,,N,,,,,,,,
USR0000CHEL,HELL HOLE CALIFORNIA,39.0717,-120.4217,1597.2,2012,639,,,,,,15,U,0116,,,,,,,,97,U,0813,,4853,,,,,,53.3,U,64.5,U,42.1,U
US1CARV0008,CORONA 12.8 SE,33.7307,-117.4276,427.9,2012,,,,,,,,,,,,,1.40,,N,0318,,,,,,8.71,,N,,,,,,,,
US1CARV0002,IDYLLWILD 1.8 NW,33.7631,-116.735,1927.9,2012,,,,,,,,,,,,,2.12,,N,0318,,,,,,23.38,,N,,,,,,,,
USC00046699,PARKER RESERVOIR,34.2903,-114.1708,224.9,2012,,,,,,,,,,,,,1.24,,7,1214,,,,,,3.88,,7,,,,,,,,
USR0000CWAL,WALKER PASS CALIFORNIA,35.6647,-118.0569,1698.3,2012,1556,,,,,,18,U,1219,+,,,,,,,104,U,0811,,3520,,,,,,59.8,U,73.6,U,46.1,U
USR0000CWAK,WALKER CALIFORNIA,38.5653,-119.4592,1658.1,2012,1102,,,,,,8,U,1219,,,,,,,,99,U,0712,+,,,,,,,55.9,U,68.5,U,43.4,U
USC00045378,MARTINEZ WATER PLANT,38.0131,-122.1142,12.2,2012,,,,,,,,,,,,,,,,,2962,,,,,,,,,,,
USR0000CWAR,WARM SPRINGS CALIFORNIA,34.5958,-118.5786,1502.7,2012,1781,,,,,,27,U,0307,,,,,,,,103,U,0812,+,2921,,,,,,62.0,U,72.1,U,51.9,U
USW00053119,HANFORD MUNICIPAL AIRPORT,36.31889,-119.62889,75.9,2012,1976,,0,,0,W,19,W,0117,,0,,W,1231,+,0.0,,W,1231,+,1.39,,W,0317,,107,W,0811,+,2687,,6.59,,W,0.0,,W,63.7,W,78.7,W,48.6,W
USC00040931,BOCA,39.3886,-120.0936,1699.3,2012,45,,64,,27,Z,-10,7,0117,,23,,7,1226,,16.0,,Z,1223,,2.03,,7,0121,,95,7,0813,+,7687,,25.55,,7,108.3,,Z,44.9,7,64.2,7,25.5,7
USR0000CLKL,LOWER KLAMATH CALIFORNIA,41.9992,-121.7003,1249.1,2012,130,,,,,,6,U,1231,+,,,,,,,95,U,0812,,6798,,,,,,47.2,U,61.7,U,32.8,U
USW00053120,RAMONA AIRPORT,33.0375,-116.91583,424.6,2012,999,,0,,,,22,W,0118,,0,,W,1231,+,,,1.03,,W,1213,+,104,W,1001,,2625,,10.60,,W,,,61.0,W,77.4,W,44.6,W
USW00053121,OCEANSIDE MUNICIPAL AIRPORT,33.21944,-117.34944,8.5,2012,581,,0,,,,29,W,1221,,0,,W,1231,+,,,0.85,,W,1011,,93,W,1017,,2213,,8.87,,W,,,61.2,W,71.8,W,50.6,W
US1CARV0020,NORCO 2.3 SE,33.9059,-117.5178,332.5,2012,,,,,,,,,,,,,0.65,,N,1213,,,,,,5.72,,N,,,,,,,,
USC00049742,WINTERS,38.5252,-121.9777,41.1,2012,1662,,,,,,23,7,0117,,,,,,,,107,7,0813,,2235,,,,,,63.6,7,77.5,7,49.7,7
USR0000CHAS,HASTINGS CALIFORNIA,36.3886,-121.5517,574.5,2012,784,,,,,,27,U,0117,,,,,,,,101,U,1001,,,,,,,,58.6,U,70.3,U,46.8,U
USR0000CHAY,HAYFORK CALIFORNIA,40.55,-123.165,708.1,2012,516,,,,,,10,U,0117,,,,,,,,109,U,0813,,4811,,,,,,53.5,U,70.4,U,36.5,U
USR0000CHAW,HAWKEYE CALIFORNIA,38.7817,-122.9169,609.6,2012,1081,,,,,,28,U,0116,,,,,,,,97,U,1002,+,3169,,,,,,58.8,U,66.6,U,51.1,U
USR0000CLIN,LINCOLN CALIFORNIA,38.8825,-121.2683,61.0,2012,1622,,,,,,19,U,0116,,,,,,,,109,U,0813,,2751,,,,,,62.4,U,76.5,U,48.3,U
USR0000CRUT,RUTH CALIFORNIA,40.2506,-123.3158,832.7,2012,384,,,,,,12,U,0117,,,,,,,,107,U,0814,+,4484,,,,,,53.4,U,70.2,U,36.6,U
USR0000CJER,JERSEYDALE CALIFORNIA,37.5436,-119.8386,1188.7,2012,1623,,,,,,21,U,1219,,,,,,,,106,U,0813,+,3469,,,,,,59.8,U,72.7,U,46.8,U
USC00047339,REDWOOD CITY,37.4767,-122.2386,9.4,2012,362,,,,,,29,7,0117,,,,,,2.31,,7,1223,,100,7,1002,,2624,,25.18,,7,,,59.1,7,70.3,7,48.0,7
US1CARV0017,PERRIS 8.5 WNW,33.8262,-117.365,499.6,2012,,,,,,,,,,,,,0.80,,N,0318,,,,,,5.99,,N,,,,,,,,
USC00040943,BODIE CALIFORNIA STATE HISTORIC PARK,38.2119,-119.0142,2551.2,2012,,,,,,,-21,7,1228,,,,,,,,,,,,,,,,,,,,21.3,7
USR0000CPRD,PANOCHE ROAD CALIFORNIA,36.7269,-120.7658,619.4,2012,2051,,,,,,33,U,0317,,,,,,,,101,U,0811,,2599,,,,,,63.6,U,70.6,U,56.6,U
US1CARV0015,NORCO 1.2 S,33.908,-117.548,201.5,2012,,,,,,,,,,,,,0.76,,N,0318,,,,,,5.59,,N,,,,,,,,
USC00046006,MOUNT WILSON CBS,34.2308,-118.0711,1740.4,2012,1108,,,,,,20,7,0319,+,,,,,3.69,,7,0318,,96,7,0813,+,,,25.26,,7,,,59.1,7,69.5,7,48.6,7
