STATION,NAME,LATITUDE,LONGITUDE,ELEVATION,DATE,CDSD,DSND,DSNW,EMNT,EMSD,EMSN,EMXP,EMXT,HDSD,PRCP,SNOW,TAVG,TMAX,TMIN
USR0000CTHO,THOMES CREEK CALIFORNIA,39.8644,-122.6097,317.0,2015,2470,,,31,,,,111,1644,,,66.7,76.7,56.7
USC00049099,TWENTYNINE PALMS,34.128,-116.0369,602.0,2015,3700,,,23,,,0.27,111,921,2.39,,71.8,84.7,58.9
USR0000CRDR,READER RANCH CALIFORNIA,39.3036,-121.1172,599.8,2015,1594,,,28,,,,104,2204,,,62.6,74.9,50.3
USR0000CABS,ARBUCKLE BASIN CALIFORNIA,40.3983,-122.8333,579.1,2015,1746,,,29,,,,103,2368,,,62.7,71.1,54.3
USC00047902,SANTA BARBARA,34.4167,-119.6844,1.5,2015,,,,,,,1.30,101,905,4.91,,,74.5,
USC00042214,CULVER CITY,34.005,-118.4139,28.0,2015,1342,,,38,,,2.50,99,,7.52,,66.5,74.9,58.0
USR0000CREA,REDDING AIRPORT CALIFORNIA,40.5158,-122.2906,152.4,2015,2216,,,21,,,,113,1923,,,65.1,79.1,51.0
USC00045968,MOUNT LAGUNA NUMBER 3,32.8672,-116.4194,1804.4,2015,585,,,13,,,1.50,91,3768,14.19,,55.5,65.5,45.6
US1CAMT0006,CASTROVILLE 1.6 ENE,36.7764,-121.7284,5.5,2015,,,,,,,1.00,,,9.07,,,,
US1CAMT0005,KING CITY 13.2 S,36.0249,-121.1745,336.5,2015,,,,,,,1.18,,,7.73,,,,
USR0000CGOO,GOOSE VALLEY CALIFORNIA,33.0736,-116.8458,466.3,2015,1740,,,35,,,,103,1047,,,66.4,75.9,57.0
US1CAMT0003,LOCKWOOD 3.6 NW,35.9808,-121.1174,360.0,2015,,,0,,,0.0,1.01,,,4.44,0.0,,,
USR0000CRCH,RANCHITA CALIFORNIA,33.2222,-116.4975,1345.7,2015,1501,,,21,,,,99,2461,,,61.6,71.1,52.1
USC00044405,JOSHUA TREE,34.1471,-116.2747,781.2,2015,2566,0,0,21,0,0.0,1.10,108,,4.78,0.0,66.8,80.1,53.6
USC00047916,SANTA CRUZ,36.9905,-121.9911,39.6,2015,574,,,27,,,2.10,101,1614,16.49,,61.6,74.0,49.2
USC00046826,PETALUMA AIRPORT,38.2577,-122.6077,6.1,2015,528,,,24,,,1.43,100,2166,11.98,,59.7,72.7,46.6
USC00041130,BRUSH CREEK RANGER STATION,39.6949,-121.3452,1085.1,2015,,,,,,,3.05,,,29.68,,,,
USC00044881,LEE VINING,37.9567,-119.1194,2071.7,2015,320,40,13,8,14,13.5,2.07,92,5137,13.98,44.4,50.6,63.9,37.2
USW00093210,OROVILLE MUNICIPAL AIRPORT,39.49,-121.61833,57.9,2015,1992,,,27,,,1.36,108,1741,10.48,,64.9,77.3,52.5
US1CAIN0002,BISHOP 8.5 WSW,37.3227,-118.5404,1829.4,2015,,,,,,,0.59,,,4.88,,,,
USW00093209,PASO ROBLES MUNICIPAL AIRPORT,35.6697,-120.6283,246.9,2015,1269,0,,24,0,,2.09,107,1861,7.37,,62.3,78.8,45.9
US1CASH0006,SHINGLETOWN 5.3 ENE,40.5239,-121.7957,1208.2,2015,,,12,,,4.7,3.12,,,32.11,33.6,,,
USC00044412,JULIAN CDF,33.0763,-116.5925,1284.7,2015,971,,,19,,,2.34,96,2838,23.94,,59.0,68.5,49.5
US1CAMT0020,CASTROVILLE 1.6 ENE,36.777,-121.7269,5.2,2015,,,,,,,0.91,,,7.51,,,,
USC00045502,MECCA FIRE STATION,33.5713,-116.0766,-54.9,2015,4699,,,23,,,0.31,119,580,1.60,,75.5,90.8,60.2
USC00041149,BUCKHORN,40.8669,-121.8463,1158.2,2015,,2,2,,3,3.0,3.39,,,44.59,6.0,,,
USC00042239,CUYAMACA,32.9897,-116.5872,1414.3,2015,594,,,18,,,3.01,93,3818,24.12,,55.7,67.1,44.3
USC00044890,LEMON COVE,36.3817,-119.0264,156.4,2015,2314,,,28,,,1.57,110,1536,12.24,,66.1,81.2,51.1
USC00045983,MOUNT SHASTA,41.3218,-122.3173,1102.5,2015,520,,,11,,,,100,4237,,,54.0,68.0,39.9
USW00093205,MARYSVILLE YUBA CO AIRPORT,39.1019,-121.5677,18.9,2015,1700,0,,26,0,,1.23,108,1859,9.99,,63.8,77.7,49.8
USW00093206,SAN LUIS OBISPO MCCHESNEY FIELD,35.23722,-120.64139,61.0,2015,824,0,,27,0,,1.32,105,1472,7.28,,62.9,75.3,50.4
USS0020H12S,Dismal Swamp,41.99,-120.18,2243.3,2015,24,188,,0,62,,1.90,84,7885,40.15,,42.5,52.1,32.8
USC00047933,SANTA MARGARITA BOOST,35.3741,-120.6375,349.9,2015,,,,,,,1.85,,1786,13.50,,,,
USC00041159,BUCKS CREEK,39.9372,-121.3147,576.4,2015,,,,,,,3.47,,,33.67,,,,
USC00043578,GRATON,38.4305,-122.8647,61.0,2015,544,,,20,,,2.40,105,2127,17.81,,60.0,76.4,43.5
USC00046602,PACOIMA DAM FC33A E,34.3294,-118.4005,472.4,2015,,,,,,,1.17,,,7.29,,,,
US1CASH0010,REDDING 7.9 NNE,40.6721,-122.2913,207.6,2015,,,,,,,2.86,,,25.98,,,,
USC00043573,GRASS VALLEY NUMBER 2,39.2041,-121.068,731.5,2015,920,,,23,,,3.65,99,3093,29.09,,58.4,71.2,45.5
USR0000CRAV,RAVENDALE CALIFORNIA,40.7308,-120.3164,1614.8,2015,326,,,1,,,,97,5539,,,49.6,63.3,35.8
US1CAMT0036,SALINAS 2.7 WSW,36.6702,-121.6811,11.6,2015,,,,,,,0.90,,,8.78,,,,
USC00044422,JUNCAL DAM,34.4908,-119.5069,688.8,2015,,,,,,,1.39,,,6.98,,,,
USR0000CCDG,CEDAR GROVE CALIFORNIA,36.7878,-118.6561,1438.7,2015,512,,,9,,,,96,4257,,,53.7,69.1,38.4
USW00024216,RED BLUFF MUNICIPAL AIRPORT,40.1519,-122.2536,107.6,2015,2242,0,,26,0,,1.31,113,1740,9.67,,65.7,79.1,52.3
USW00023129,LONG BEACH DAUGHERTY FIELD,33.8116,-118.1463,9.4,2015,1946,0,0,36,0,0.0,0.93,105,571,5.09,0.0,68.4,77.9,58.9
USW00024215,MOUNT SHASTA,41.3325,-122.33278,1077.5,2015,520,,,11,,,4.87,100,4230,26.67,,54.0,68.0,40.0
US1CATH0040,GERBER 3.5 SW,40.021,-122.1901,81.7,2015,,,,,,,1.35,,,13.21,,,,
USW00024213,EUREKA WEATHER FORECAST OFFICE WOODLEY ISLAND,40.8097,-124.1602,6.1,2015,5,0,0,30,0,0.0,2.20,77,3650,33.86,0.0,54.5,61.0,48.0
US1CAYL0002,DAVIS 0.8 NE,38.5618,-121.7241,12.5,2015,,,,,,,1.83,,,8.09,,,,
US1CATH0037,RED BLUFF 5.7 W,40.1611,-122.3461,149.4,2015,,,,,,,1.21,,,14.04,,,,
US1CATH0039,LOS MOLINOS 4.5 N,40.0923,-122.1111,71.6,2015,,,,,,,1.50,,,11.16,,,,
USR0000CTE2,TEMESCAL LPF CALIFORNIA,34.4806,-118.7556,347.5,2015,1705,,,27,,,,104,1243,,,65.8,79.6,51.9
USC00042012,CORCORAN IRRIGATION DIST.,36.0975,-119.5817,61.0,2015,,,,,,,0.94,,1759,5.84,,,,
USW00023130,VAN NUYS AIRPORT,34.20972,-118.48917,234.7,2015,2258,,,30,,,1.02,107,749,4.98,,68.6,80.8,56.5
USR0000COZE,OZENA CALIFORNIA,34.6819,-119.3539,1118.6,2015,1200,,,17,,,,109,2422,,,60.8,78.8,42.7
USR0000CIND,INDIAN WELL CALIFORNIA,41.7417,-121.5383,1453.9,2015,505,,,6,,,,97,4991,,,51.7,63.6,39.8
USR0000CCAR,CARRIZO CALIFORNIA,35.0964,-119.7728,759.0,2015,1851,,,31,,,,102,1797,,,64.4,75.2,53.5
USR0000CCAT,CATHEYS VALLEY CALIFORNIA,37.4681,-120.1106,365.8,2015,2130,,,30,,,,104,1844,,,64.8,75.2,54.4
USW00023136,CAMARILLO AIRPORT,34.21667,-119.08333,23.5,2015,1156,0,0,32,0,0.0,1.27,108,1027,4.98,0.0,65.0,76.1,54.0
US1CAYL0010,WOODLAND 2.8 SE,38.6471,-121.7322,11.6,2015,,,,,,,1.24,,,6.74,,,,
USC00046624,PALMDALE,34.5883,-118.0938,796.1,2015,2039,0,,23,0,,0.90,105,1891,5.70,,64.5,78.8,50.2
US1CAOR0027,IRVINE 4.1 NNE,33.7183,-117.7721,46.3,2015,,,,,,,1.70,,,8.06,,,,
US1CAOR0021,ANAHEIM 4.9 ENE,33.8632,-117.7918,90.8,2015,,,,,,,1.69,,,8.83,,,,
US1CASH0050,SHINGLETOWN 10.3 ENE,40.5318,-121.7011,1285.3,2015,,,,,,,2.07,,,30.77,,,,
USR0000CMTZ,MOUNT ZION CALIFORNIA,38.3894,-120.6511,902.2,2015,1676,,,27,,,,101,2225,,,62.7,71.5,53.9
US1CAOR0029,ANAHEIM 4.9 E,33.847,-117.7871,114.0,2015,,,,,,,1.39,,,8.57,,,,
US1CAYL0021,DAVIS 6.3 W,38.5613,-121.8522,26.2,2015,,,,,,,2.13,,,8.30,,,,
USR0000CEEL,EEL RIVER CALIFORNIA,39.8333,-123.0833,457.2,2015,1368,,,21,,,,109,2617,,,60.9,77.2,44.5
US1CATH0011,RED BLUFF 5.1 NNW,40.2417,-122.2806,151.5,2015,,,,,,,1.28,,,13.82,,,,
USC00046635,PALM SPRINGS,33.8275,-116.5097,129.5,2015,,,,,,,0.48,,,2.98,,,,
US1CATH0012,COTTONWOOD 9.1 SW,40.2821,-122.3784,194.8,2015,,,,,,,2.25,,,15.83,,,,
USR0000CCAN,CANBY CALIFORNIA,41.4342,-120.8678,1314.3,2015,,,,,,,,,4997,,,,,
USR0000CCAM,CAMERON FIRE STATION CALIFORNI,32.7214,-116.4631,1049.4,2015,860,,,13,,,,102,2798,,,59.1,75.2,43.0
USR0000CCAL,CALLAHAN CALIFORNIA,41.3075,-122.7958,955.9,2015,974,,,16,,,,103,4036,,,56.0,68.5,43.4
USR0000CCAA,CAHUILLA CALIFORNIA,32.9736,-115.1736,84.7,2015,5276,,,33,,,,118,,,,78.1,91.3,64.9
USR0000CEEC,EEL RIVER CAMP CALIFORNIA,40.1383,-123.8236,135.9,2015,624,,,26,,,,108,2303,,,59.4,73.2,45.7
US1CATH0019,RED BLUFF 2.8 N,40.2145,-122.2429,123.7,2015,,,,,,,1.27,,,14.06,,,,
USC00044211,IDYLLWILD FIRE DEPARTMENT,33.7572,-116.7066,1639.8,2015,458,,,17,,,2.72,93,3483,22.81,,55.2,68.2,42.2
US1CAOR0035,MISSION VIEJO 3.9 NNE,33.6645,-117.6264,320.3,2015,,,,,,,0.99,,,9.95,,,,
USW00023110,LEMOORE REEVES NAS,36.33333,-119.95,70.7,2015,2119,,,23,,,0.71,108,1862,4.24,,64.8,79.9,49.7
US1CAOR0031,ORANGE 3.0 ENE,33.8261,-117.7781,197.8,2015,,,,,,,1.01,,,8.63,,,,
US1CAOR0039,ANAHEIM 7.3 E,33.8521,-117.7469,230.1,2015,,,,,,,1.19,,,8.07,,,,
USR0000CGHP,GRASSHOPPER CALIFORNIA,40.7817,-120.7844,1877.0,2015,191,,,3,,,,92,6060,,,47.9,60.4,35.4
US1CATH0029,COTTONWOOD 3.9 SW,40.3579,-122.3416,136.2,2015,,,,,,,1.70,,,16.46,,,,
USC00041194,BURBANK VALLEY PUMP,34.1866,-118.348,199.6,2015,,,,,,,0.89,,,6.53,,,,
US1CASH0051,REDDING 3.8 S,40.5181,-122.3692,135.3,2015,,,,,,,1.84,,,22.10,,,,
USR0000CTAN,TANBARK CALIFORNIA,34.2069,-117.7606,792.5,2015,1583,,,30,,,,100,1605,,,64.4,74.1,54.8
USC00044223,IMPERIAL,32.8488,-115.5666,-19.5,2015,4703,,,28,,,0.68,118,485,1.75,,76.1,90.0,62.1
USC00045795,MONTEREY,36.5902,-121.9102,117.3,2015,214,,,34,,,1.19,95,2246,9.59,,59.1,67.4,50.8
USR0000CCOH,COHASSET CALIFORNIA,39.8717,-121.7689,528.2,2015,2105,,,33,,,,104,1816,,,65.2,73.7,56.6
USR0000CCOL,COLLINS BALDY CALIFORNIA,41.775,-122.9503,1674.3,2015,524,,,14,,,,95,5236,,,51.3,59.7,42.8
USC00049490,WEAVERVILLE,40.7367,-122.9404,627.3,2015,913,,,13,,,3.43,108,3274,28.45,,57.8,74.3,41.2
US1CAOR0001,ORANGE 3.5 ENE,33.8291,-117.77,247.2,2015,,,,,,,0.86,,,7.11,,,,
USW00023161,DAGGETT AIRPORT,34.8536,-116.7858,584.3,2015,3339,0,0,19,0,0.0,0.48,114,1433,2.89,0.0,69.3,83.2,55.5
USR0000CPHI,PINE HILLS CALIFORNIA,33.0164,-116.6339,0.0,2015,931,,,22,,,,97,2580,,,59.8,70.8,48.8
USW00024259,MONTAGUE SISKIYOU AIRPORT,41.78139,-122.46806,808.0,2015,895,,,8,,,1.54,106,4404,12.35,,54.7,69.9,39.6
USW00024257,REDDING MUNICIPAL AIRPORT,40.5175,-122.2986,151.5,2015,2499,0,0,22,0,0.0,1.60,114,1798,17.25,0.0,66.3,80.0,52.7
USR0000CCP9,CAMP 9 CALIFORNIA,34.3617,-118.4217,1219.2,2015,1397,,,28,,,,99,2247,,,61.9,70.4,53.3
USR0000CPIE,PIERCE CALIFORNIA,40.2461,-120.6422,1737.4,2015,,,,,,,,,4994,,,,,
USC00040673,BEN LOMOND NUMBER 4,37.0855,-122.0797,128.0,2015,,,,,,,2.24,111,1994,19.67,,,81.0,
USR0000CCOU,CO LINE CALIFORNIA,39.0189,-122.4119,635.5,2015,1907,,,30,,,,106,2030,,,64.0,74.2,53.8
USR0000CPIH,PINEHURST CALIFORNIA,36.6853,-119.0,1237.5,2015,1237,,,22,,,,99,2726,,,59.7,70.3,49.1
USR0000CLAB,LOS BANOS CALIFORNIA,37.0547,-121.0531,106.7,2015,1980,,,29,,,,105,1497,,,65.6,76.2,54.9
USR0000CCOO,COOSKIE MOUNTAIN CALIFORNIA,40.2569,-124.2661,899.2,2015,590,,,31,,,,96,3701,,,56.0,63.2,48.8
USR0000CCON,CONVERSE CALIFORNIA,34.1942,-116.9131,1712.4,2015,454,,,13,,,,93,3799,,,54.8,67.8,41.7
USR0000CCOR,CORRALITOS CALIFORNIA,36.9911,-121.7978,137.2,2015,504,,,28,,,,102,1929,,,60.5,73.9,47.1
USW00023174,LOS ANGELES INTERNATIONAL AIRPORT,33.938,-118.3888,29.6,2015,1183,0,0,36,0,0.0,1.80,99,872,5.96,0.0,65.6,72.7,58.4
US1CAFR0013,CLOVIS 1.3 NE,36.833,-119.6808,114.3,2015,,,,,,,1.35,,,9.89,,,,
USC00047085,PORTOLA,39.8053,-120.4719,1478.3,2015,207,25,10,1,6,7.0,1.70,97,5656,17.98,33.5,48.9,65.6,32.1
US1CAFR0014,FRESNO 2.4 NW,36.8053,-119.8222,97.2,2015,,,,,,,1.09,,,7.44,,,,
USC00040449,BALCH POWER HOUSE,36.9092,-119.0883,528.8,2015,,,,,,,,,2066,,,,,
USR0000CTOM,MOUNT TOM CALIFORNIA,37.3761,-119.1783,2748.7,2015,13,,,3,,,,76,6565,,,45.3,53.1,37.5
USW00023179,NEEDLES AIRPORT,34.7675,-114.6188,271.3,2015,5181,0,0,28,0,0.0,1.00,118,664,4.00,0.0,76.8,89.0,64.7
US1CAOR0017,MISSION VIEJO 1.6 ENE,33.6239,-117.6275,310.3,2015,,0,0,,0,0.0,0.97,,,8.50,0.0,,,
US1CAOR0019,MISSION VIEJO 1.3 SSE,33.5954,-117.6442,214.6,2015,,,,,,,0.90,,,8.18,,,,
USC00042863,ESCONDIDO NUMBER 2,33.121,-117.09,182.9,2015,1927,,,31,,,0.85,102,692,9.96,,67.8,79.4,56.1
USC00040444,BAKERSFIELD 5 NW,35.4186,-119.0508,143.3,2015,2562,,,28,,,0.78,107,1449,4.44,,67.0,79.2,54.8
USC00041534,CARMEL VALLEY,36.4805,-121.7244,146.3,2015,495,,,28,,,1.70,101,2016,14.26,,60.1,73.8,46.5
USC00043714,HALF MOON BAY,37.4725,-122.44333,8.2,2015,23,,,30,,,1.68,78,2547,9.58,,57.0,65.1,48.8
US1CATH0005,RED BLUFF 6.0 W,40.1591,-122.3515,127.4,2015,,,,,,,1.82,,,14.52,,,,
US1CAFR0005,TOLLHOUSE 6.2 SSE,36.9342,-119.3586,425.8,2015,,,,,,,2.35,,,17.70,,,,
US1CAFR0008,HELM 2.7 NNE,36.5702,-120.0892,55.8,2015,,,,,,,0.61,,,4.51,,,,
US1CATH0009,RED BLUFF 1.1 S,40.1576,-122.2362,98.5,2015,,,,,,,1.19,,,10.81,,,,
USC00049273,VENADO,38.60861,-123.01806,384.0,2015,,,,,,,8.88,,,41.08,,,,
US1CAFR0002,CLOVIS 2.9 N,36.8611,-119.6931,116.4,2015,,,,,,,1.23,,,12.13,,,,
USS0019L19S,Ebbetts Pass,38.55,-119.8,2671.6,2015,1,166,,4,63,,2.70,76,7304,43.37,,43.8,52.3,35.2
USC00040212,ANGWIN PAC UNION COL,38.573,-122.4405,522.7,2015,657,,,28,,,2.32,98,2395,18.81,,59.6,71.5,47.7
USC00049026,TRINITY RIVER HATCHERY,40.7263,-122.7947,567.2,2015,,0,2,16,0,2.0,1.86,,,23.29,4.0,,,42.5
USC00040693,BERKELEY,37.8744,-122.2605,94.5,2015,349,,,33,,,1.49,99,1799,11.34,,60.4,70.3,50.6
USR0000CCMO,CASE MOUNTAIN CALIFORNIA,36.4108,-118.8092,1966.0,2015,438,,,15,,,,88,3955,,,53.5,62.1,44.8
USR0000CCLE,CLEAR CREEK CALIFORNIA,34.2711,-118.1525,914.4,2015,1509,,,31,,,,96,1918,,,63.4,71.1,55.7
USW00023152,BURBANK GLENDALE PASADENA AIRPORT,34.20056,-118.3575,225.9,2015,2137,0,,31,0,,1.04,104,771,5.56,,68.1,79.2,57.0
USW00023155,BAKERSFIELD AIRPORT,35.4344,-119.0542,149.0,2015,2773,0,0,28,0,0.0,0.63,109,1341,4.00,0.0,67.9,80.2,55.6
USC00049040,TRUCKEE TAHOE AIRPORT DISTRICT,39.318,-120.145,1798.3,2015,64,48,17,-10,14,11.0,2.21,93,6318,23.09,62.0,45.5,63.8,27.2
USW00023157,BISHOP AIRPORT,37.3711,-118.358,1250.3,2015,1338,0,0,5,0,0.0,0.63,108,3164,3.39,0.0,59.1,77.7,40.4
USW00023158,BLYTHE AIRPORT,33.6186,-114.7142,120.4,2015,4694,0,0,26,0,0.0,0.74,119,,3.19,0.0,75.4,88.8,62.1
USC00041312,CALISTOGA,38.5961,-122.6013,121.9,2015,936,,,25,,,2.97,108,1868,19.28,,61.5,76.1,46.8
USC00042402,DE SABLA,39.8716,-121.6108,826.0,2015,1101,,,22,,,2.65,103,2612,31.40,,59.8,73.4,46.3
USC00045915,MOUNT DIABLO JUNCTION,37.8792,-121.9303,661.4,2015,930,,,28,,,1.77,99,2373,15.56,,60.2,69.0,51.5
USC00041316,CALLAHAN,41.3111,-122.8044,970.8,2015,350,,,11,,,4.55,101,4887,22.06,,52.5,69.4,35.6
USR0000CCLV,CALAVERAS ROAD CALIFORNIA,37.5531,-121.8439,374.9,2015,734,,,33,,,,100,2076,,,60.5,69.0,52.1
USR0000CCLK,CLARK CALIFORNIA,33.8767,-117.3089,524.3,2015,1835,,,29,,,,107,1144,,,66.5,79.3,53.7
USC00049035,TRONA,35.7636,-117.3908,516.6,2015,3258,0,0,17,0,0.0,0.67,112,1611,3.18,0.0,68.6,82.8,54.4
USS0020H13S,Adin Mtn,41.24,-120.79,1886.7,2015,25,110,,-6,40,,1.20,88,6984,28.28,,44.5,56.9,32.1
USC00049298,VERDI 2 W,39.5214,-120.0269,1654.8,2015,384,34,10,6,11,11.0,,94,5057,,50.0,51.0,63.1,38.8
USW00093230,SOUTH LAKE TAHOE AIRPORT,38.8983,-119.9947,1924.5,2015,,,,,,,1.53,,5847,18.46,,,,
USR0000CAGD,ARROYO GRANDE CALIFORNIA,35.1792,-120.3919,319.4,2015,1110,,,26,,,,107,1404,,,63.5,78.7,48.4
USR0000CRIC,RICE VALLEY CALIFORNIA,34.0608,-114.7322,249.9,2015,4587,,,23,,,,117,776,,,74.7,89.0,60.3
US1CAMR0037,NOVATO 2.7 WNW,38.1104,-122.6,23.2,2015,,,0,,,0.0,1.78,,,6.57,0.0,,,
USC00043747,HANFORD 1 S,36.3158,-119.637,72.2,2015,2435,,,20,,,0.60,108,1970,4.83,,65.6,79.1,52.0
USR0000CGSP,GREEN SPRING CALIFORNIA,37.8331,-120.5,310.9,2015,1791,,,28,,,,105,1987,,,63.5,75.2,51.8
USW00093225,SACRAMENTO METROPOLITAN AIRPORT,38.69556,-121.58972,7.0,2015,1479,,,25,,,1.38,106,1978,7.52,,62.7,76.5,49.0
USW00093227,NAPA CO AIRPORT,38.2102,-122.2847,4.3,2015,355,,,23,,,1.17,101,2650,8.30,,58.0,70.9,45.2
USW00093228,HAYWARD AIR TERMINAL,37.6542,-122.115,13.1,2015,466,,,31,,,0.98,97,1695,7.65,,60.8,69.5,52.1
USC00040232,ANTIOCH PUMP PLANT 3,37.9833,-121.7525,18.3,2015,1487,,,27,,,0.88,107,1569,6.56,,64.0,75.7,52.3
USW00003104,DESERT RESORTS REGIONAL AIRPORT,33.62667,-116.15944,-36.0,2015,4179,0,0,20,0,0.0,0.53,119,791,2.03,0.0,73.7,90.0,57.4
USC00049063,TUOLUMNE MEADOWS RANGER STATION,37.8769,-119.3436,2649.9,2015,,,,,,,,,8696,,,,,
US1CAKG0003,LEMOORE 0.3 SW,36.295,-119.7914,68.0,2015,,,0,,,0.0,0.68,,,5.33,0.0,,,
US1CAKG0004,HANFORD 3.6 N,36.3769,-119.6527,78.6,2015,,,,,,,0.66,,,5.50,,,,
US1CAVT0012,CAMARILLO 2.4 W,34.2275,-119.0715,34.7,2015,,,0,,,0.0,2.10,,,5.58,0.0,,,
USW00003102,ONTARIO INTERNATIONAL AIRPORT,34.05611,-117.60028,289.3,2015,2301,0,,30,0,,1.25,108,819,8.69,,68.4,81.1,55.6
US1CAVT0016,CAMARILLO 0.6 N,34.2311,-119.0299,54.3,2015,,,,,,,1.84,,,5.69,,,,
USC00045933,MOUNT HAMILTON,37.3436,-121.6425,1282.0,2015,788,,,26,,,1.94,91,3300,16.56,,57.1,63.5,50.7
US1CAKG0005,HANFORD 1.7 WNW,36.3349,-119.6743,74.7,2015,,,,,,,0.61,,,5.26,,,,
US1CAMR0025,SAN ANSELMO 2.0 NNW,38.0096,-122.5801,62.2,2015,,,,,,,1.70,,,14.48,,,,
USW00023188,SAN DIEGO INTERNATIONAL AIRPORT,32.7336,-117.1831,4.6,2015,1512,,,41,,,1.63,99,483,9.92,,67.5,73.9,61.0
US1CASD0110,LA MESA 0.9 SW,32.7597,-117.0281,160.9,2015,,,,,,,0.87,,,9.00,,,,
USW00023187,SANDBERG,34.7436,-118.7242,1374.6,2015,1464,0,,24,0,,0.83,99,2445,6.29,,61.4,70.9,51.8
USW00023182,PALMDALE AIRPORT,34.62944,-118.08361,769.2,2015,2031,0,,20,0,,0.96,106,2138,5.53,,63.7,77.7,49.7
USC00049073,TURLOCK NUMBER 2,37.5005,-120.855,35.1,2015,1662,,,28,,,1.21,102,1847,8.00,,63.6,75.2,52.1
USW00003131,SAN DIEGO MONTGOMERY FIELD,32.81583,-117.13944,127.1,2015,1538,0,,35,0,,1.42,101,710,10.02,,66.7,76.0,57.5
US1CAVT0001,THOUSAND OAKS 2.1 WSW,34.1772,-118.8984,210.9,2015,,,0,,,0.0,1.20,,,5.55,0.0,,,
USW00004222,REDDING 12 WNW,40.6507,-122.6068,432.2,2015,1697,,,24,,,7.17,110,2296,28.57,,62.7,76.3,49.1
US1CAMR0018,FAIRFAX 0.6 SSE,37.981,-122.5907,44.5,2015,,,,,,,1.79,,,16.36,,,,
USC00040010,ACAMPO 5 NE,38.2177,-121.2013,26.5,2015,,,,,,,0.86,,,9.02,,,,
US1CAVT0003,SIMI VALLEY 3.8 SW,34.2306,-118.8047,329.5,2015,,,0,,,0.0,1.08,,,4.43,0.0,,,
USW00093245,BODEGA 6 WSW,38.3208,-123.0747,19.2,2015,5,,,35,,,2.15,79,3096,25.29,,55.7,61.5,49.8
USR0000CELC,EL CARISO CALIFORNIA,33.6472,-117.4111,926.0,2015,2067,,,32,,,,105,1299,,,66.6,77.5,55.8
US1CASD0101,VALLEY CENTER 6.4N,33.3108,-117.0409,413.6,2015,,,,,,,0.99,,,12.03,,,,
USW00024286,CRESCENT CITY MCNAMARA AIRPORT,41.78028,-124.23667,17.1,2015,5,0,,33,0,,3.08,80,3849,57.69,,53.9,60.0,47.7
USW00024283,ARCATA EUREKA AIRPORT,40.97806,-124.10861,61.0,2015,5,0,,29,0,,2.89,84,3961,40.43,,53.3,60.9,45.8
USW00093241,VACAVILLE NUT TREE AIRPORT,38.3775,-121.9575,33.2,2015,1622,0,0,24,0,0.0,1.64,110,1731,8.49,0.0,63.9,78.4,49.5
US1CASD0105,BOULEVARD 4.4 WSW,32.6447,-116.3478,1073.2,2015,,,,,,,1.46,,,12.02,,,,
USW00093242,MADERA MUNICIPAL AIRPORT,36.98778,-120.11056,77.1,2015,2004,0,0,26,0,0.0,0.84,107,1775,6.90,0.0,64.7,78.8,50.7
US1CASD0104,DESCANSO 0.8 N,32.8651,-116.6175,1062.8,2015,,,,,,,1.86,,,19.66,,,,
USW00093243,MERCED 23 WSW,37.2381,-120.8825,23.8,2015,1128,,,19,,,0.94,106,2363,4.81,,60.8,77.8,43.7
USR0000CCHB,CHEESEBORO CALIFORNIA,34.1847,-118.7172,502.9,2015,2196,,,38,,,,104,933,,,68.1,78.3,57.9
USR0000CPAN,PANAMINT CALIFORNIA,36.1203,-117.0878,2097.0,2015,,,,,,,,,3928,,,,,
USR0000CACT,ACTON CALIFORNIA,34.4458,-118.2,792.5,2015,1471,,,22,,,,105,1906,,,63.1,78.0,48.2
USR0000CTIM,TIMBER MOUNTAIN CALIFORNIA,41.6294,-121.2981,1511.8,2015,632,,,9,,,,98,4912,,,52.3,62.9,41.7
USW00003122,TORRANCE AIRPORT,33.8016,-118.3419,27.4,2015,1238,,,34,,,0.81,99,805,6.02,,65.7,75.2,56.3
USR0000CVND,VANDENBERG CALIFORNIA,34.7586,-120.4861,320.0,2015,509,,,37,,,,93,1736,,,61.2,70.2,52.1
USC00044863,LEBEC,34.8328,-118.865,1092.7,2015,,,,,,,1.48,98,,9.04,,,70.6,
USR0000CCHU,CHUCHUPATE CALIFORNIA,34.8083,-119.0125,1493.5,2015,188,,,6,,,,95,4896,,,51.2,68.7,33.8
US1CAMR0009,PETALUMA 10.1 W,38.2475,-122.8119,36.3,2015,,,,,,,1.75,,,14.79,,,,
USC00040029,ADIN RANGER STATION,41.1936,-120.9447,1278.6,2015,,31,13,,6,4.0,1.07,,,15.39,32.8,,,
USR0000CPAT,PATTY MOCUS CALIFORNIA,40.295,-122.8667,1066.8,2015,1470,,,24,,,,103,2848,,,60.6,71.6,49.5
USR0000CELI,MOUNT ELIZABETH CALIFORNIA,38.0631,-120.2469,1503.6,2015,1115,,,20,,,,97,,,,58.5,67.3,49.6
USW00023191,AVALON CATALINA AIRPORT,33.405,-118.41583,488.3,2015,1063,,,42,,,0.81,97,,5.19,,63.5,70.4,56.7
USR0000CPAR,PARKFIELD CALIFORNIA,35.8989,-120.4319,467.9,2015,1268,,,21,,,,107,2346,,,61.1,78.2,44.1
USW00023190,SANTA BARBARA MUNICIPAL AIRPORT,34.4258,-119.8425,2.7,2015,742,0,0,30,0,0.0,0.66,96,1357,4.40,0.0,62.7,73.5,51.9
USR0000CELM,EL MIRAGE CALIFORNIA,34.6344,-117.5503,877.8,2015,,,,,,,,,682,,,,,
USW00003159,LANCASTER WM J FOX FIELD,34.7411,-118.2116,712.6,2015,2050,0,,14,0,,1.59,108,2426,6.02,,63.1,78.3,47.8
USC00048560,STOCKTON FIRE STATION 4,37.9994,-121.3177,3.7,2015,,,,,,,0.76,,,5.42,,,,
USC00047470,RIVERSIDE FIRE STATION 3,33.9511,-117.388,256.0,2015,2252,,,28,,,1.31,108,762,7.37,,68.6,81.7,55.4
USS0019L24S,Heavenly Valley,38.92,-119.92,2615.8,2015,0,159,,0,68,,2.70,74,7725,35.88,,42.5,52.4,32.6
USC00049888,YUCCA VALLEY,34.1294,-116.3879,990.3,2015,2071,0,0,22,0,0.0,0.58,104,2020,4.11,0.0,64.4,77.1,51.7
USC00049884,YUCCA MESA,34.2182,-116.4073,1050.0,2015,2338,0,0,26,0,0.0,0.80,106,1678,4.98,0.0,65.9,77.2,54.6
USC00046136,NEVADA CITY,39.2466,-121.0008,847.6,2015,1035,2,0,25,1,0.7,3.80,98,3158,32.87,1.3,58.7,69.6,47.8
USR0000CKET,KETTLEMAN HILLS CALIFORNIA,36.0333,-120.0569,246.9,2015,2904,,,32,,,,108,1250,,,68.7,78.9,58.6
USR0000CSVA,SPRING VALLEY CALIFORNIA,37.5625,-122.4364,327.7,2015,294,,,36,,,,96,2669,,,57.9,65.3,50.4
USR0000CMIO,MILO CALIFORNIA,36.2314,-118.8689,586.1,2015,2444,,,31,,,,104,1570,,,66.3,75.1,57.4
USS0020L02S,Rubicon NUMBER 2,39.0,-120.13,2343.6,2015,50,155,,12,44,,2.20,80,6356,29.59,,46.6,54.2,39.0
USW00003144,IMPERIAL CO AIRPORT,32.83417,-115.57861,-17.7,2015,4566,0,0,27,0,0.0,0.62,118,627,1.73,0.0,75.4,89.8,61.1
USC00046144,NEWARK,37.5147,-122.0325,3.0,2015,678,,,34,,,0.82,97,1632,7.78,,61.6,70.2,53.0
USC00046386,OCOTILLO WELLS 2 W,33.1552,-116.1688,118.9,2015,4917,,,31,,,0.52,117,438,2.22,,77.0,88.0,65.9
USC00041948,COLUSA 2 SSW,39.1875,-122.0269,15.2,2015,1609,,,23,,,1.14,108,1831,6.73,,63.6,77.5,49.7
USW00003177,CARLSBAD MCCLELLAN PALOMAR AIRPORT,33.12806,-117.27944,100.0,2015,1117,0,0,38,0,0.0,1.13,100,869,7.57,0.0,65.2,72.2,58.2
USW00003179,CHINO AIRPORT,33.97528,-117.63611,198.1,2015,2179,0,,24,0,,0.73,109,959,6.61,,67.9,83.1,52.7
USW00003178,SAN DIEGO BROWN FIELD,32.57222,-116.97944,157.0,2015,1229,0,,32,0,,0.90,102,924,8.44,,65.3,75.5,55.1
USR0000CKEE,KEENWILD CALIFORNIA,33.6667,-116.7667,1499.6,2015,1011,,,20,,,,96,2790,,,59.3,70.1,48.5
USR0000CMIL,MILL CREEK ANF CALIFORNIA,34.3903,-118.0825,1530.4,2015,965,,,23,,,,91,2870,,,58.8,66.7,51.0
USC00041700,CHESTER,40.3033,-121.2422,1380.7,2015,297,9,7,6,6,12.0,2.28,97,5254,18.68,18.4,50.3,65.5,35.2
USW00003171,RIVERSIDE MUNICIPAL AIRPORT,33.95194,-117.43861,245.2,2015,2366,0,,30,0,,1.83,108,799,7.51,,68.8,81.9,55.7
USR0000CSUF,SUGARLOAF SHF CALIFORNIA,40.9167,-122.4383,1280.2,2015,1478,,,24,,,,103,3168,,,59.9,69.4,50.4
USC00045064,LOMPOC,34.6538,-120.4513,22.9,2015,591,,,32,,,0.71,94,1290,5.00,,62.2,73.1,51.3
USC00046154,NEW CUYAMA FIRE STATION,34.9455,-119.6827,658.4,2015,1292,,,19,,,0.54,101,2298,3.35,,61.2,78.5,44.0
USR0000CBSR,BIG SUR CALIFORNIA,36.2356,-121.785,137.2,2015,520,,,34,,,,99,1752,,,61.3,72.4,50.1
USR0000CMID,MID HILLS CALIFORNIA,35.1231,-115.4114,1649.9,2015,1225,,,21,,,,95,3172,,,58.7,68.6,48.8
USC00047248,RANCHO BERNARDO,33.0216,-117.0813,210.3,2015,1501,,,31,,,1.13,100,822,10.37,,66.4,76.3,56.5
USC00046399,OJAI,34.4477,-119.2275,227.1,2015,1136,,,21,,,1.35,105,,6.35,,62.5,80.4,44.5
US1CAPC0007,ROSEVILLE 4.7 WNW,38.7802,-121.3766,29.3,2015,,,,,,,1.15,,,8.54,,,,
USR0000CBRI,BRIONES CALIFORNIA,37.9442,-122.1178,442.0,2015,745,,,33,,,,101,2275,,,60.2,69.5,50.8
USR0000CDVR,DEVORE CALIFORNIA,34.2211,-117.4044,627.0,2015,2005,,,28,,,,104,1174,,,66.9,77.0,56.7
USR0000CSTA,STAMPEDE CALIFORNIA,39.4833,-120.075,2093.1,2015,102,,,-1,,,,92,5917,,,47.8,62.9,32.8
USC00048351,SONOMA,38.2994,-122.4622,29.6,2015,724,,,24,,,1.75,105,2043,9.14,,60.5,74.4,46.6
USR0000CBRO,BROOKS CALIFORNIA,38.7383,-122.1447,107.9,2015,1952,,,23,,,,109,1687,,,64.9,79.1,50.8
US1CASS0001,KNIGHTS FERRY 5.2 WSW,37.7892,-120.7518,43.9,2015,,0,0,,0,0.0,1.59,,,11.83,0.0,,,
USS0019L45S,Carson Pass,38.69,-119.99,2546.0,2015,0,180,,3,56,,2.40,77,7591,30.99,,42.9,52.3,33.5
USR0000COKO,OAK OPENING CALIFORNIA,36.1753,-118.7017,987.6,2015,1780,,,23,,,,106,2210,,,62.8,74.4,51.2
USC00042805,ELSINORE,33.6692,-117.3319,391.7,2015,2322,,,27,,,0.73,108,919,5.62,,68.4,82.4,54.4
USR0000COKN,OAKLAND NORTH CALIFORNIA,37.865,-122.2208,427.6,2015,366,,,32,,,,96,2746,,,58.2,65.7,50.7
USW00003164,CAMPO ASOS,32.6261,-116.4681,805.0,2015,951,,,17,,,1.47,105,2571,9.52,,60.0,76.2,43.8
USR0000CBRA,BRANCH MOUNTAIN CALIFORNIA,35.1889,-120.0833,1149.1,2015,1291,,,26,,,,99,2630,,,60.3,69.7,51.0
USW00003166,FULLERTON MUNICIPAL AIRPORT,33.87194,-117.97889,29.3,2015,2128,0,0,35,0,0.0,1.31,105,479,5.38,0.0,69.0,79.7,58.2
USR0000COKS,OAKLAND SOUTH CALIFORNIA,37.7861,-122.1447,333.8,2015,410,,,33,,,,98,2542,,,58.6,66.5,50.7
USW00003167,HAWTHORNE MUNICIPAL AIRPORT,33.92278,-118.33417,19.2,2015,,0,0,,0,0.0,1.59,,440,5.83,0.0,,,
USR0000CSTO,STONYFORD CALIFORNIA,39.3669,-122.575,365.8,2015,1628,,,23,,,,109,2168,,,62.8,78.1,47.6
USC00048587,STONY GORGE RESERVOIR,39.5861,-122.5341,243.8,2015,1653,,,22,,,1.80,110,2326,10.58,,62.6,78.3,46.9
USC00047253,RANDSBURG,35.3692,-117.6525,1088.1,2015,,,,,,,2.90,,,5.89,,,,
USC00046168,NEWMAN,37.2811,-121.0177,27.4,2015,2491,,,23,,,1.00,113,1336,5.11,,67.2,83.6,50.8
US1CAAL0003,CASTRO VALLEY 0.4 NNE,37.7169,-122.0585,163.4,2015,,,,,,,2.28,,,13.74,,,,
USC00049452,WASCO,35.5892,-119.352,88.7,2015,,,,,,,1.22,108,,3.90,,,81.3,
US1CAAL0001,PIEDMONT 1.0 SE,37.8123,-122.216,113.4,2015,,,,,,,1.50,,,12.12,,,,
USR0000CDUN,DUNCAN CALIFORNIA,39.1439,-120.5089,2164.1,2015,,,,,,,,,4963,,,,,
USC00041967,CONCORD WASTEWATER PLANT,37.9833,-122.0692,12.2,2015,1310,,,29,,,1.10,104,1480,8.79,,63.8,75.9,51.7
USR0000CSRS,SANTA ROSA CALIFORNIA,38.4786,-122.7119,175.6,2015,670,,,32,,,,102,1873,,,61.1,72.2,50.1
US1CAST0004,HOLLISTER 5.4 NNE,36.9306,-121.3704,75.3,2015,,,,,,,1.02,,,7.83,,,,
US1CAST0005,HOLLISTER 2.1 ESE,36.8422,-121.365,118.6,2015,,,,,,,1.02,,,8.89,,,,
USR0000COKG,OAK GROVE CALIFORNIA,33.3933,-116.795,838.8,2015,1317,,,20,,,,104,2003,,,62.6,77.3,47.9
US1CAST0006,HOLLISTER 0.3 WSW,36.8544,-121.4035,99.4,2015,,,,,,,1.10,,,9.12,,,,
USR0000CDVA,DEL VALLE CALIFORNIA,34.4311,-118.6828,389.5,2015,2000,,,29,,,,108,1046,,,67.1,80.2,54.0
US1CAST0002,SAN JUAN BAUTISTA 0.5 S,36.8393,-121.5375,76.8,2015,,,,,,,2.00,,,11.31,,,,
US1CAKN0001,INYOKERN 9.4 WSW,35.6345,-117.9782,1316.4,2015,,1,0,,1,0.9,0.81,,,4.72,1.4,,,
USC00046175,NEWPORT BEACH HARBOR,33.6025,-117.8803,3.0,2015,1040,,,42,,,1.03,92,748,5.03,,65.3,70.7,59.9
USC00048353,SONORA,37.9672,-120.3872,510.5,2015,997,,,22,,,1.82,103,2861,17.39,,59.0,74.4,43.5
USS0019L05S,Blue Lakes,38.61,-119.92,2455.8,2015,0,165,,1,61,,2.60,78,7623,33.74,,42.7,53.0,32.4
USR0000CMET,METCALF GAP CALIFORNIA,37.4094,-119.7681,937.9,2015,2146,,,26,,,,104,2057,,,64.2,73.8,54.6
USR0000CBPI,BIG PINE FLAT CALIFORNIA,34.3194,-117.0131,2091.2,2015,250,,,8,,,,93,4810,,,51.2,65.1,37.4
US1CAHM0026,BRIDGEVILLE 5.2 ENE,40.4734,-123.7013,815.3,2015,,,,,,,6.59,,,59.91,,,,
USC00046194,NICOLAUS NUMBER 2,38.9261,-121.5447,13.1,2015,,,,,,,1.22,,,8.85,,,,
US1CAHM0022,WILLOW CREEK 4.5 NNE,40.9392,-123.6236,199.6,2015,,,,,,,2.34,,,40.20,,,,
USC00043914,HENSHAW DAM,33.2372,-116.7614,823.0,2015,939,,,17,,,1.58,105,2741,17.48,,59.2,76.5,41.9
USC00041738,CHIRIACO SUMMIT,33.6617,-115.7206,520.0,2015,,,,,,,0.50,111,,2.88,,,85.0,
USS0020K13S,Truckee NUMBER 2,39.3,-120.18,1983.9,2015,124,133,,8,32,,2.20,88,5682,27.47,,48.7,60.0,37.3
USR0000CSQU,SQUAW LAKE CALIFORNIA,32.9083,-114.4944,91.4,2015,5102,,,30,,,,117,403,,,77.4,89.1,65.8
USR0000CMEN,MENDOCINO PASS CALIFORNIA,39.8075,-122.945,1652.0,2015,558,,,18,,,,92,,,,53.4,61.8,45.1
USR0000CSQS,SQUAW SPRINGS CALIFORNIA,35.37,-117.5683,1103.4,2015,2359,,,28,,,,106,1723,,,66.0,75.9,56.0
USR0000CSRI,SANTA ROSA ISLAND CALIFORNIA,33.9778,-120.0778,395.6,2015,516,,,41,,,,97,2009,,,60.6,67.0,54.2
USR0000CSRO,SANTA ROSA PLATEAU CALIFORNIA,33.5286,-117.2306,603.5,2015,1505,,,30,,,,102,1282,,,65.2,75.5,54.9
US1CATY0003,DOUGLAS CITY 2.4 SW,40.6326,-122.9777,514.8,2015,,,,,,,2.36,,,25.49,,,,
USC00049699,WILLOWS 6 W,39.523,-122.3058,71.0,2015,,,,,,,,,1481,,,,,
USC00048122,SHAFTER 6 E,35.4867,-119.1458,123.1,2015,1917,,,25,,,0.48,105,1749,4.73,,64.5,79.4,49.6
US1CALS0002,SUSANVILLE 3.5 SSW,40.363,-120.674,1325.0,2015,,,,,,,1.75,,,18.03,,,,
US1CAKN0013,ONYX 2.8 ENE,35.7022,-118.1739,926.3,2015,,,,,,,1.30,,,6.44,,,,
USC00048380,SO ENTRANCE YOSEMITE N.P.,37.5122,-119.6331,1538.3,2015,226,,,11,,,3.13,90,4961,25.69,,50.4,63.1,37.7
USC00049473,WATSONVILLE WATERWORKS,36.9308,-121.7691,29.0,2015,476,,,31,,,1.97,101,1803,12.78,,61.0,72.0,50.0
USR0000CBOG,BOGARD RANGER STATION CALIFORNIA,40.5981,-121.0831,1722.1,2015,69,,,-16,,,,97,6388,,,46.1,64.1,28.2
US1CAHM0038,KNEELAND 0.4 NNW,40.7659,-123.9985,612.0,2015,,,,,,,2.50,,,49.24,,,,
US1CAAL0022,FREMONT 1.9 SE,37.513,-121.9691,9.8,2015,,,,,,,1.90,,,9.67,,,,
US1CAHM0035,EUREKA 2.2 S,40.7642,-124.1476,59.1,2015,,,,,,,2.14,,,37.18,,,,
USR0000CMEA,MEANS LAKE CALIFORNIA,34.3906,-116.5169,883.9,2015,2676,,,17,,,,109,1677,,,66.9,81.3,52.5
US1CADN0008,CRESCENT CITY 7.8 NNE,41.8617,-124.1437,29.0,2015,,,,,,,6.93,,,70.50,,,,
USC00048135,SHASTA DAM,40.7141,-122.4161,327.7,2015,2331,,,32,,,6.65,110,1848,35.22,,65.8,77.0,54.6
USS0019L03S,Hagan s Meadow,38.85,-119.94,2370.1,2015,0,134,,-5,53,,2.90,81,7480,31.58,,43.3,57.0,29.7
USC00046197,NILAND,33.2775,-115.5239,-18.3,2015,,,,,,,0.45,,,1.50,,,,
USR0000CBOO,BOONVILLE CALIFORNIA,38.9875,-123.3486,196.3,2015,679,,,28,,,,103,2175,,,60.0,73.1,46.9
US1CAAL0018,BERKELEY 4.0 E,37.8575,-122.2256,349.9,2015,,,,,,,1.41,,,11.56,,,,
USC00049001,TRACY PUMPING PLANT,37.7967,-121.5828,18.6,2015,1864,,,27,,,1.03,106,1493,7.25,,65.2,77.3,53.0
USR0000CBNL,BEN LOMOND CALIFORNIA,37.1317,-122.17,801.6,2015,886,,,32,,,,98,2559,,,59.7,67.9,51.5
US1CAHM0048,WILLOW CREEK 4.9 NNE,40.9473,-123.6279,152.7,2015,,,,,,,2.46,,,40.19,,,,
USC00041758,CHULA VISTA,32.64,-117.0858,17.1,2015,1300,,,36,,,0.88,99,633,7.16,,66.3,74.3,58.4
USC00043937,HESPERIA 2 E,34.4206,-117.2661,931.2,2015,1884,0,0,23,0,0.0,0.55,104,2011,4.37,0.0,63.9,77.3,50.6
US1CAHM0044,REDWAY 1.8 WSW,40.1093,-123.8519,291.1,2015,,,,,,,4.90,,,40.57,,,,
US1CAHM0047,HYDESVILLE 11.4 NE,40.6578,-123.9245,745.5,2015,,,,,,,3.84,,,50.43,,,,
USC00043939,HETCH HETCHY,37.9613,-119.783,1179.6,2015,966,,,16,,,3.40,97,3348,29.97,,57.5,68.7,46.2
USR0000CMCG,MCGUIRES CALIFORNIA,39.3528,-123.6011,180.7,2015,339,,,27,,,,101,2672,,,57.6,69.5,45.7
USR0000CSOM,SOMES BAR CALIFORNIA,41.39,-123.4958,280.4,2015,1426,,,24,,,,114,2517,,,61.3,75.5,47.1
USC00041990,COPCO NUMBER 1 DAM,41.9797,-122.3378,823.9,2015,940,,,17,,,1.28,108,3766,18.67,,56.2,70.9,41.5
USS0019L40S,Monitor Pass,38.67,-119.61,2532.9,2015,0,145,,2,42,,2.00,79,6869,25.66,,44.9,54.6,35.0
USR0000CMSA,MARIPOSA CALIFORNIA,37.5042,-119.9869,680.0,2015,1493,,,23,,,,103,2380,,,61.6,74.6,48.6
US1CASR0034,RANCHO CUCAMONGA 1.6 W,34.1223,-117.5977,420.3,2015,,,,,,,0.98,,,9.89,,,,
USR0000COWE,OWENS CAMP LOC CALIFORNIA,38.7333,-120.245,1597.2,2015,324,,,11,,,,94,4426,,,52.6,67.2,38.0
US1CAAM0009,VOLCANO 3.2 N,38.4882,-120.6313,739.4,2015,,,,,,,4.02,,,32.44,,,,
USR0000CKON,KONOCTI CALIFORNIA,38.9119,-122.7064,659.3,2015,1617,,,31,,,,103,2091,,,63.1,73.5,52.7
USR0000COWV,OWENS VALLEY CALIFORNIA,37.39,-118.5506,1414.3,2015,1657,,,15,,,,105,2676,,,61.1,74.9,47.3
USC00043261,FRIANT GOVERNMENT CAMP,36.9969,-119.7072,125.0,2015,2106,,,28,,,2.02,109,1721,10.36,,65.0,78.8,51.3
US1CASR0036,FAWNSKIN 0.3 NE,34.2712,-116.9383,2142.7,2015,,,,,,,1.09,,,12.31,,,,
USC00046773,PEARBLOSSOM,34.5025,-117.8969,945.2,2015,2145,0,0,23,0,0.0,1.90,104,1939,6.53,0.0,64.8,77.7,52.0
US1CAMD0001,UKIAH 8.4 NW,39.2206,-123.3312,759.6,2015,,,,,,,4.57,,,31.62,,,,
US1CASR0020,LANDERS 1.6 NE,34.2828,-116.3751,900.4,2015,,,,,,,0.57,,,4.37,,,,
USC00043038,FIDDLETOWN DEXTER RANCH,38.5236,-120.7061,658.4,2015,,0,0,,0,0.0,3.89,,,27.77,0.0,,,
USR0000CKNO,KNOXVILLE CREEK CALIFORNIA,38.8619,-122.4172,670.6,2015,1221,,,25,,,,106,2420,,,61.2,74.0,48.3
USR0000CMS2,MOUNT SHASTA CALIFORNIA,41.3156,-122.3156,0.0,2015,472,,,11,,,,99,4437,,,53.2,66.7,39.7
US1CAAM0003,VOLCANO 6.4 NE,38.4986,-120.5364,1115.3,2015,,,,,,,5.14,,,36.47,,,,
US1CASR0029,RIALTO 2.1 N,34.1442,-117.381,451.7,2015,,,,,,,1.17,,,10.69,,,,
USR0000CMRK,MARKLEEVILLE CALIFORNIA,38.6833,-119.7667,1676.7,2015,299,,,1,,,,93,5101,,,50.8,65.2,36.4
USR0000CEAG,EAGLE PEAK CALIFORNIA,39.9278,-122.6569,1131.7,2015,1306,,,25,,,,99,2936,,,59.8,67.1,52.5
USC00047646,SAINT HELENA 4 WSW,38.493,-122.5383,542.5,2015,,,,,,,3.64,,,21.49,,,,
USC00047888,SANTA ANA FIRE STATION,33.7442,-117.8667,41.1,2015,2138,,,39,,,0.97,106,373,5.41,,69.3,79.5,59.1
USC00047880,SAN RAFAEL CIVIC CEN,37.99833,-122.53722,36.6,2015,,,,,,,1.85,,,11.86,,,,
USC00047643,SAINT HELENA,38.5066,-122.4713,68.6,2015,1137,,,25,,,2.80,105,1556,13.20,,63.1,77.1,49.2
US1CAHM0009,MCKINLEYVILLE 2.3 NE,40.9778,-124.086,82.3,2015,,,,,,,3.19,,,45.68,,,,
US1CAMD0021,ALBION 4.0 SE,39.1878,-123.7096,193.9,2015,,,,,,,3.77,,,29.91,,,,
US1CAHM0004,MCKINLEYVILLE 2.7 SE,40.9231,-124.084,99.1,2015,,,,,,,2.69,,,40.98,,,,
US1CASR0043,YUCCA VALLEY 2.7 ENE,34.1295,-116.3877,992.7,2015,,,,,,,0.58,,,4.11,,,,
USR0000CMOU,MOUNTAIN REST CALIFORNIA,37.0544,-119.3711,1249.7,2015,1401,,,22,,,,97,2636,,,60.5,69.5,51.5
USR0000CVAY,VALYERMO CALIFORNIA,34.4456,-117.8511,1152.1,2015,1414,,,17,,,,105,2643,,,60.8,75.8,45.8
US1CASR0046,JOSHUA TREE 0.0 ESE,34.1269,-116.3175,878.7,2015,,,,,,,0.98,,,4.77,,,,
USR0000CVAN,VAN BREMMER CALIFORNIA,41.6431,-121.7939,1502.1,2015,505,,,8,,,,98,5050,,,51.8,63.0,40.7
USR0000CVAL,VALLEY CENTER CALIFORNIA,33.2372,-117.0086,452.0,2015,1587,,,29,,,,102,1127,,,65.8,78.3,53.4
USC00045233,MADERA,36.9539,-120.0378,82.3,2015,1972,,,26,,,,105,1902,,,64.3,77.2,51.3
USS0019L44S,Horse Meadow,38.84,-119.89,2608.2,2015,0,152,,2,64,,1.80,76,7324,27.89,,43.7,52.8,34.7
US1CAPC0024,APPLEGATE 0.5 SE,38.9962,-120.986,604.4,2015,,,,,,,4.42,,,25.43,,,,
USC00048758,TAHOE CITY,39.1678,-120.1428,1898.9,2015,56,55,19,5,17,12.0,2.32,88,6431,22.61,78.0,46.5,60.0,32.9
USC00047668,SALINAS NUMBER 2,36.6594,-121.6663,13.7,2015,305,,,30,,,,98,1867,,,60.1,71.3,48.9
USC00048999,TRACY CARBONA,37.6819,-121.3466,41.1,2015,,,,,,,0.64,,,6.67,,,,
US1CAPC0021,ROSEVILLE 2.4 SE,38.7399,-121.2575,47.5,2015,,,,,,,2.33,,,11.33,,,,
USR0000CBZE,BRAZIE RANCH CALIFORNIA,41.6853,-122.5942,914.4,2015,1260,,,20,,,,105,,,,57.6,69.2,46.1
USC00044394,JOHNSON VALLEY,34.3591,-116.5378,965.3,2015,2034,0,0,22,0,0.0,0.91,103,2082,4.25,0.0,64.1,76.4,51.7
US1CASA0039,FAIR OAKS 1.9 N,38.6762,-121.2518,60.7,2015,,,,,,,1.45,,,10.99,,,,
USC00046572,OXNARD WEATHER FORECAST OFFICE,34.2066,-119.1375,15.8,2015,924,,,34,,,1.40,99,1107,5.65,,64.0,74.2,53.8
USC00046336,OAKLAND MUSEUM,37.79833,-122.26417,9.1,2015,,,,,,,1.18,,,9.26,,,,
US1CASA0031,FOLSOM 0.5 W,38.6754,-121.1556,102.1,2015,,,,,,,1.02,,,11.70,,,,
US1CASA0030,LA RIVIERA 1.0 NE,38.5753,-121.34,19.5,2015,,,,,,,1.23,,,9.01,,,,
USC00047681,SALSIPUEDES GAGING STATION,34.5686,-120.4083,80.5,2015,,,,,,,0.50,,,4.94,,,,
USS0019L43S,Forestdale Creek,38.68,-119.96,2443.6,2015,7,169,,3,70,,2.40,80,6708,36.09,,45.4,55.6,35.1
USC00043083,FIVE POINTS 5 SSW,36.3642,-120.1561,86.9,2015,,,,,,,0.55,,,3.57,,,,
USS0020L06S,Echo Peak,38.85,-120.08,2337.8,2015,28,158,,9,66,,4.60,79,6294,43.18,,46.7,54.7,38.6
US1CAPC0013,NEWCASTLE 1.6 SSE,38.851,-121.123,243.8,2015,,,,,,,1.51,,,15.42,,,,
US1CAPC0011,COLFAX 3.1 SW,39.061,-120.9911,633.1,2015,,,,,,,3.00,,,25.28,,,,
USC00047672,SALINAS DAM,35.3372,-120.5038,424.3,2015,,,,,,,1.36,,1750,8.43,,,,
USR0000CMNC,MONTECITO CALIFORNIA,34.4614,-119.6481,457.2,2015,1721,,,40,,,,102,986,,,66.7,74.7,58.8
USC00048760,TAHOMA,39.06,-120.1292,1924.8,2015,,61,23,,25,15.0,2.67,,7023,27.87,95.3,,,
US1CASA0029,FOLSOM 0.6 NE,38.6823,-121.1375,121.6,2015,,,,,,,2.64,,,13.80,,,,
USS0019L42S,Summit Meadow,38.4,-119.54,2838.6,2015,0,172,,1,41,,1.70,75,7889,29.35,,42.0,50.4,33.5
US1CABT0026,GRIDLEY 3.3 SE,39.3348,-121.6458,28.0,2015,,,,,,,1.65,,,9.96,,,,
USR0000CQUA,QUARTZ HILL CALIFORNIA,41.5992,-122.9336,1287.8,2015,1022,,,17,,,,100,4182,,,55.6,65.9,45.4
USR0000CMLR,MALLORY RIDGE CALIFORNIA,37.8172,-121.7789,621.8,2015,,,,,,,,,2300,,,,,
USC00041907,COLEMAN FISHERIES STATION,40.4,-122.1433,128.0,2015,,,,,,,1.04,,,19.30,,,,
US1CASR0014,JOSHUA TREE 2.0 S,34.0973,-116.3178,1039.1,2015,,,,,,,0.63,,,5.13,,,,
USC00049866,YREKA,41.7036,-122.6408,800.1,2015,977,7,3,13,3,2.6,2.05,108,4026,16.43,7.4,55.8,70.7,41.0
USC00046597,PACIFIC HOUSE,38.7583,-120.503,1051.6,2015,597,18,2,18,8,6.8,4.98,98,4163,39.61,15.0,54.4,67.6,41.2
USC00049621,WHISKEYTOWN RESERVOIR,40.6116,-122.528,394.7,2015,2030,0,0,28,0,0.0,,113,,35.59,0.0,64.3,76.9,51.7
USR0000CQUI,QUINCY RD CALIFORNIA,39.9733,-120.9419,1066.8,2015,659,,,12,,,,106,3801,,,55.7,73.6,37.7
USS0019L41S,Burnside Lake,38.72,-119.89,2477.7,2015,0,159,,-12,57,,1.90,77,8408,35.48,,40.4,54.0,26.7
USR0000COPA,OPAL MOUNTAIN CALIFORNIA,35.1542,-117.1756,987.6,2015,2405,,,26,,,,105,1631,,,66.4,77.9,54.9
USC00045280,MAMMOTH LAKES RANGER STATION,37.6478,-118.9617,2378.7,2015,71,65,21,-9,13,9.0,1.50,85,6391,15.93,71.7,45.7,59.0,32.3
USR0000CBVR,BEAVER CAMP LOC CALIFORNIA,38.4883,-120.325,1524.0,2015,1175,,,19,,,,100,2953,,,59.2,70.6,47.7
USC00041912,COLFAX,39.0911,-120.948,725.4,2015,1653,,,25,,,2.92,106,2382,25.72,,62.8,76.3,49.4
USC00041916,COLGATE POWERHOUSE,39.3308,-121.1922,181.4,2015,,0,0,,0,0.0,2.90,,,21.45,0.0,,,
US1CASR0002,HESPERIA 2.1 E,34.4199,-117.2647,933.3,2015,,,,,,,0.55,,,4.37,,,,
US1CASR0003,WRIGHTWOOD 1.2 WNW,34.3651,-117.6511,1873.9,2015,,,,,,,2.99,,,14.44,,,,
US1CASR0004,UPLAND 0.5 ESE,34.1151,-117.6498,431.3,2015,,,,,,,0.88,,,9.42,,,,
US1CALA0036,PASADENA 2.0 SE,34.1392,-118.1161,225.2,2015,,,,,,,2.20,,,8.15,,,,
USR0000CDIA,DIABLO GRANDE CALIFORNIA,37.3292,-121.2939,563.9,2015,1600,,,32,,,,101,2017,,,63.2,72.6,53.8
US1CABT0002,OROVILLE 2.7 ENE,39.514,-121.518,163.1,2015,,,,,,,2.05,,,16.80,,,,
US1CASA0002,SACRAMENTO 8.0 NE,38.635,-121.3611,29.0,2015,,,,,,,1.44,,,10.28,,,,
USR0000CBEA,BEAR PEAK CALIFORNIA,35.8842,-118.0517,2507.9,2015,,,,,,,,,5519,,,,,
US1CABT0009,CHICO 2.9 W,39.7494,-121.8614,57.9,2015,,,,,,,2.50,,,11.92,,,,
US1CABT0007,CHICO 1.2 NNW,39.7697,-121.8138,76.5,2015,,,,,,,2.35,,,12.17,,,,
USR0000CSFD,SANTA FE DAM CALIFORNIA,34.1208,-117.9458,152.4,2015,2938,,,37,,,,109,339,,,71.6,85.1,58.1
USR0000CBDY,BRADLEY CALIFORNIA,35.8644,-120.8031,163.7,2015,1465,,,21,,,,110,1874,,,62.7,80.1,45.3
USR0000CJUA,JUANITA LAKE CALIFORNIA,41.7861,-122.0056,1645.9,2015,582,,,9,,,,99,4948,,,52.3,64.3,40.4
USW00023202,TRAVIS FIELD AFB,38.26667,-121.93333,18.0,2015,,,,26,,,,106,1546,,,62.9,75.2,50.7
USC00041244,BUTTONWILLOW,35.4028,-119.47,68.6,2015,,,,,,,,107,,,,,79.7,
USR0000CBEN,BENTON CALIFORNIA,37.8431,-118.4778,1661.2,2015,459,,,1,,,,99,4296,,,53.0,69.5,36.4
USC00044997,LIVERMORE,37.6922,-121.7691,146.3,2015,1120,,,25,,,1.50,106,1902,8.61,,61.9,75.1,48.7
USR0000CWOF,WOFFORD HEIGHTS CALIFORNIA,35.7217,-118.4989,960.1,2015,1616,,,21,,,,104,2370,,,61.9,74.6,49.2
USR0000CJUN,JUNIPER CREEK CALIFORNIA,41.3322,-120.4725,1332.6,2015,451,,,-6,,,,100,4889,,,51.6,65.6,37.5
USR0000CLYO,LYONS VALLEY CALIFORNIA,39.1258,-123.0736,975.4,2015,1183,,,28,,,,97,2987,,,59.5,67.1,51.8
USR0000CJUL,JULIAN CALIFORNIA,33.0758,-116.5908,1292.4,2015,945,,,20,,,,96,2819,,,58.7,68.4,49.0
USR0000CLYT,LYTLE CREEK CALIFORNIA,34.2339,-117.4803,851.0,2015,1436,,,23,,,,105,1693,,,63.7,76.8,50.5
USC00042574,DUNSMUIR TRTMNT PLANT,41.1833,-122.2736,661.4,2015,,,,,,,5.61,,,42.32,,,,
US1CALA0046,LA CRESCENTA MONTROSE 1.6 WNW,34.2406,-118.2611,570.6,2015,,,,,,,1.65,,,9.52,,,,
US1CALA0044,TORRANCE 0.7 E,33.834,-118.3281,28.0,2015,,,,,,,0.98,,,5.28,,,,
US1CALA0043,PASADENA 1.8 E,34.1619,-118.1073,277.7,2015,,,,,,,1.41,,,8.88,,,,
US1CABT0018,GRIDLEY 0.4 NNE,39.3691,-121.6926,26.2,2015,,,,,,,1.72,,,9.86,,,,
USR0000CSEC,SECRET TOWN CALIFORNIA,39.1836,-120.8847,861.4,2015,1241,,,25,,,,102,2661,,,60.4,73.8,47.0
US1CALA0049,CULVER CITY 1.6 SSW,33.986,-118.409,7.0,2015,,,,,,,1.61,,,7.76,,,,
USW00023213,SANTA ROSA SONOMA CO AIRPORT,38.5038,-122.8102,34.7,2015,,,,,,,2.62,,2129,15.02,,,,
USC00041497,CANYON DAM,40.1705,-121.0886,1389.9,2015,366,,,10,,,2.21,98,4936,23.34,,51.5,65.5,37.5
USC00045853,MORGAN HILL,37.1363,-121.6025,114.3,2015,,,,,,,,104,,,,,74.7,
USC00041018,BOWMAN DAM,39.4539,-120.6556,1641.3,2015,,74,17,10,30,13.5,3.65,,,44.94,93.8,,,42.3
USC00046946,PIT RIVER POWER HOUSE 5,40.9869,-121.9772,444.4,2015,,0,0,,0,0.0,3.48,,,43.33,0.0,,,
USC00046940,PIRU 2 ESE,34.4061,-118.7569,217.0,2015,,,,,,,1.25,,,6.83,,,,
USC00041253,CACHUMA LAKE,34.5822,-119.9817,242.3,2015,933,,,19,,,0.63,109,1831,4.78,,62.2,81.9,42.4
US1CALA0014,CANYON COUNTRY 2.6 E,34.4268,-118.4275,492.9,2015,,,,,,,1.13,,,6.89,,,,
US1CALA0011,REDONDO BEACH 2.6 S,33.8192,-118.3771,35.7,2015,,,0,,,0.0,0.97,,,6.04,0.0,,,
USR0000CUHL,UHL HOT SPRINGS,35.8889,-118.6333,1133.9,2015,1207,,,21,,,,101,2749,,,59.6,72.0,47.2
US1CALA0010,WHITTIER 2.9 WNW,33.9862,-118.0664,52.1,2015,,,,,,,1.10,,,6.65,,,,
USR0000CSDD,SADDLEBACK CALIFORNIA,39.6375,-120.8653,2033.0,2015,,,,12,,,,90,5267,,,50.4,57.7,43.1
USC00046719,PASADENA,34.1483,-118.1447,263.3,2015,,,,,,,1.50,104,508,10.87,,,81.1,
USR0000CSDC,SODA CREEK CALIFORNIA,39.425,-122.9772,540.4,2015,780,,,14,,,,108,3216,,,57.5,74.9,40.0
USR0000CBBR,BIG BAR CALIFORNIA,40.7333,-123.2333,457.2,2015,1438,,,21,,,,114,2707,,,60.7,75.7,45.7
USC00040176,AMBOY,34.5591,-115.7441,197.5,2015,,0,0,25,0,0.0,0.35,118,,1.92,0.0,74.7,90.1,59.3
USC00044534,KETTLEMAN CITY,36.0067,-119.96,73.2,2015,2382,,,23,,,0.71,109,1773,4.38,,65.9,79.8,51.9
USC00045866,MORRO BAY FIRE DEPARTMENT,35.367,-120.8447,36.0,2015,771,,,34,,,1.82,96,1047,8.56,,63.7,73.0,54.3
USC00042598,EAGLE MOUNTAIN,33.8089,-115.4508,296.6,2015,4207,,,29,,,0.73,111,715,4.33,,74.2,84.1,64.3
USR0000CHOR,HORSE THIEF SPRINGS CALIFORNIA,35.7706,-115.9092,1524.0,2015,1881,,,21,,,,101,2519,,,62.0,71.1,52.8
USR0000CDGR,DEVILS GARDEN CALIFORNIA,41.53,-120.6714,1530.7,2015,465,,,0,,,,99,5164,,,51.0,63.4,38.6
USR0000CBCN,BELL CANYON CALIFORNIA,33.5417,-117.5917,213.4,2015,1728,,,37,,,,104,768,,,67.3,77.2,57.3
US1CACC0001,MARTINEZ 0.8 SSE,37.9898,-122.1085,76.8,2015,,,,,,,2.03,,,10.26,,,,
USR0000CHOO,HOOPA CALIFORNIA,41.0478,-123.6714,114.3,2015,915,,,25,,,,107,2349,,,60.1,72.7,47.5
USC00045860,MORONGO VALLEY NORTH,34.0864,-116.5622,958.6,2015,2131,0,0,27,0,0.0,1.05,103,1705,6.20,0.0,65.5,76.1,54.9
USR0000CHOL,HORSE LAKE CALIFORNIA,40.6306,-120.5028,1554.5,2015,305,,,-1,,,,98,5725,,,49.2,64.3,34.0
US1CALA0023,DIAMOND BAR 1.9 NNE,34.0232,-117.7965,285.0,2015,,,,,,,1.08,,,7.63,,,,
USR0000CSCI,SANTA CRUZ ISLAND CALIFORNIA,33.9958,-119.7222,76.2,2015,,,,,,,,,1152,,,,,
USR0000CSCN,SCORPION CALIFORNIA,41.1117,-122.6967,1341.1,2015,1241,,,20,,,,104,3362,,,58.7,72.0,45.3
US1CASA0012,SACRAMENTO 2.0 SE,38.5499,-121.4374,10.4,2015,,,,,,,1.61,,,9.54,,,,
US1CACC0011,MARTINEZ 2.2 SW,37.9744,-122.1384,210.9,2015,,,,,,,1.76,,,10.48,,,,
USR0000CBAR,BARNABY CALIFORNIA,38.0281,-122.7022,378.0,2015,455,,,34,,,,100,,,,59.7,69.6,49.8
US1CACC0010,LAFAYETTE 1.9 WSW,37.8883,-122.1526,157.9,2015,,,,,,,2.22,,,14.22,,,,
USR0000CFIV,FIVE MILE CALIFORNIA,35.8717,-117.9183,1264.9,2015,2487,,,29,,,,106,1737,,,66.1,75.6,56.7
USR0000CDES,DESCANSO CALIFORNIA,32.8569,-116.6222,1060.7,2015,985,,,18,,,,100,2468,,,60.3,73.6,46.9
USR0000CBAT,BATTERSON CALIFORNIA,37.2319,-119.5083,963.2,2015,1758,,,21,,,,103,2252,,,62.6,74.4,50.7
USR0000CYOL,YOLLA BOLLA CALIFORNIA,40.3375,-123.0656,1378.8,2015,831,,,19,,,,101,3818,,,56.2,69.4,43.0
USC00041277,CALAVERAS BIG TREES,38.2769,-120.3113,1431.0,2015,463,,,15,,,4.59,91,,37.41,,53.1,63.3,42.8
USC00044303,IRVINE RANCH,33.72,-117.723,164.6,2015,1955,,,31,,,1.70,105,555,8.96,,68.4,81.2,55.6
US1CACC0018,WALNUT CREEK 1.4 SSE,37.8846,-122.0285,84.4,2015,,,,,,,1.59,,,10.12,,,,
USC00047813,SAN JACINTO R S,33.7869,-116.9583,475.5,2015,2069,,,26,,,1.29,108,1162,7.33,,66.9,81.4,52.4
US1CASA0005,CARMICHAEL 0.9 NE,38.6429,-121.3059,39.6,2015,,,,,,,1.30,,,8.85,,,,
US1CASA0007,FOLSOM 1.2 SSE,38.66,-121.1395,110.3,2015,,,,,,,1.33,,,12.07,,,,
USR0000CHNM,HUNTER MOUNTAIN CALIFORNIA,36.5625,-117.4736,2097.0,2015,554,,,9,,,,92,4746,,,52.4,63.4,41.5
US1CASD0099,EL CAJON 3.2ESE,32.7797,-116.9103,238.7,2015,,,,,,,0.78,,,10.36,,,,
US1CASC0053,LOS GATOS 9.6 SSE,37.1039,-121.8896,670.3,2015,,,,,,,5.29,,,23.13,,,,
USR0000CSBB,SANTA BARBARA ISLAND CALIFORNI,33.4833,-119.0333,53.6,2015,612,,,52,,,,86,935,,,63.8,66.8,60.8
USW00023244,MOFFETT FEDERAL AIRFIELD,37.40583,-122.04806,11.9,2015,,0,,,0,,1.38,,,8.68,,,,
USC00044555,KING CITY,36.2069,-121.1377,97.5,2015,878,,,23,,,0.77,107,1676,5.57,,61.7,77.1,46.4
USR0000CFIS,FISH CREEK MOUNTAIN CALIFORNIA,32.9903,-116.0669,231.6,2015,5424,,,37,,,,115,306,,,78.8,87.6,69.9
US1CASC0045,MORGAN HILL 1.4 SW,37.1168,-121.6591,132.0,2015,,,,,,,3.42,,,13.17,,,,
USC00040192,ANAHEIM,33.8647,-117.8425,102.1,2015,2353,,,34,,,1.41,104,386,10.40,,70.1,81.3,58.8
USR0000CBAL,BALD MOUNTAIN LOC CALIFORNIA,38.9056,-120.6972,1426.5,2015,1228,,,21,,,,99,3130,,,58.9,68.1,49.7
USR0000CFIG,FIGUEROA CALIFORNIA,34.7331,-120.0067,975.4,2015,1562,,,31,,,,98,1775,,,63.8,72.3,55.3
USR0000CBAC,BACKBONE CALIFORNIA,40.8892,-123.1422,1432.6,2015,1019,,,19,,,,101,,,,56.5,66.8,46.3
USC00043463,GLENNVILLE,35.7269,-118.7006,957.1,2015,,,,15,,,2.75,,3529,15.37,,,,40.2
USC00046730,PASO ROBLES,35.6277,-120.6855,222.5,2015,1071,,,20,,,2.30,106,2121,8.30,,61.2,78.2,44.1
US1CALA0003,TORRANCE 2.8 SW,33.7902,-118.3369,61.0,2015,,,,,,,1.08,,,6.75,,,,
US1CALA0001,GLENDALE 2.4 WSW,34.1689,-118.2947,155.8,2015,,0,0,,0,0.0,1.34,,,6.19,0.0,,,
USR0000CWIL,WILEY RIDGE CALIFORNIA,34.3717,-118.8408,501.4,2015,1578,,,37,,,,98,1261,,,65.5,73.5,57.4
USW00023254,CONCORD BUCHANAN FIELD,37.9917,-122.055,5.5,2015,1284,0,,28,0,,1.42,106,1579,7.96,,63.4,75.6,51.2
USR0000CHLD,HOPLAND CALIFORNIA,39.0308,-123.0806,817.5,2015,1398,,,30,,,,104,2439,,,61.6,71.7,51.5
USW00023259,MONTEREY PENINSUL AIRPORT,36.58806,-121.84528,50.3,2015,183,0,,32,0,,1.70,94,2164,10.62,,59.1,67.4,50.9
US1CALA0009,SHERMAN OAKS 1.7 ENE,34.1543,-118.42,194.5,2015,,,0,,,0.0,1.15,,,4.87,0.0,,,
USR0000CSAD,SADDLEBACK BUTTE CALIFORNIA,34.6847,-117.8208,789.4,2015,2085,,,14,,,,110,2158,,,63.8,81.3,46.4
USW00023258,MODESTO CITY CO AIRPORT,37.6241,-120.9505,22.3,2015,2043,0,0,27,0,0.0,0.97,106,1658,7.25,0.0,65.4,78.4,52.3
USR0000CSAC,SACRAMENTO NWR CALIFORNIA,39.4172,-122.1825,36.6,2015,1673,,,28,,,,106,1618,,,64.4,77.9,50.9
USW00023257,MERCED MUNICIPAL AIRPORT,37.28472,-120.51278,46.3,2015,1733,0,0,27,0,0.0,1.04,106,1819,6.81,0.0,63.6,77.4,49.7
USR0000CFHL,FORT HUNTER LIGGET CALIFORNIA,36.0117,-121.2417,335.3,2015,1215,,,22,,,,107,2038,,,61.9,79.4,44.4
USR0000CSAW,SAWYERS BAR CALIFORNIA,41.3003,-123.1322,668.1,2015,1069,,,21,,,,105,3441,,,57.8,71.1,44.4
US1CASC0057,MORGAN HILL 4.5 NW,37.1725,-121.703,94.5,2015,,,,,,,2.67,,,10.49,,,,
US1CASD0090,LA MESA 2.6E,32.7698,-116.9788,309.1,2015,,,,,,,1.17,,,10.97,,,,
USC00046508,ORLEANS,41.3088,-123.5316,122.8,2015,1010,,,23,,,2.51,107,2384,42.91,,60.1,72.6,47.7
USC00046506,ORLAND,39.7458,-122.1997,77.4,2015,1933,,,25,,,2.02,110,1656,8.97,,65.1,78.8,51.5
USR0000CHLR,HOLLISTER CALIFORNIA,36.8422,-121.3622,123.1,2015,699,,,27,,,,103,1899,,,60.8,73.8,47.9
USR0000CLTU,LITTLE TUJUNGA CALIFORNIA,34.2936,-118.3608,423.7,2015,1683,,,31,,,,102,1131,,,66.1,77.7,54.6
US1CASD0097,CARLSBAD 8.3SE,33.0794,-117.2419,67.7,2015,,,,,,,1.03,,,7.91,,,,
USR0000CSAU,SAUGUS CALIFORNIA,34.425,-118.525,442.0,2015,1982,,,29,,,,106,,,,66.9,79.2,54.7
USR0000CWHC,WHITE CLOUD CALIFORNIA,39.3167,-120.8375,1316.7,2015,1111,,,21,,,,97,3091,,,58.8,67.2,50.4
USR0000CWHH,WHITTIER HILLS CALIFORNIA,33.9839,-118.01,289.6,2015,2061,,,37,,,,104,621,,,68.6,79.8,57.3
USW00023225,BLUE CANYON AIRPORT,39.2774,-120.7102,1608.1,2015,600,,,18,,,3.79,90,4002,31.59,,54.8,61.7,47.8
USR0000CLST,LAS TABLAS CALIFORNIA,35.6564,-120.9242,303.0,2015,872,,,20,,,,106,2508,,,59.6,78.1,41.0
US1CASD0082,SPRING VALLEY 0.9 W,32.7189,-117.0043,103.3,2015,,,,,,,1.10,,,8.89,,,,
USR0000CJOH,JOHNSONDALE CALIFORNIA,35.9717,-118.545,1432.6,2015,362,,,1,,,,99,4295,,,53.1,71.3,34.8
US1CASD0086,CARLSBAD 1.3ENE,33.1658,-117.3307,59.1,2015,,,0,,,0.0,1.60,,,8.56,0.0,,,
USC00043244,FREMONT,37.5422,-122.0158,11.6,2015,612,,,30,,,1.39,97,1614,9.76,,61.3,71.7,50.9
USW00023230,OAKLAND METROPOLITAN INTERNATIONAL AIRPORT,37.72139,-122.22083,1.8,2015,330,0,,30,0,,0.99,95,2054,8.59,,59.6,68.3,50.8
USW00023232,SACRAMENTO EXECUTIVE AIRPORT,38.5069,-121.495,4.6,2015,1577,0,0,27,0,0.0,1.35,107,1673,8.53,0.0,63.8,77.0,50.5
USW00023237,STOCKTON METROPOLITAN AIRPORT,37.8891,-121.2258,7.9,2015,1638,0,,25,0,,1.04,108,1761,7.46,,63.8,77.8,49.8
USW00023234,SAN FRANCISCO INTERNATIONAL AIRPORT,37.6197,-122.3647,2.4,2015,303,,,34,,,1.21,93,1604,8.45,,60.4,67.9,52.9
USW00023233,SALINAS MUNICIPAL AIRPORT,36.6636,-121.6081,22.6,2015,356,,,32,,,1.22,97,1464,6.86,,60.9,71.0,50.9
US1CASC0040,LOS GATOS 5.4 SSW,37.156,-121.9875,506.6,2015,,,,,,,4.72,,,19.72,,,,
USC00048702,SUSANVILLE 2 SW,40.4167,-120.6631,1283.8,2015,568,6,4,8,3,2.8,1.85,100,4871,13.27,8.5,52.5,66.9,38.1
US1CASB0001,GOLETA 3.7 WNW,34.4397,-119.8961,48.2,2015,,,,,,,1.30,,,5.94,,,,
US1CASD0072,RAMONA 3 ENE,33.0507,-116.8278,620.0,2015,,,,,,,2.60,,,12.16,,,,
USC00041072,BRIDGEPORT,38.2575,-119.2286,1972.1,2015,28,25,10,-14,5,4.5,1.13,90,6808,11.13,24.5,44.9,64.5,25.2
USC00043491,GOLD RUN 2 SW,39.165,-120.8566,1011.9,2015,,,,,,,4.86,,,33.56,,,,
US1CASD0076,OCEANSIDE 8.1ENE,33.2499,-117.2559,57.6,2015,,,,,,,1.58,,,9.71,,,,
US1CAYB0001,CHALLENGE BROWNSVILLE 1.3 WSW,39.4518,-121.2801,624.5,2015,,,,,,,3.06,,,28.89,,,,
US1CASD0074,RANCHO BERNARDO 1.9WSW,33.0139,-117.1062,209.4,2015,,,,,,,1.03,,,9.09,,,,
USC00043256,FRESNO 5 NE,36.7672,-119.7092,103.0,2015,2583,,,28,,,1.67,110,1354,9.67,,67.7,81.9,53.3
USC00046521,OROVILLE,39.5177,-121.553,52.1,2015,1713,0,0,28,0,0.0,1.67,108,1827,13.46,0.0,64.0,77.6,50.4
USC00047851,SAN LUIS OBISPO POLY,35.3056,-120.6619,93.9,2015,732,,,26,,,1.68,101,1280,9.95,,62.8,74.9,50.7
USW00023285,LIVERMORE MUNICIPAL AIRPORT,37.6927,-121.8144,119.8,2015,1421,,,26,,,1.48,108,1609,9.15,,63.3,76.3,50.3
US1CASD0056,CARLSBAD 8.7SE,33.0946,-117.2214,184.4,2015,,,,,,,1.11,,,8.78,,,,
US1CASD0055,SAN DIEGO 5.2WNW,32.7348,-117.2447,76.5,2015,,,,,,,0.92,,,7.32,,,,
USC00047195,QUINCY,39.9366,-120.9475,1042.4,2015,381,,,11,,,3.31,100,4732,24.17,,52.0,68.4,35.7
US1CASD0059,ESCONDIDO 0.8 NNE,33.1474,-117.0656,223.7,2015,,,,,,,1.02,,,10.97,,,,
US1CASC0011,CAMBRIAN PARK 2.2 SE,37.2341,-121.8974,76.8,2015,,,,,,,2.50,,,10.57,,,,
USR0000CSNL,SAN LUIS NWR CALIFORNIA,37.1822,-120.7939,19.8,2015,1495,,,24,,,,106,1962,,,62.8,78.0,47.6
US1CATL0011,THREE RIVERS 1.7 NE,36.4584,-118.8858,307.8,2015,,,,,,,1.54,,,17.30,,,,
USR0000CMCB,MILL CREEK BDF CALIFORNIA,34.0836,-117.0347,899.2,2015,1763,,,27,,,,104,,,,65.2,76.5,53.9
USR0000CSOL,SOLDIER MOUNTAIN CALIFORNIA,40.9258,-121.5856,1130.8,2015,975,,,18,,,,101,3860,,,56.4,67.5,45.2
US1CASC0001,MOUNTAIN VIEW 1.2 S,37.3848,-122.0752,33.2,2015,,,,,,,1.73,,,7.77,,,,
USC00040798,BIG TUJUNGA DAM FC46,34.2947,-118.1883,709.0,2015,,,,,,,1.87,,,11.59,,,,
USR0000CWWO,WHITE WOLF CALIFORNIA,37.8511,-119.65,2446.0,2015,5,,,-1,,,,82,6704,,,45.0,57.5,32.5
US1CASC0003,SUNNYVALE 1.9 SE,37.3647,-122.0042,25.9,2015,,,,,,,1.56,,,9.21,,,,
USC00043824,HAT CREEK,40.9316,-121.5433,919.0,2015,430,,,9,,,1.18,103,4545,15.64,,52.9,70.9,34.9
US1CASD0061,EL CAJON 2.8SE,32.7724,-116.9197,209.1,2015,,,,,,,0.92,,,9.65,,,,
US1CASD0063,ESCONDIDO 7.2 SE,33.0563,-116.9925,483.1,2015,,,,,,,1.11,,,12.68,,,,
USC00049367,VISALIA,36.3278,-119.2994,106.7,2015,,,,,,,,,1784,,,,,
US1CASD0062,CARLSBAD 3.8SE,33.1187,-117.3044,51.2,2015,,,,,,,0.98,,,5.43,,,,
US1CASN0016,SEBASTOPOL 4.5 WSW,38.3753,-122.9035,128.9,2015,,,,,,,3.27,,,22.48,,,,
US1CASD0047,CHULA VISTA 3.1SE,32.6044,-117.0508,61.0,2015,,,,,,,0.94,,,7.17,,,,
USR0000CMAN,MANZANITA LAKE CALIFORNIA,40.54,-121.5803,1725.2,2015,95,,,3,,,,91,5921,,,47.7,60.9,34.5
USR0000CBLD,BLUE DOOR CALIFORNIA,41.0547,-120.3375,1711.5,2015,221,,,0,,,,95,5897,,,48.2,60.4,36.0
US1CASD0049,SAN DIEGO 9 NE,32.8168,-117.0586,89.0,2015,,,,,,,1.32,,,10.30,,,,
USW00023293,SAN JOSE,37.3591,-121.924,15.5,2015,726,,,30,,,1.26,97,1720,8.16,,61.6,72.1,51.2
USR0000CMAL,MALIBU HILLS CALIFORNIA,34.0583,-118.6333,480.1,2015,1862,,,40,,,,102,,,,67.2,76.1,58.3
USS0020H06S,Cedar Pass,41.58,-120.3,2142.7,2015,130,141,,6,52,,1.50,85,6445,31.43,,46.6,54.5,38.7
USC00042500,DOWNIEVILLE,39.5633,-120.8238,888.5,2015,594,,,19,,,4.39,100,3828,38.42,,55.5,70.7,40.2
USR0000CBLT,BEN BOLT CALIFORNIA,38.5908,-120.9336,275.8,2015,1532,,,26,,,,108,2093,,,62.6,76.5,48.6
US1CASC0015,SARATOGA 0.5 N,37.2748,-122.0227,113.7,2015,,,,,,,2.82,,,11.80,,,,
USC00048045,SCOTIA,40.48306,-124.10361,41.5,2015,107,,,29,,,4.65,90,2438,40.81,,57.8,66.4,49.1
USW00093138,PALM SPRINGS REGIONAL AIRPORT,33.8222,-116.5043,124.7,2015,4835,0,0,32,0,0.0,0.52,118,425,2.09,0.0,76.6,89.4,63.8
US1CASD0054,DESCANSO 0.3 WNW,32.8538,-116.6212,1049.1,2015,,,,,,,1.60,,,20.43,,,,
USR0000CBLQ,BLUE RIDGE KNF CALIFORNIA,41.2694,-123.1875,1815.4,2015,412,,,17,,,,90,5094,,,51.1,59.4,42.8
USS0019L08S,Leavitt Meadows,38.3,-119.55,2194.0,2015,4,88,,-7,26,,2.30,84,6475,26.96,,45.9,60.2,31.6
US1CASD0053,SAN DIEGO COUNTRY ESTATES 1.5,33.0158,-116.8068,449.3,2015,,,,,,,2.50,,,15.63,,,,
USC00049378,VISTA,33.2354,-117.2322,131.1,2015,1232,,,31,,,1.15,99,926,10.02,,65.3,75.1,55.4
USC00049152,U C L A,34.0697,-118.4427,131.1,2015,1542,0,0,40,0,0.0,2.62,98,630,8.19,0.0,67.2,75.0,59.4
USR0000CBKD,BLACK DIAMOND CALIFORNIA,37.95,-121.8844,487.7,2015,1050,,,32,,,,99,2248,,,61.1,68.6,53.5
USR0000CDOG,DOG VALLEY CALIFORNIA,39.5619,-120.0478,1821.5,2015,189,,,-3,,,,95,6056,,,48.1,64.0,32.3
US1CASD0035,RANCHO BERNARDO 0.8SE,33.0179,-117.0625,147.2,2015,,,,,,,0.93,,,10.83,,,,
US1CASD0034,CARLSBAD 2.2SE,33.1427,-117.3206,6.7,2015,,,,,,,1.58,,,7.87,,,,
USC00049390,VOLTA POWER HOUSE,40.4583,-121.8663,676.7,2015,,0,0,,0,0.0,1.95,,,20.63,0.0,,,
USC00041428,CAMP PARDEE,38.2486,-120.8433,200.6,2015,,0,0,,0,0.0,1.66,,,15.40,0.0,,,
USC00041424,CAMPO,32.6263,-116.4699,801.6,2015,1001,,,16,,,1.56,107,2397,12.44,,60.8,78.5,43.0
USR0000CSMI,SAN MIGUEL CALIFORNIA,32.685,-116.9736,129.5,2015,1560,,,38,,,,102,624,,,67.2,76.0,58.3
USR0000CDOY,DOYLE CALIFORNIA,40.0222,-120.1056,1292.4,2015,797,,,7,,,,101,4474,,,54.2,68.4,40.0
USS0019L07S,Sonora Pass,38.31,-119.6,2690.5,2015,0,179,,-3,49,,1.60,77,7696,27.95,,42.5,52.5,32.4
USC00040332,ARVIN,35.2111,-118.8336,137.2,2015,,,,,,,0.76,113,,5.96,,,81.7,
US1CASD0040,EL CAJON 2.3 S,32.7698,-116.9593,224.9,2015,,,,,,,1.02,,,10.78,,,,
US1CASD0025,PAUMA VALLEY 1.7 SE,33.2905,-116.9568,345.0,2015,,,,,,,1.44,,,12.57,,,,
US1CASD0024,CHULA VISTA 2.5SE,32.6168,-117.0519,81.1,2015,,,,,,,0.98,,,7.43,,,,
USW00023273,SANTA MARIA PUBLIC AIRPORT,34.8994,-120.4486,73.8,2015,604,0,,31,0,,0.60,99,1264,4.19,,62.3,74.2,50.4
US1CASD0023,CARDIFF BY THE SEA 0.2 E,33.0267,-117.2712,81.1,2015,,,,,,,0.77,,,7.79,,,,
USR0000CFRE,FREMONT CANYON CALIFORNIA,33.8081,-117.7111,542.8,2015,1819,,,40,,,,100,994,,,66.9,75.4,58.5
USW00023275,UKIAH MUNICIPAL AIRPORT,39.12583,-123.20083,183.2,2015,1143,0,,19,0,,3.25,108,2056,21.20,,61.6,77.1,46.0
US1CASD0028,SANTEE 1.8NW,32.8562,-116.9961,143.3,2015,,,,,,,1.11,,,10.85,,,,
USR0000COCR,OAK CREEK CALIFORNIA,36.8425,-118.2594,1479.8,2015,1668,,,22,,,,101,2635,,,61.3,71.9,50.7
USW00023272,SAN FRANCISCO DOWNTOWN,37.7705,-122.4269,45.7,2015,202,,,39,,,1.30,95,1965,9.93,,59.7,66.0,53.5
USR0000CFRI,FRIEND MOUNTAIN CALIFORNIA,40.505,-123.3417,1219.2,2015,800,,,17,,,,100,4052,,,55.4,67.2,43.6
USW00023271,SACRAMENTO 5 ESE,38.5552,-121.4183,11.6,2015,1838,,,30,,,1.07,108,1504,8.17,,65.1,77.8,52.3
USW00023277,WATSONVILLE MUNICIPAL AIRPORT,36.93583,-121.78861,48.8,2015,393,,,26,,,1.64,99,1716,11.54,,60.3,71.3,49.4
US1CAMA0003,YOSEMITE LAKES 4.7 S,37.1241,-119.761,487.1,2015,,,,,,,2.12,,,11.22,,,,
USS0019L06S,Poison Flat,38.51,-119.63,2357.9,2015,0,151,,-6,45,,2.10,79,7534,29.37,,42.9,55.4,30.4
US1CAMA0004,AHWAHNEE 2.5 NNW,37.3996,-119.7381,865.6,2015,,2,2,,1,1.0,3.85,,,24.07,2.1,,,
USR0000CDNK,DINKEY CALIFORNIA,37.0664,-119.0394,1727.6,2015,91,,,2,,,,90,5623,,,48.9,64.6,33.2
USR0000CSLA,SLATER BUTTE CALIFORNIA,41.8586,-123.3525,1423.4,2015,773,,,17,,,,99,4754,,,53.3,62.1,44.5
US1CASD0030,LA JOLLA 2.1 SE,32.8257,-117.2501,149.7,2015,,,,,,,1.35,,,10.15,,,,
US1CASD0014,BORREGO SPRINGS 2.4 WSW,33.2225,-116.3904,236.8,2015,,,0,,,0.0,0.13,,,0.43,0.0,,,
USS0020H01S,State Line,41.99,-120.72,1731.3,2015,181,,,0,,,1.30,92,5831,20.43,,48.6,59.1,38.0
US1CASD0013,JAMUL 9.9ESE,32.6802,-116.7061,834.2,2015,,,,,,,2.38,,,19.07,,,,
US1CASD0012,POWAY 3.2NE,32.9956,-117.0044,367.6,2015,,,,,,,1.45,,,12.38,,,,
USR0000CDMC,DEMOCRAT CALIFORNIA,35.5317,-118.6303,718.1,2015,1874,,,23,,,,105,2066,,,63.5,77.4,49.5
US1CASD0011,ENCINITAS 2.7N,33.0757,-117.292,57.3,2015,,,,,,,1.34,,,7.73,,,,
USW00093110,OXNARD VENTURA CO AIRPORT,34.20083,-119.20694,11.0,2015,802,,,36,,,0.94,96,934,4.72,,64.1,72.5,55.6
US1CASD0015,LA JOLLA 2.5SE,32.8254,-117.2397,154.8,2015,,,0,,,0.0,1.32,,,9.61,0.0,,,
USW00093112,NORTH ISLAND NAS,32.7,-117.2,7.9,2015,,,,,,,,,788,,,,,
US1CASD0019,OCEANSIDE 5.6NE,33.2539,-117.3127,18.3,2015,,,,,,,1.09,,,7.74,,,,
US1CASM0016,HALF MOON BAY 0.7 NW,37.4777,-122.4454,11.0,2015,,,,,,,1.68,,,11.94,,,,
USC00044710,LAKESIDE 2 E,32.8536,-116.8947,210.3,2015,,,,,,,0.75,,,11.03,,,,
USR0000CBIR,BIG ROCK CALIFORNIA,38.0394,-122.57,457.2,2015,672,,,35,,,,99,2108,,,60.4,69.0,51.9
US1CACC0028,EL CERRITO 1.3 NW,37.9363,-122.3157,78.6,2015,,,,,,,1.43,,,10.45,,,,
USC00044712,LAKE SOLANO,38.492,-122.0039,57.0,2015,1753,0,0,28,0,0.0,2.74,108,1705,9.48,0.0,64.5,79.0,50.0
USR0000CBIP,BIG PINES CALIFORNIA,34.3789,-117.6919,2108.3,2015,444,,,13,,,,89,4426,,,52.9,62.2,43.6
USC00045802,MONTEREY NWSFO,36.5927,-121.8555,37.2,2015,110,,,31,,,1.55,92,2411,10.43,,58.3,65.7,50.9
USW00093104,CHINA LAKE NAF,35.6875,-117.6931,679.7,2015,2602,,,12,,,0.69,112,1987,2.20,,65.8,81.8,49.8
USW00093107,SAN DIEGO MIRAMAR NAS,32.86667,-117.13333,145.4,2015,1806,,,33,,,1.33,104,690,9.58,,67.8,78.4,57.3
USR0000CHUR,HURLEY CALIFORNIA,37.0153,-119.5678,366.1,2015,1536,,,22,,,,105,2621,,,61.0,76.4,45.6
US1CASD0003,IMPERIAL BEACH 3.3 E,32.5738,-117.0625,42.1,2015,,,,,,,0.82,,,6.89,,,,
USC00049185,UPPER SAN LEANDRO FILTERS,37.7719,-122.1675,120.1,2015,,,,,,,1.69,,,13.27,,,,
USR0000COAM,OAK MOUNTAIN CALIFORNIA,41.0064,-121.9833,518.2,2015,1558,,,25,,,,106,2773,,,61.1,72.4,49.7
USS0020H02S,Crowder Flat,41.89,-120.75,1575.8,2015,172,33,,3,18,,0.80,96,5683,16.35,,48.8,60.9,36.6
US1CASD0001,SAN MARCOS 2.5 ENE,33.1472,-117.1316,203.0,2015,,,,,,,0.99,,,9.47,,,,
USR0000COAK,OAK KNOLL CALIFORNIA,41.8386,-122.85,591.3,2015,1011,,,15,,,,108,3546,,,57.4,73.4,41.3
US1CASD0006,EL CAJON 2.3ENE,32.8112,-116.9254,185.9,2015,,,,,,,0.93,,,10.07,,,,
US1CASD0004,OCEANSIDE 8.4NE,33.27,-117.2663,76.8,2015,,,,,,,1.28,,,9.51,,,,
US1CASM0001,PACIFICA 0.3 W,37.6121,-122.4825,69.2,2015,,,,,,,1.19,,,13.49,,,,
US1CASD0009,EL CAJON 1.5WSW,32.7907,-116.987,221.6,2015,,,,,,,1.00,,,10.09,,,,
US1CASM0006,FOSTER CITY 1.3 SW,37.5488,-122.2587,2.1,2015,,,,,,,1.46,,,8.97,,,,
USR0000CYUR,YUROK CALIFORNIA,41.2897,-123.8575,150.9,2015,892,,,28,,,,117,2258,,,60.5,74.2,46.9
US1CASM0007,HALF MOON BAY 0.5 SSW,37.463,-122.4408,16.5,2015,,0,0,,0,0.0,1.61,,,12.08,0.0,,,
USC00041697,CHERRY VALLEY DAM,37.9747,-119.9161,1452.4,2015,939,,,14,,,5.47,100,3602,34.43,,56.8,68.7,44.9
USC00041214,BURNEY,40.8802,-121.6547,974.8,2015,,,,,,,,,4639,,,,,
USR0000CSHQ,SHADEQUARTER CALIFORNIA,36.5672,-118.9556,1240.2,2015,1489,,,23,,,,98,2681,,,60.7,68.8,52.6
USS0020K30S,Squaw Valley G.C.,39.19,-120.26,2447.2,2015,17,173,,10,52,,3.60,77,6930,43.08,,44.9,51.7,38.0
USW00093134,LOS ANGELES DOWNTOWN USC,34.0236,-118.2911,54.6,2015,1858,0,0,36,0,0.0,2.39,101,501,7.67,0.0,68.3,77.9,58.7
USC00042319,DEATH VALLEY,36.4622,-116.8669,-59.1,2015,6033,0,0,26,0,0.0,0.55,125,688,2.46,0.0,78.8,93.3,64.4
USR0000CSHI,SHIP MOUNTAIN CALIFORNIA,41.7358,-123.7917,1615.4,2015,386,,,19,,,,90,,,,51.0,57.0,44.9
USR0000CSHH,SCHOOL HOUSE CALIFORNIA,41.1383,-123.9056,804.7,2015,524,,,29,,,,95,3800,,,54.9,61.4,48.5
USR0000CWPK,WHITAKER PEAK CALIFORNIA,34.5686,-118.7403,1255.8,2015,1561,,,28,,,,99,2218,,,62.6,72.2,52.9
USR0000CFOU,FOUNTAIN SPRINGS CALIFORNIA,35.8922,-118.915,64.0,2015,2199,,,26,,,,107,1717,,,65.3,78.9,51.7
USC00043402,GIBRALTAR DAM NUMBER 2,34.5225,-119.6822,474.9,2015,,,,,,,,,,4.77,,,,
USR0000CFOR,FORESTHILL CALIFORNIA,39.0914,-120.7317,1327.4,2015,1025,,,20,,,,96,3155,,,58.4,68.3,48.5
USR0000CBGR,BANGOR CALIFORNIA,39.3975,-121.3861,244.8,2015,1750,,,28,,,,106,1921,,,63.9,76.4,51.5
USC00040379,AUBERRY 2 NW,37.0919,-119.5128,637.0,2015,2004,,,26,,,2.33,103,2286,15.07,,63.4,74.7,52.1
USC00040136,ALPINE,32.8358,-116.7774,516.6,2015,1507,,,30,,,1.63,101,1305,14.19,,65.1,76.9,53.2
USC00043882,HEARST CASTLE,35.6841,-121.1683,465.1,2015,902,,,34,,,2.72,97,1840,14.76,,62.0,70.7,53.2
US1CASN0028,SANTA ROSA 3.1 NW,38.4789,-122.744,42.7,2015,,,,,,,1.99,,,13.82,,,,
US1CASN0029,CLOVERDALE 3.2 ESE,38.781,-122.963,242.9,2015,,,,,,,5.65,,,23.77,,,,
USS0020K31S,Css Lab,39.33,-120.37,2089.4,2015,28,138,,9,62,,2.70,82,6207,43.78,,46.9,57.4,36.4
USR0000CBEV,BEVERLY HILLS CALIFORNIA,34.125,-118.4122,384.0,2015,2604,,,36,,,,110,493,,,70.4,84.2,56.6
USR0000CWOL,WOLVERTON CALIFORNIA,36.445,-118.7033,1597.2,2015,1121,,,18,,,,97,2997,,,58.8,69.5,48.1
USR0000CBEU,BEAUMONT CALIFORNIA,33.9306,-116.95,793.7,2015,1777,,,27,,,,105,1541,,,65.1,77.3,52.9
USR0000CWOO,WOODACRE CALIFORNIA,37.9906,-122.6447,426.7,2015,,,,,,,,,2285,,,,,
USC00043896,HEMET,33.7381,-116.8939,552.0,2015,2040,,,31,,,1.00,105,1089,7.87,,67.2,78.5,55.8
USR0000CSHA,SHAVER CALIFORNIA,37.135,-119.2561,1751.4,2015,119,,,4,,,,90,5406,,,49.5,64.6,34.5
USC00044500,KENTFIELD,37.9566,-122.5447,44.2,2015,709,,,30,,,1.67,104,1835,15.53,,61.2,73.2,49.3
USC00046926,PINNACLES NATIONAL MONUMENT,36.4819,-121.1822,398.4,2015,,,,,,,,,,10.08,,,,
USC00042327,DEEP CANYON LAB,33.6513,-116.3763,365.8,2015,,,,,,,0.74,,,4.54,,,,
US1CASN0023,WINDSOR 1.4 SE,38.5317,-122.78,42.7,2015,,,,,,,2.51,,,14.75,,,,
USC00040144,ALTADENA,34.1822,-118.1383,343.5,2015,,,,,,,1.64,,,10.09,,,,
US1CANV0014,LAKE OF THE PINES 1.0 WSW,39.0322,-121.0774,480.4,2015,,,,,,,2.52,,,19.89,,,,
USR0000CLHO,LOST HORSE CALIFORNIA,34.0178,-116.1878,1280.2,2015,1458,,,15,,,,100,2807,,,60.5,73.1,47.9
USS0020K04S,Independence Camp,39.45,-120.29,2134.5,2015,10,101,,5,21,,1.50,84,6761,21.56,,45.3,56.6,34.0
USR0000CASC,ASH CREEK CALIFORNIA,41.2769,-121.9794,975.4,2015,160,,,1,,,,99,5224,,,49.9,67.9,31.8
US1CASN0090,FORESTVILLE 0.7 SW,38.4733,-122.8974,61.3,2015,,,,,,,4.09,,,19.15,,,,
USC00047109,POTTER VALLEY POWERHOUSE,39.3619,-123.1286,310.3,2015,1069,,,19,,,2.80,106,2090,27.61,,61.2,77.9,44.5
USR0000CRUS,RUSH CREEK CALIFORNIA,41.2944,-120.8639,1463.0,2015,609,,,11,,,,94,,,,52.1,61.0,43.2
USC00044074,HONEYDEW 1 SW,40.2375,-124.1322,113.7,2015,,,,,,,8.08,,,56.13,,,,
US1CALK0009,UPPER LAKE 3.6 W,39.1682,-122.9778,438.9,2015,,,,,,,3.30,,,26.02,,,,
USS0020K05S,Independence Lake,39.43,-120.31,2545.7,2015,42,208,,5,66,,2.60,79,7101,35.88,,44.5,51.9,37.1
USR0000CPOP,POPPY PARK CALIFORNIA,34.7325,-118.3833,841.2,2015,2250,,,22,,,,108,1871,,,64.9,77.9,51.9
USR0000CPOV,POVERTY CALIFORNIA,37.4431,-121.7706,629.7,2015,901,,,32,,,,98,2219,,,60.5,68.7,52.3
USR0000CPOT,POTRERO CALIFORNIA,32.6058,-116.6089,714.8,2015,1106,,,24,,,,104,2019,,,61.9,76.9,47.0
US1CAED0023,EL DORADO HILLS 0.9 NNW,38.698,-121.0869,235.0,2015,,,,,,,1.53,,,13.85,,,,
US1CAED0021,EL DORADO HILLS 0.7 NNE,38.6954,-121.0745,216.1,2015,,,,,,,1.57,,,15.10,,,,
US1CASN0080,GLEN ELLEN 1.5 N,38.3778,-122.5343,102.7,2015,,,,,,,3.07,,,16.55,,,,
US1CARV0034,PERRIS 10.6 W,33.8209,-117.4051,483.4,2015,,,,,,,1.14,,,6.73,,,,
US1CARV0036,SUNNYSLOPE 1.6 W,34.0158,-117.4498,288.3,2015,,,,,,,1.14,,,9.14,,,,
US1CASN0088,OCCIDENTAL 2.8 SW,38.3653,-122.9738,187.1,2015,,,,,,,3.15,,,22.76,,,,
USC00046263,NORTHRIDGE CAL STATE,34.2447,-118.525,275.5,2015,,,,,,,1.19,,,6.39,,,,
USC00047111,POWAY VALLEY,33.0175,-117.0292,197.5,2015,1573,,,29,,,1.01,103,898,10.53,,66.2,78.7,53.8
USR0000CARR,ARROYO SECO MT. DIABLO CALIF,36.23,-121.4917,298.7,2015,1240,,,28,,,,108,1704,,,62.9,79.6,46.3
US1CASN0089,HEALDSBURG 12.6 NNW,38.7839,-122.9628,312.7,2015,,,,,,,5.55,,,22.59,,,,
US1CAED0017,CAMINO 2.0 WSW,38.7338,-120.711,887.0,2015,,,1,,,1.5,4.36,,,30.42,2.8,,,
USC00040738,BIG BAR 4 E,40.7405,-123.2077,381.9,2015,963,,,18,,,3.15,109,2939,29.99,,58.4,73.8,42.9
US1CAED0011,POLLOCK PINES 0.5 NW,38.757,-120.5775,1187.2,2015,,,,,,,5.59,,,35.05,,,,
US1CAED0010,PLACERVILLE 0.8 NE,38.7387,-120.7846,612.6,2015,,,0,,,0.4,3.10,,,25.78,0.4,,,
US1CASN0070,GLEN ELLEN 1.9 WNW,38.3651,-122.5718,291.4,2015,,,,,,,2.85,,,18.93,,,,
USC00048218,SIERRAVILLE R S,39.5833,-120.3705,1516.4,2015,,,,,,,,,,19.13,,,,
US1CASN0071,ROHNERT PARK 0.9 SW,38.3392,-122.7113,29.3,2015,,,,,,,1.94,,,14.51,,,,
USR0000CRSP,ROSE PEAK CALIFORNIA,37.5019,-121.7355,932.7,2015,865,,,27,,,,93,2833,,,58.6,65.6,51.5
US1CASN0074,HEALDSBURG 3.7 WNW,38.6476,-122.9207,43.3,2015,,,,,,,5.16,,,20.69,,,,
USC00049785,WOODLAND HILLS PIERCE COLLEGE,34.1819,-118.5744,240.8,2015,2194,,,27,,,1.12,109,878,5.45,,68.1,83.4,52.7
USR0000CLGA,LOS GATOS CALIFORNIA,37.2028,-121.9428,609.6,2015,981,,,32,,,,101,1918,,,61.7,71.8,51.6
US1CANV0001,NEVADA CITY 3.4 NNW,39.3067,-121.0399,728.5,2015,,,,,,,2.87,,,26.54,,,,
USR0000CJAR,JARBO GAP CALIFORNIA,39.7358,-121.4889,759.0,2015,1612,,,30,,,,104,2407,,,62.2,72.0,52.5
US1CASM0022,WOODSIDE 3.4 S,37.3754,-122.2637,485.2,2015,,,,,,,4.56,,,20.56,,,,
USC00041838,CLOVERDALE,38.8,-123.0175,100.6,2015,1356,,,25,,,4.10,109,1529,25.06,,63.8,79.3,48.4
USR0000CLEO,LEO CARRILLO CALIFORNIA,34.0456,-118.9358,15.2,2015,1023,,,39,,,,97,868,,,65.1,73.2,57.1
USC00040741,BIG BEAR LAKE,34.243,-116.917,2058.3,2015,70,13,12,5,7,5.0,1.50,87,5556,11.87,29.8,49.1,62.0,36.2
USC00040983,BORREGO DESERT PARK,33.2559,-116.4036,246.9,2015,4367,,,32,,,0.31,117,503,1.66,,75.1,88.4,61.9
USC00042920,EXCHEQUER DAM,37.585,-120.2672,134.7,2015,,,,,,,3.20,,,13.57,,,,
USR0000CPNN,PINNACLES CALIFORNIA,36.4708,-121.1472,402.9,2015,1404,,,25,,,,110,1666,,,63.3,79.9,46.8
US1CASN0061,SANTA ROSA 1.3 NW,38.464,-122.715,52.7,2015,,,,,,,2.23,,,13.55,,,,
US1CASN0063,WINDSOR 0.6 NNE,38.5534,-122.7929,47.9,2015,,,,,,,3.68,,,17.90,,,,
USR0000CAPT,ALDER POINT CALIFORNIA,40.1867,-123.5903,281.3,2015,950,,,26,,,,111,2563,,,59.7,72.2,47.2
USW00093193,FRESNO YOSEMITE INTERNATIONAL,36.78,-119.7194,101.5,2015,2482,0,0,28,0,0.0,1.00,108,1559,9.00,0.0,66.5,78.8,54.2
USR0000CLDR,LADDER BUTTE CALIFORNIA,40.8072,-121.2967,1752.6,2015,511,,,12,,,,92,4942,,,51.8,60.7,42.9
US1CASZ0029,SANTA CRUZ 3.1 NW,37.0064,-122.075,295.4,2015,,,,,,,3.68,,,19.16,,,,
USW00093197,SANTA MONICA MUNICIPAL AIRPORT,34.01583,-118.45139,53.0,2015,1187,0,0,37,0,0.0,2.59,98,688,8.65,0.0,65.9,73.7,58.0
US1CASZ0021,BOULDER CREEK 3.0 NW,37.1693,-122.1641,266.7,2015,,,,,,,4.04,,,23.89,,,,
USR0000CCSH,CASHMAN CALIFORNIA,40.0017,-120.915,1377.7,2015,1024,,,16,,,,106,3686,,,56.7,71.3,42.1
US1CASK0009,FORKS OF SALMON 1.0 NW,41.2688,-123.3336,507.2,2015,,,,,,,2.30,,,36.71,,,,
USC00042934,FAIRFIELD,38.2736,-122.0677,12.2,2015,1241,,,29,,,1.46,106,1647,9.83,,63.4,75.9,51.0
USC00049325,VICTORVILLE PUMP PLANT,34.5349,-117.3058,871.1,2015,1840,,,18,,,1.08,107,2197,4.63,,63.2,77.7,48.6
USS0019L17S,Lobdell Lake,38.44,-119.37,2814.2,2015,0,159,,-5,37,,1.80,75,8100,28.74,,41.2,51.9,30.5
US1CASK0010,DORRIS 0.2 SW,41.9633,-121.923,1295.1,2015,,,,,,,0.64,,,12.19,,,,
US1CASZ0036,BOULDER CREEK 4.1 N,37.1953,-122.1406,299.9,2015,,,,,,,3.71,,,21.85,,,,
USC00049582,WEST POINT,38.3775,-120.5452,845.8,2015,,,,,,,3.52,,,32.52,,,,
USW00093184,SANTA ANA JOHN WAYNE AIRPORT,33.68,-117.86639,16.5,2015,1552,0,0,38,0,0.0,1.49,103,373,6.51,0.0,67.4,75.9,58.9
USC00046074,NAPA STATE HOSPITAL,38.2777,-122.2647,10.7,2015,844,,,27,,,1.57,105,1707,11.74,,61.7,74.9,48.5
USS0020L10S,Fallen Leaf,38.93,-120.05,1900.7,2015,3,64,,5,18,,2.50,81,6541,25.78,,45.9,58.7,33.2
USC00042706,EL CAJON,32.8005,-116.928,150.9,2015,1829,,,32,,,0.71,105,726,7.76,,67.4,79.4,55.4
USR0000CCRA,CRANE FLAT LOOKOUT CALIFORNIA,37.7617,-119.8247,2025.1,2015,421,,,13,,,,86,4337,,,52.9,60.6,45.2
USS0020K25S,Ward Creek NUMBER 3,39.14,-120.22,2028.4,2015,5,145,,6,56,,4.10,84,6630,50.48,,45.8,59.0,32.5
USR0000CROU,ROUND MOUNTAIN,41.4272,-121.4639,1602.6,2015,613,,,10,,,,97,5098,,,51.9,61.9,42.0
USC00042709,EL CAPITAN DAM,32.8856,-116.8149,182.9,2015,2443,,,32,,,1.45,107,559,14.78,,69.8,83.6,56.1
USR0000CCRE,CRESTVIEW CALIFORNIA,37.745,-118.9833,2316.5,2015,16,,,-11,,,,90,,,,44.7,62.3,27.2
USR0000CROS,ROSE VALLEY CALIFORNIA,34.5431,-119.1842,1015.3,2015,387,,,10,,,,98,3577,,,55.4,74.2,36.5
USR0000CCRZ,CRAZY PEAK CALIFORNIA,41.9919,-123.6036,1210.1,2015,485,,,22,,,,98,4214,,,53.9,63.4,44.3
USC00040521,BARSTOW,34.8927,-117.0219,676.7,2015,2754,0,0,22,0,0.0,1.10,110,1773,5.78,0.0,66.8,80.3,53.3
USC00042941,FAIRMONT,34.705,-118.4297,932.7,2015,,0,,,0,,1.83,,,8.02,,,,
US1CASF0008,SAN FRANCISCO 3.0 W,37.7776,-122.4741,62.5,2015,,,,,,,1.23,,,11.56,,,,
USR0000CANZ,ANZA CALIFORNIA,33.555,-116.673,1194.8,2015,943,,,18,,,,100,2916,,,58.7,72.4,45.1
USC00041614,CEDARVILLE,41.5301,-120.1791,1428.9,2015,,29,12,,6,5.0,0.95,,,11.96,31.1,,,
US1CASF0004,SAN FRANCISCO 1.1 SW,37.765,-122.4348,59.1,2015,,,,,,,1.53,,,10.84,,,,
USR0000CCRR,CARPENTER RIDGE CALIFORNIA,40.0686,-121.5825,1466.7,2015,875,,,18,,,,95,3949,,,55.8,64.2,47.4
USR0000CCRT,CRANSTON CALIFORNIA,33.7403,-116.8414,594.4,2015,2124,,,31,,,,107,1172,,,67.2,80.8,53.5
US1CANV0034,GRASS VALLEY 4.2 SE,39.1863,-120.993,848.6,2015,,,,,,,4.88,,,31.64,,,,
US1CANV0035,GRASS VALLEY 1.3 NNE,39.2382,-121.0463,848.0,2015,,,,,,,3.24,,,26.52,,,,
USC00049351,VINTON,39.8056,-120.1858,1508.8,2015,,43,10,,8,8.0,1.00,,,14.36,40.3,,,
US1CANV0036,GRASS VALLEY 2.7 SW,39.1943,-121.0917,711.4,2015,,,,,,,3.68,,,27.70,,,,
USC00049111,TWITCHELL DAM,34.988,-120.3211,177.4,2015,,,,,,,1.25,100,,8.71,,,72.2,
USR0000CNFO,NORTH FORK CALIFORNIA,37.2331,-119.5047,829.1,2015,1677,,,23,,,,105,2377,,,62.1,76.0,48.3
USC00041864,COALINGA,36.1356,-120.3606,204.2,2015,2662,,,26,,,1.67,111,1451,6.35,,67.6,82.0,53.2
USC00043800,HARRY ENGLEBRIGHT DM,39.2372,-121.2666,243.8,2015,,0,0,,0,0.0,1.53,,,18.15,0.0,,,
USC00042713,EL CENTRO 2 SSW,32.7669,-115.5617,-9.1,2015,,,,,,,,,548,,,,,
USC00048014,SAUGUS POWER PLANT 1,34.5894,-118.4547,636.7,2015,,0,,,0,,0.97,,,9.46,,,,
USS0019L39S,Spratt Creek,38.67,-119.82,1863.9,2015,110,80,,4,21,,2.10,89,5481,26.36,,49.2,62.2,36.1
USC00049102,TWENTYNINE PALMS 12 E WONDER VALLEY,34.1206,-115.85,419.4,2015,3975,0,0,17,0,0.0,0.63,114,1141,2.55,0.0,72.1,86.0,58.2
USR0000CROD,RODEO VALLEY,39.6681,-123.3211,740.1,2015,932,,,26,,,,102,3008,,,58.6,70.8,46.4
USR0000CROC,ROCK CREEK,37.5514,-118.6672,2145.8,2015,215,,,4,,,,93,5510,,,49.5,64.7,34.4
USR0000CLAP,LA PANZA CALIFORNIA,35.3811,-120.1875,496.8,2015,1221,,,19,,,,105,2503,,,60.4,77.7,43.2
USR0000CALD,ALDER SPRINGS CALIFORNIA,39.6514,-122.7236,1310.6,2015,1015,,,22,,,,96,3394,,,57.9,66.3,49.5
USR0000CLAU,LAUFMAN CALIFORNIA,40.1417,-120.3533,1767.8,2015,669,,,8,,,,101,,,,52.9,66.5,39.3
USC00048273,SKYLINE RIDGE,37.3133,-122.185,691.9,2015,663,,,29,,,3.56,98,2653,24.67,,58.5,68.0,49.0
USR0000CLAS,LASSEN LODGE CALIFORNIA,40.3442,-121.7136,1267.7,2015,1207,,,21,,,,100,3162,,,58.9,69.0,48.8
USS0019L13S,Virginia Lakes Ridge,38.07,-119.23,2878.8,2015,0,194,,1,34,,1.40,76,7565,23.76,,42.7,51.7,33.7
USW00094299,ALTURAS MUNICIPAL AIRPORT,41.49139,-120.56444,1333.5,2015,317,,,-15,,,0.68,101,5293,13.19,,49.9,66.8,33.1
USR0000CLAR,LAURAL MOUNTAIN CALIFORNIA,35.4783,-117.6989,1338.1,2015,2033,,,25,,,,102,2156,,,63.7,72.9,54.5
USC00041879,COARSEGOLD 4 SE,37.2119,-119.69,676.0,2015,,,,,,,2.80,,,16.22,,,,
USS0020K27S,Tahoe City Cross,39.17,-120.15,2071.7,2015,46,69,,11,22,,2.30,83,5974,29.47,,47.8,58.5,37.1
USR0000CLAH,LA HONDA CALIFORNIA,37.3053,-122.255,265.8,2015,340,,,28,,,,98,2309,,,58.9,70.7,47.0
USR0000CPIL,PILOT HILL CALIFORNIA,38.8325,-121.0086,365.8,2015,1302,,,25,,,,104,2398,,,61.3,74.8,47.7
USR0000CLAG,MOUNT LAGUNA CALIFORNIA,32.8797,-116.4203,1755.6,2015,376,,,4,,,,93,4299,,,53.4,66.2,40.7
USR0000CPIK,PIKE CO LOOKOUT CALIFORNIA,39.475,-121.2025,1132.0,2015,1151,,,25,,,,95,2740,,,59.7,67.8,51.6
USS0020K03S,Independence Creek,39.49,-120.28,1967.8,2015,15,93,,-1,25,,1.70,86,6826,21.95,,44.9,59.1,30.6
US1CANV0041,NEVADA CITY 1.7 SSE,39.2384,-121.0058,965.6,2015,,,,,,,3.73,,,33.02,,,,
USR0000CTRI,TRINITY CAMP CALIFORNIA,40.7864,-122.8045,1008.3,2015,983,,,20,,,,100,3726,,,56.7,67.5,46.0
USR0000CALT,LOS ALTOS CALIFORNIA,37.3581,-122.1472,196.6,2015,773,,,30,,,,102,,,,61.9,74.1,49.8
USC00042964,FALL RIVER MILLS,41.008,-121.435,1005.8,2015,,0,0,,0,0.0,1.71,,,15.93,0.0,,,
USR0000CTRM,TRIMMER CALIFORNIA,36.9111,-119.305,469.4,2015,2114,,,27,,,,108,1965,,,64.4,77.2,51.7
USR0000CLAY,LAYTONVILLE CALIFORNIA,39.7022,-123.485,554.7,2015,850,,,21,,,,105,2843,,,58.8,73.9,43.6
USC00048025,SAWYERS BAR RANGER STATION,41.3011,-123.133,661.1,2015,,,,,,,2.17,,,33.87,,,,
USR0000CTRA,LAS TRAMPAS CALIFORNIA,37.8339,-122.0669,536.4,2015,853,,,31,,,,103,2347,,,60.0,68.6,51.4
USS0019L38S,Leavitt Lake,38.28,-119.61,2931.3,2015,0,209,,0,90,,3.30,72,8045,42.85,,41.6,48.9,34.2
USR0000CALP,ALPINE CALIFORNIA,32.8336,-116.7392,622.1,2015,1591,,,27,,,,101,1577,,,64.5,74.9,54.1
USW00053139,STOVEPIPE WELLS 1 SW,36.602,-117.1449,25.6,2015,5884,,,27,,,0.24,122,758,1.67,,78.3,90.2,66.4
USC00046657,PALOMAR MOUNTAIN OBSVTRY,33.378,-116.84,1691.6,2015,940,,,18,,,2.05,92,3141,16.74,,58.0,66.7,49.4
USR0000CFEN,FENCE MEADOW CALIFORNIA,36.9614,-119.175,1538.6,2015,1248,,,19,,,,97,3172,,,58.8,67.5,50.1
USC00042294,DAVIS 2 WSW EXPERIMENTAL FARM,38.5349,-121.7761,18.3,2015,1361,,,25,,,1.91,107,1847,7.86,,63.0,77.1,49.0
USC00044232,INDEPENDENCE,36.798,-118.2036,1204.0,2015,2321,,,15,,,0.42,111,2236,2.76,,64.5,80.1,49.0
USR0000CHIG,HIGH SIERRA CALIFORNIA,37.3147,-119.0383,2256.4,2015,128,,,2,,,,89,5572,,,48.7,62.0,35.3
USC00047741,SAN DIEGO SEAWORLD,32.7672,-117.2258,4.6,2015,800,,,38,,,1.06,88,,6.79,,64.2,69.6,58.7
USR0000CWEE,WEED AIRPORT CALIFORNIA,41.4789,-122.4539,893.1,2015,929,,,14,,,,105,4032,,,55.7,68.6,42.8
USC00048606,STRAWBERRY VALLEY,39.563,-121.1077,1160.7,2015,457,,,19,,,5.10,97,3969,42.75,,54.6,68.1,41.1
USW00053150,YOSEMITE VILLAGE 12 W,37.7592,-119.8208,2017.8,2015,347,,,15,,,2.69,85,4686,29.64,,51.8,58.8,44.7
USW00053151,FALLBROOK 5 NE,33.4392,-117.1904,347.5,2015,1853,,,33,,,1.00,105,798,7.55,,67.5,79.2,55.7
USW00053152,SANTA BARBARA 11 W,34.4141,-119.8796,5.5,2015,483,,,30,,,0.78,91,1671,4.07,,61.2,70.8,51.7
USC00044484,KELSEY 1 N,38.8088,-120.8208,609.6,2015,,0,0,,0,0.0,2.64,,,21.92,0.0,,,
USC00043157,FORT BIDWELL,41.8715,-120.1574,1444.4,2015,566,32,11,-2,17,5.0,0.63,98,4862,12.41,27.1,52.0,64.5,39.5
USC00046663,PALOS VERDES ES FC43D,33.7997,-118.391,67.1,2015,,,,,,,0.88,,,6.54,,,,
USR0000CWES,WESTWOOD CALIFORNIA,40.3067,-120.9,1767.8,2015,470,,,9,,,,91,5186,,,51.0,60.5,41.5
USC00044259,INDIO FIRE STATION,33.7086,-116.2152,-6.4,2015,5023,,,31,,,0.23,115,394,1.11,,77.3,88.6,66.0
USC00047767,SAN FRANCISCO OCEANSIDE,37.728,-122.5052,2.4,2015,,,,,,,0.95,,,7.50,,,,
USR0000CHGL,HIGH GLADE LOOKOUT CALIFORNIA,39.2083,-122.8083,1475.2,2015,844,,,20,,,,92,3569,,,56.8,65.3,48.4
USR0000CLOP,LOS PRIETOS CALIFORNIA,34.5358,-119.7833,310.9,2015,1551,,,26,,,,109,1231,,,65.1,81.2,49.0
USC00043161,FORT BRAGG 5 N,39.5091,-123.7566,37.5,2015,,,,,,,4.72,,,33.72,,,,
USC00045100,LORAINE 5 NNE,35.3836,-118.4122,1290.8,2015,870,,,15,,,1.25,98,3205,9.41,,57.6,71.7,43.6
USC00046675,PANOCHE 2 W,36.6066,-120.8841,426.7,2015,,,,,,,1.26,,,5.39,,,,
USR0000CFAW,FAWNSKIN CALIFORNIA,34.2661,-116.8989,2103.1,2015,55,,,1,,,,88,5455,,,49.1,64.1,34.0
USC00042090,COVINA CITY YARD FC387B,34.0917,-117.88,185.0,2015,,,,,,,0.67,,,6.19,,,,
USC00045360,MARKLEY COVE,38.4916,-122.1241,146.3,2015,1296,0,0,27,0,0.0,2.42,108,1966,12.02,0.0,62.6,77.8,47.4
USR0000CFAN,FANCHER CREEK CALIFORNIA,36.8839,-119.4658,280.4,2015,2760,,,31,,,,108,1375,,,67.8,78.1,57.5
USR0000CHER,HERNANDEZ CALIFORNIA,36.3825,-120.8558,1137.8,2015,1316,,,28,,,,97,2515,,,60.8,69.5,52.2
USC00045118,LOS BANOS,37.0563,-120.8666,36.6,2015,1946,,,26,,,0.79,105,1709,5.16,,64.8,77.8,51.9
USC00045119,LOS BANOS ARBURUA RANCH,36.8749,-120.9386,256.9,2015,,,,,,,1.69,,,6.02,,,,
US1CASJ0004,STOCKTON 5.8 NNE,38.0381,-121.2547,10.7,2015,,,,,,,0.75,,,8.55,,,,
USC00047779,SAN GABRIEL DAM FC425B E,34.2052,-117.8608,451.4,2015,,,,,,,1.18,,,11.02,,,,
US1CASJ0005,LODI 1.0 NNW,38.136,-121.3044,13.1,2015,,,,,,,1.07,,,8.68,,,,
US1CASJ0006,STOCKTON 3.3 SE,37.9417,-121.2585,7.0,2015,,,,,,,0.76,,,8.05,,,,
US1CASJ0007,TRACY 2.1 W,37.7353,-121.4699,15.8,2015,,,,,,,0.85,,,5.44,,,,
USC00045598,MIDDLETOWN,38.725,-122.5513,340.8,2015,,0,0,,0,0.0,3.50,,,20.00,0.0,,,
USC00047776,SAN GABRIEL CANYON PH,34.1553,-117.9078,226.8,2015,,,,,,,1.58,,,9.27,,,,
USC00046685,PARADISE,39.7538,-121.6241,533.4,2015,1579,,,32,,,4.00,103,,26.59,,63.6,73.8,53.5
US1CASJ0001,LINDEN 5.8 ENE,38.0627,-121.0079,44.5,2015,,,,,,,1.61,,,11.65,,,,
USC00044025,HOLLISTER 2,36.8483,-121.4213,83.8,2015,626,,,26,,,,102,1970,,,60.2,73.0,47.5
USC00047306,REDLANDS,34.037,-117.1948,429.8,2015,,,,,,,0.82,,,7.54,,,,
US1CARV0005,HEMET 4.1 ENE,33.7527,-116.9196,517.6,2015,,,,,,,0.92,,,8.84,,,,
USR0000CHEL,HELL HOLE CALIFORNIA,39.0717,-120.4217,1597.2,2015,657,,,20,,,,92,,,,54.9,64.0,45.8
US1CARV0008,CORONA 12.8 SE,33.7307,-117.4276,427.9,2015,,,,,,,1.64,,,7.13,,,,
US1CARV0002,IDYLLWILD 1.8 NW,33.7631,-116.735,1927.9,2015,,,,,,,2.37,,,22.04,,,,
USR0000CPUL,PULGAS CALIFORNIA,37.475,-122.2981,196.3,2015,714,,,33,,,,104,,,,61.7,72.9,50.5
USR0000CWAL,WALKER PASS CALIFORNIA,35.6647,-118.0569,1698.3,2015,1372,,,19,,,,102,2775,,,60.0,72.7,47.2
USR0000CWAK,WALKER CALIFORNIA,38.5653,-119.4592,1658.1,2015,948,,,8,,,,95,3990,,,55.5,67.0,44.0
USC00045378,MARTINEZ WATER PLANT,38.0131,-122.1142,12.2,2015,788,,,24,,,0.95,104,2376,7.87,,60.6,74.7,46.6
USR0000CWAR,WARM SPRINGS CALIFORNIA,34.5958,-118.5786,1502.7,2015,1607,,,13,,,,100,2281,,,62.7,72.2,53.1
USW00053119,HANFORD MUNICIPAL AIRPORT,36.31889,-119.62889,75.9,2015,2288,0,0,26,0,0.0,0.70,108,1750,4.89,0.0,65.5,79.8,51.3
USC00040931,BOCA,39.3886,-120.0936,1699.3,2015,56,47,12,-10,12,11.0,1.99,93,6474,24.61,61.5,45.9,64.9,26.9
USR0000CLKL,LOWER KLAMATH CALIFORNIA,41.9992,-121.7003,1249.1,2015,197,,,-6,,,,99,5518,,,49.2,64.5,33.9
USW00053120,RAMONA AIRPORT,33.0375,-116.91583,424.6,2015,1177,0,,24,0,,1.29,103,1785,12.04,,62.7,78.1,47.3
USW00053121,OCEANSIDE MUNICIPAL AIRPORT,33.21944,-117.34944,8.5,2015,1029,0,,26,0,,1.14,99,1260,7.09,,63.7,74.7,52.7
USC00044297,IRON MOUNTAIN,34.1472,-115.1219,281.0,2015,4823,,,27,,,0.42,117,633,2.54,,76.2,88.5,63.9
USC00047326,REDONDO BEACH,33.8342,-118.3759,43.3,2015,954,,,35,,,0.80,97,914,6.21,,64.7,73.1,56.2
US1CARV0020,NORCO 2.3 SE,33.9059,-117.5178,332.5,2015,,,,,,,1.55,,,7.27,,,,
USC00049742,WINTERS,38.5252,-121.9777,41.1,2015,1791,,,25,,,2.94,110,1707,9.91,,64.5,78.7,50.4
USR0000CHAS,HASTINGS CALIFORNIA,36.3886,-121.5517,574.5,2015,828,,,28,,,,99,2165,,,60.5,72.3,48.7
USR0000CHAY,HAYFORK CALIFORNIA,40.55,-123.165,708.1,2015,650,,,11,,,,107,3701,,,55.7,73.0,38.4
USR0000CHAW,HAWKEYE CALIFORNIA,38.7817,-122.9169,609.6,2015,931,,,33,,,,97,2296,,,60.8,69.0,52.6
USR0000CLIN,LINCOLN CALIFORNIA,38.8825,-121.2683,61.0,2015,1806,,,23,,,,107,1967,,,63.7,77.9,49.5
USR0000CRUT,RUTH CALIFORNIA,40.2506,-123.3158,832.7,2015,534,,,13,,,,106,3490,,,56.0,73.9,38.1
USR0000CJER,JERSEYDALE CALIFORNIA,37.5436,-119.8386,1188.7,2015,1517,,,18,,,,103,2670,,,60.9,73.4,48.3
USC00047339,REDWOOD CITY,37.4767,-122.2386,9.4,2015,719,,,28,,,1.07,101,1779,6.17,,61.3,72.6,50.0
US1CARV0018,BEAUMONT 2.5 NW,33.9543,-117.012,771.8,2015,,,,,,,1.02,,,10.76,,,,
USC00040943,BODIE CALIFORNIA STATE HISTORIC PARK,38.2119,-119.0142,2551.2,2015,13,48,25,-19,12,12.0,1.67,85,,14.63,76.7,39.9,57.7,22.2
USR0000CPRD,PANOCHE ROAD CALIFORNIA,36.7269,-120.7658,619.4,2015,2053,,,32,,,,99,1777,,,64.9,72.1,57.8
US1CARV0015,NORCO 1.2 S,33.908,-117.548,201.5,2015,,,,,,,1.45,,,6.78,,,,
USC00046006,MOUNT WILSON CBS,34.2308,-118.0711,1740.4,2015,981,,,22,,,3.34,93,2750,22.15,,59.3,69.7,48.9
